[
{"STATE":"IL","ZIP":60629,"LATTITUDE":41.781968095273925,"ADDRESS":"6128 S MAPLEWOOD AVE 1ST ","YEAR":2013,"DOING_BUSINESS_AS_NAME":"WILLIAM BURCH","POP_AT_RISK":565548,"BUSINESS_TYPE":"Expediter - Class B Employee","LEGAL_NAME":"SHARON D BURCH","LONGITUDE":-87.68752911519721},
{"STATE":"IL","ZIP":60631,"LATTITUDE":41.98113454543051,"ADDRESS":"8600 W BRYN MAWR AVE 6 600NORTH","YEAR":2013,"DOING_BUSINESS_AS_NAME":"DENA MARIE RANIERI","POP_AT_RISK":105845,"BUSINESS_TYPE":"Expediter - Class B Employee","LEGAL_NAME":"FMHC CORPORATION","LONGITUDE":-87.84163842292439},
{"STATE":"IL","ZIP":60642,"LATTITUDE":41.89119100001117,"ADDRESS":"1166 W GRAND AVE  ","YEAR":2013,"DOING_BUSINESS_AS_NAME":"PETER D. BERAN","POP_AT_RISK":151612,"BUSINESS_TYPE":"Expediter - Class B Employee","LEGAL_NAME":"IPSA CORPORATION","LONGITUDE":-87.65730850431937},
{"STATE":"IL","ZIP":60616,"LATTITUDE":41.84611420178927,"ADDRESS":"2536 S LOWE AVE  ","YEAR":2013,"DOING_BUSINESS_AS_NAME":"MAREK JANUSZ WISNIEWSKI","POP_AT_RISK":637024,"BUSINESS_TYPE":"Expediter - Class B Employee","LEGAL_NAME":"IPSA CORPORATION","LONGITUDE":-87.64369647608687},
{"STATE":"IL","ZIP":60612,"LATTITUDE":41.893271864900484,"ADDRESS":"641 N WESTERN AVE 1ST ","YEAR":2013,"DOING_BUSINESS_AS_NAME":"HECTOR SILVA","POP_AT_RISK":748125,"BUSINESS_TYPE":"Expediter - Class B Employee","LEGAL_NAME":"Joseph M. Glorioso","LONGITUDE":-87.68662305904685},
{"STATE":"IL","ZIP":60654,"LATTITUDE":41.892273812713306,"ADDRESS":"209 W OHIO ST 3RD ","YEAR":2013,"DOING_BUSINESS_AS_NAME":"SARAH JOY VALENTINO","POP_AT_RISK":222999,"BUSINESS_TYPE":"Expediter - Class B Employee","LEGAL_NAME":"BUILDING PERMITS, INC.","LONGITUDE":-87.63450063355145},
{"STATE":"IL","ZIP":60623,"LATTITUDE":41.85191341020999,"ADDRESS":"3052 W CERMAK RD 1ST ","YEAR":2013,"DOING_BUSINESS_AS_NAME":"ERICA VIOLET MARTINEZ","POP_AT_RISK":1237432,"BUSINESS_TYPE":"Expediter - Class B Employee","LEGAL_NAME":"VIOLETAS PERMIT & BUSINESS LICENSE L.L.C.","LONGITUDE":-87.70245782917193},
{}]