[
  {
    "BUSINESS_TYPE": "Motor Vehicle Repair; Specialty(Class I)", 
    "LEGAL_NAME": "ABDUS SALAM KAHN", 
    "STATE": "IL", 
    "DOING_BUSINESS_AS_NAME": "SALAM KHAN", 
    "POP_AT_RISK": 58081, 
    "ZIP": 60651, 
    "ADDRESS": "5255 W CHICAGO AVE 1ST", 
    "YEAR": 2000, 
    "LONGITUDE": -87.757829096, 
    "LATTITUDE": 41.894803822
  }, 
  {
    "BUSINESS_TYPE": "Motor Vehicle Repair; Specialty(Class I)", 
    "LEGAL_NAME": "MAJESTIC AUTO ALARMS INC", 
    "STATE": "IL", 
    "DOING_BUSINESS_AS_NAME": "MAJESTIC AUTO ALARMS INC", 
    "POP_AT_RISK": 27493, 
    "ZIP": 60652, 
    "ADDRESS": "8323 S PULASKI RD 1ST", 
    "YEAR": 2000, 
    "LONGITUDE": -87.721510549, 
    "LATTITUDE": 41.74149142
  }, 
  {
    "BUSINESS_TYPE": "Motor Vehicle Repair; Specialty(Class I)", 
    "LEGAL_NAME": "PABLO ADAME", 
    "STATE": "IL", 
    "DOING_BUSINESS_AS_NAME": "P ADAME TIRE SHOP", 
    "POP_AT_RISK": 33747, 
    "ZIP": 60609, 
    "ADDRESS": "4250 S ASHLAND AVE", 
    "YEAR": 2000, 
    "LONGITUDE": -87.665300781, 
    "LATTITUDE": 41.816152718
  }, 
  {
    "BUSINESS_TYPE": "Motor Vehicle Repair; Specialty(Class I)", 
    "LEGAL_NAME": "S & S AUTOMOTIVE INC", 
    "STATE": "IL", 
    "DOING_BUSINESS_AS_NAME": "SUPERIOR SOUND", 
    "POP_AT_RISK": 64126, 
    "ZIP": 60640, 
    "ADDRESS": "5137 N BROADWAY  1ST", 
    "YEAR": 2000, 
    "LONGITUDE": -87.65970284, 
    "LATTITUDE": 41.97570582
  }, 
  {
    "BUSINESS_TYPE": "Motor Vehicle Repair; Specialty(Class I)", 
    "LEGAL_NAME": "REX RADIANTOR & WELDING CO INC", 
    "STATE": "IL", 
    "DOING_BUSINESS_AS_NAME": "REX RADIATOR & WELDING CO INC", 
    "POP_AT_RISK": 39684, 
    "ZIP": 60607, 
    "ADDRESS": "1239 W LAKE ST", 
    "YEAR": 2000, 
    "LONGITUDE": -87.658366649, 
    "LATTITUDE": 41.885370201
  }, 
  {
    "BUSINESS_TYPE": "Motor Vehicle Repair; Specialty(Class I)", 
    "LEGAL_NAME": "INTA SOUND CORP", 
    "STATE": "IL", 
    "DOING_BUSINESS_AS_NAME": "THE SOUND ADVANTAGE", 
    "POP_AT_RISK": 82118, 
    "ZIP": 60657, 
    "ADDRESS": "2911 N CLARK ST", 
    "YEAR": 2000, 
    "LONGITUDE": -87.646650882, 
    "LATTITUDE": 41.935190844
  }, 
  {
    "BUSINESS_TYPE": "Motor Vehicle Repair; Specialty(Class I)", 
    "LEGAL_NAME": "AARON AUTO GLASS & TRIM INC", 
    "STATE": "IL", 
    "DOING_BUSINESS_AS_NAME": "AARON GLASS & TRIM INC", 
    "POP_AT_RISK": 65225, 
    "ZIP": 60639, 
    "ADDRESS": "4318 W ARMITAGE AVE 1ST", 
    "YEAR": 2000, 
    "LONGITUDE": -87.734648713, 
    "LATTITUDE": 41.917172319
  }
]