[
  {
    "BUSINESS_TYPE": "Bed-And-Breakfast Establishment", 
    "LEGAL_NAME": "CHICAGO BED & BREAKFAST INC", 
    "STATE": "IL", 
    "DOING_BUSINESS_AS_NAME": "WINDY CITY URBAN INN", 
    "POP_AT_RISK": 71082, 
    "ZIP": 60614, 
    "ADDRESS": "607 W DEMING PL", 
    "YEAR": 2003, 
    "LONGITUDE": -87.644515696, 
    "LATTITUDE": 41.927889072
  }, 
  {
    "BUSINESS_TYPE": "Bed-And-Breakfast Establishment", 
    "LEGAL_NAME": "MAUD TRAVELS", 
    "STATE": "IL", 
    "DOING_BUSINESS_AS_NAME": "MAUD TRAVELS", 
    "POP_AT_RISK": 63797, 
    "ZIP": 60614, 
    "ADDRESS": "1860 N MAUD AVE", 
    "YEAR": 2003, 
    "LONGITUDE": -87.654459449, 
    "LATTITUDE": 41.915412795
  }, 
  {
    "BUSINESS_TYPE": "Bed-And-Breakfast Establishment", 
    "LEGAL_NAME": "ARDMORE HOUSE LLC", 
    "STATE": "IL", 
    "DOING_BUSINESS_AS_NAME": "THE ARDMORE HOUSE", 
    "POP_AT_RISK": 61771, 
    "ZIP": 60660, 
    "ADDRESS": "1248 W ARDMORE AVE", 
    "YEAR": 2003, 
    "LONGITUDE": -87.662122867, 
    "LATTITUDE": 41.988235485
  }, 
  {
    "BUSINESS_TYPE": "Bed-And-Breakfast Establishment", 
    "LEGAL_NAME": "STEPHEN L. TAYLOR", 
    "STATE": "IL", 
    "DOING_BUSINESS_AS_NAME": "WICKER PARK INN", 
    "POP_AT_RISK": 59720, 
    "ZIP": 60622, 
    "ADDRESS": "1329 N WICKER PARK AVE", 
    "YEAR": 2003, 
    "LONGITUDE": -87.672961359, 
    "LATTITUDE": 41.90648832
  }, 
  {
    "BUSINESS_TYPE": "Bed-And-Breakfast Establishment", 
    "LEGAL_NAME": "ANDERS AND MYRA NYBERG", 
    "STATE": "IL", 
    "DOING_BUSINESS_AS_NAME": "NYBERG B & B", 
    "POP_AT_RISK": 81988, 
    "ZIP": 60613, 
    "ADDRESS": "3924 N JANSSEN AVE", 
    "YEAR": 2003, 
    "LONGITUDE": -87.665965828, 
    "LATTITUDE": 41.95327823
  }
]