[
  {
    "BUSINESS_TYPE": "Peddler, food (fruits and vegtables only)", 
    "LEGAL_NAME": "GERARDO YUNGAICELA", 
    "STATE": "IL", 
    "DOING_BUSINESS_AS_NAME": "GERARDO YUNGAICELA", 
    "POP_AT_RISK": 67423, 
    "ZIP": 60625, 
    "ADDRESS": "4859 N BERNARD ST 1ST", 
    "YEAR": 2001, 
    "LONGITUDE": -87.714487945, 
    "LATTITUDE": 41.970121644
  }, 
  {
    "BUSINESS_TYPE": "Peddler, food (fruits and vegtables only)", 
    "LEGAL_NAME": "CAMERINO VEGA", 
    "STATE": "IL", 
    "DOING_BUSINESS_AS_NAME": "CAMERINO VEGA", 
    "POP_AT_RISK": 65610, 
    "ZIP": 60641, 
    "ADDRESS": "3048 N KILPATRICK AVE", 
    "YEAR": 2001, 
    "LONGITUDE": -87.744488178, 
    "LATTITUDE": 41.936660995
  }, 
  {
    "BUSINESS_TYPE": "Peddler, food (fruits and vegtables only)", 
    "LEGAL_NAME": "JESUS CERRATO", 
    "STATE": "IL", 
    "DOING_BUSINESS_AS_NAME": "JESUS CERRATO", 
    "POP_AT_RISK": 22104, 
    "ZIP": 60628, 
    "ADDRESS": "318 E 116TH ST 1ST", 
    "YEAR": 2001, 
    "LONGITUDE": -87.615929074, 
    "LATTITUDE": 41.682701581
  }, 
  {
    "BUSINESS_TYPE": "Peddler, food (fruits and vegtables only)", 
    "LEGAL_NAME": "AGUSTINA QUINTERO", 
    "STATE": "IL", 
    "DOING_BUSINESS_AS_NAME": "AGUSTINA QUINTERO", 
    "POP_AT_RISK": 62348, 
    "ZIP": 60622, 
    "ADDRESS": "1623 N WOOD ST", 
    "YEAR": 2001, 
    "LONGITUDE": -87.672447784, 
    "LATTITUDE": 41.911276209
  }, 
  {
    "BUSINESS_TYPE": "Peddler, food (fruits and vegtables only)", 
    "LEGAL_NAME": "RUBEN OROZCO VILCHEZ", 
    "STATE": "IL", 
    "DOING_BUSINESS_AS_NAME": "RUBEN OROZCO VILCHES", 
    "POP_AT_RISK": 65641, 
    "ZIP": 60626, 
    "ADDRESS": "6954 N CLARK ST", 
    "YEAR": 2001, 
    "LONGITUDE": -87.673920126, 
    "LATTITUDE": 42.008163594
  }, 
  {
    "BUSINESS_TYPE": "Peddler, food (fruits and vegtables only)", 
    "LEGAL_NAME": "FELIPE MAYOROA", 
    "STATE": "IL", 
    "DOING_BUSINESS_AS_NAME": "FELIPE MAYOR", 
    "POP_AT_RISK": 52649, 
    "ZIP": 60629, 
    "ADDRESS": "5631 S CHRISTIANA AVE 1ST", 
    "YEAR": 2001, 
    "LONGITUDE": -87.707007375, 
    "LATTITUDE": 41.79070948
  }, 
  {
    "BUSINESS_TYPE": "Peddler, food (fruits and vegtables only)", 
    "LEGAL_NAME": "MARIA CONTRERAS", 
    "STATE": "IL", 
    "DOING_BUSINESS_AS_NAME": "MARIA CONTRERAS", 
    "POP_AT_RISK": 44713, 
    "ZIP": 60632, 
    "ADDRESS": "4644 S TROY ST", 
    "YEAR": 2001, 
    "LONGITUDE": -87.702924454, 
    "LATTITUDE": 41.808625875
  }, 
  {
    "BUSINESS_TYPE": "Peddler, food (fruits and vegtables only)", 
    "LEGAL_NAME": "GRACIELA CORONA", 
    "STATE": "IL", 
    "DOING_BUSINESS_AS_NAME": "GRACIELA CORONA", 
    "POP_AT_RISK": 41088, 
    "ZIP": 60608, 
    "ADDRESS": "1710 S CARPENTER ST  1ST", 
    "YEAR": 2001, 
    "LONGITUDE": -87.653548468, 
    "LATTITUDE": 41.85854122
  }, 
  {
    "BUSINESS_TYPE": "Peddler, food (fruits and vegtables only)", 
    "LEGAL_NAME": "JOSE CARRERA", 
    "STATE": "IL", 
    "DOING_BUSINESS_AS_NAME": "CARRERA JOSE", 
    "POP_AT_RISK": 51139, 
    "ZIP": 60629, 
    "ADDRESS": "3503 W 65TH PL 1ST", 
    "YEAR": 2001, 
    "LONGITUDE": -87.71048846, 
    "LATTITUDE": 41.77418882
  }, 
  {
    "BUSINESS_TYPE": "Peddler, food (fruits and vegtables only)", 
    "LEGAL_NAME": "JOANN THOMPSON", 
    "STATE": "IL", 
    "DOING_BUSINESS_AS_NAME": "JOANN THOMPSON", 
    "POP_AT_RISK": 31547, 
    "ZIP": 60621, 
    "ADDRESS": "5719 S MORGAN ST 1ST", 
    "YEAR": 2001, 
    "LONGITUDE": -87.649763142, 
    "LATTITUDE": 41.789998678
  }, 
  {
    "BUSINESS_TYPE": "Peddler, food (fruits and vegtables only)", 
    "LEGAL_NAME": "MARCUS LYONS", 
    "STATE": "IL", 
    "DOING_BUSINESS_AS_NAME": "MARCUS LYONS", 
    "POP_AT_RISK": 37309, 
    "ZIP": 60621, 
    "ADDRESS": "258 W MARQUETTE RD", 
    "YEAR": 2001, 
    "LONGITUDE": -87.63226993, 
    "LATTITUDE": 41.772785904
  }, 
  {
    "BUSINESS_TYPE": "Peddler, food (fruits and vegtables only)", 
    "LEGAL_NAME": "ELIJAH W PETERSON", 
    "STATE": "IL", 
    "DOING_BUSINESS_AS_NAME": "ELIJAH W PETERSON", 
    "POP_AT_RISK": 22411, 
    "ZIP": 60619, 
    "ADDRESS": "547 E 91ST PL  PETE'", 
    "YEAR": 2001, 
    "LONGITUDE": -87.610036134, 
    "LATTITUDE": 41.728245264
  }, 
  {
    "BUSINESS_TYPE": "Peddler, food (fruits and vegtables only)", 
    "LEGAL_NAME": "AGUSTIN VAZQUEZ HERNANDEZ", 
    "STATE": "IL", 
    "DOING_BUSINESS_AS_NAME": "AGUSTIN VAZQUEZ HERNANDEZ", 
    "POP_AT_RISK": 77401, 
    "ZIP": 60625, 
    "ADDRESS": "4741 N ALBANY AVE", 
    "YEAR": 2001, 
    "LONGITUDE": -87.705862905, 
    "LATTITUDE": 41.96787621
  }, 
  {
    "BUSINESS_TYPE": "Peddler, food (fruits and vegtables only)", 
    "LEGAL_NAME": "GRISELDA FLORES", 
    "STATE": "IL", 
    "DOING_BUSINESS_AS_NAME": "GRISELDA FLORES", 
    "POP_AT_RISK": 47146, 
    "ZIP": 60623, 
    "ADDRESS": "4306 W CERMAK RD  2", 
    "YEAR": 2001, 
    "LONGITUDE": -87.732461831, 
    "LATTITUDE": 41.851538803
  }, 
  {
    "BUSINESS_TYPE": "Peddler, food (fruits and vegtables only)", 
    "LEGAL_NAME": "EMMA PEREZ DIAZ", 
    "STATE": "IL", 
    "DOING_BUSINESS_AS_NAME": "EMMA PEREZ DIAZ", 
    "POP_AT_RISK": 60527, 
    "ZIP": 60623, 
    "ADDRESS": "2500 S WHIPPLE ST", 
    "YEAR": 2001, 
    "LONGITUDE": -87.70156192, 
    "LATTITUDE": 41.846287752
  }, 
  {
    "BUSINESS_TYPE": "Peddler, food (fruits and vegtables only)", 
    "LEGAL_NAME": "SHIRLEY BILLS", 
    "STATE": "IL", 
    "DOING_BUSINESS_AS_NAME": "SHIRLEY BILLS", 
    "POP_AT_RISK": 45187, 
    "ZIP": 60651, 
    "ADDRESS": "1456 N LEAMINGTON AVE 1ST", 
    "YEAR": 2001, 
    "LONGITUDE": -87.754823448, 
    "LATTITUDE": 41.907553635
  }, 
  {
    "BUSINESS_TYPE": "Peddler, food (fruits and vegtables only)", 
    "LEGAL_NAME": "GABRIELA BARRERA", 
    "STATE": "IL", 
    "DOING_BUSINESS_AS_NAME": "GABRIELA BARRERA", 
    "POP_AT_RISK": 37859, 
    "ZIP": 60609, 
    "ADDRESS": "4645 S PAULINA ST  1", 
    "YEAR": 2001, 
    "LONGITUDE": -87.667264471, 
    "LATTITUDE": 41.809071039
  }, 
  {
    "BUSINESS_TYPE": "Peddler, food (fruits and vegtables only)", 
    "LEGAL_NAME": "ROBERT L. JOHNSON, JR", 
    "STATE": "IL", 
    "DOING_BUSINESS_AS_NAME": "ROBERT L. JOHNSON JR.", 
    "POP_AT_RISK": 12432, 
    "ZIP": 60643, 
    "ADDRESS": "12056 S JUSTINE ST", 
    "YEAR": 2001, 
    "LONGITUDE": -87.660205703, 
    "LATTITUDE": 41.674052619
  }, 
  {
    "BUSINESS_TYPE": "Peddler, food (fruits and vegtables only)", 
    "LEGAL_NAME": "PROCESO SOLANO", 
    "STATE": "IL", 
    "DOING_BUSINESS_AS_NAME": "PROCESO SOLANO", 
    "POP_AT_RISK": 77070, 
    "ZIP": 60647, 
    "ADDRESS": "2421 N HARDING AVE 1ST", 
    "YEAR": 2001, 
    "LONGITUDE": -87.725427716, 
    "LATTITUDE": 41.925289429
  }, 
  {
    "BUSINESS_TYPE": "Peddler, food (fruits and vegtables only)", 
    "LEGAL_NAME": "MARGARITA ZAVALA", 
    "STATE": "IL", 
    "DOING_BUSINESS_AS_NAME": "MARGARITA ZAVALA", 
    "POP_AT_RISK": 72311, 
    "ZIP": 60613, 
    "ADDRESS": "4136 N KENMORE AVE # 1F", 
    "YEAR": 2001, 
    "LONGITUDE": -87.656373833, 
    "LATTITUDE": 41.957754806
  }, 
  {
    "BUSINESS_TYPE": "Peddler, food (fruits and vegtables only)", 
    "LEGAL_NAME": "FRED HUNTER", 
    "STATE": "IL", 
    "DOING_BUSINESS_AS_NAME": "FRED HUNTER", 
    "POP_AT_RISK": 26727, 
    "ZIP": 60637, 
    "ADDRESS": "6605 S ELLIS AVE 1ST", 
    "YEAR": 2001, 
    "LONGITUDE": -87.600788954, 
    "LATTITUDE": 41.774809365
  }, 
  {
    "BUSINESS_TYPE": "Peddler, food (fruits and vegtables only)", 
    "LEGAL_NAME": "ANTONIO DEL RIO", 
    "STATE": "IL", 
    "DOING_BUSINESS_AS_NAME": "ANTONIO DEL RIO", 
    "POP_AT_RISK": 65540, 
    "ZIP": 60647, 
    "ADDRESS": "2726 W PRINDIVILLE ST", 
    "YEAR": 2001, 
    "LONGITUDE": -87.696241299, 
    "LATTITUDE": 41.921115027
  }, 
  {
    "BUSINESS_TYPE": "Peddler, food (fruits and vegtables only)", 
    "LEGAL_NAME": "ANTONIO SALINAS", 
    "STATE": "IL", 
    "DOING_BUSINESS_AS_NAME": "ANTONIO SALINAS", 
    "POP_AT_RISK": 51133, 
    "ZIP": 60629, 
    "ADDRESS": "6117 S WASHTENAW AVE # 1ST", 
    "YEAR": 2001, 
    "LONGITUDE": -87.690896297, 
    "LATTITUDE": 41.782256708
  }, 
  {
    "BUSINESS_TYPE": "Peddler, food (fruits and vegtables only)", 
    "LEGAL_NAME": "CLAUDIO GONZALEZ", 
    "STATE": "IL", 
    "DOING_BUSINESS_AS_NAME": "CLAUDIO GONZALEZ", 
    "POP_AT_RISK": 71557, 
    "ZIP": 60623, 
    "ADDRESS": "2346 S KEDZIE AVE 1ST", 
    "YEAR": 2001, 
    "LONGITUDE": -87.70530468, 
    "LATTITUDE": 41.848565695
  }, 
  {
    "BUSINESS_TYPE": "Peddler, food (fruits and vegtables only)", 
    "LEGAL_NAME": "JULIA RAMONO SANCHEZ", 
    "STATE": "IL", 
    "DOING_BUSINESS_AS_NAME": "JULIA RAMONO SANCHEZ", 
    "POP_AT_RISK": 61401, 
    "ZIP": 60651, 
    "ADDRESS": "3535 W BEACH AVE 1ST", 
    "YEAR": 2001, 
    "LONGITUDE": -87.715678929, 
    "LATTITUDE": 41.907173668
  }, 
  {
    "BUSINESS_TYPE": "Peddler, food (fruits and vegtables only)", 
    "LEGAL_NAME": "CASIMIRO HERNANDEZ", 
    "STATE": "IL", 
    "DOING_BUSINESS_AS_NAME": "CASIMIRO HERNANDEZ", 
    "POP_AT_RISK": 64289, 
    "ZIP": 60634, 
    "ADDRESS": "3035 N PARKSIDE AVE # 1ST", 
    "YEAR": 2001, 
    "LONGITUDE": -87.767476462, 
    "LATTITUDE": 41.935966145
  }, 
  {
    "BUSINESS_TYPE": "Peddler, food (fruits and vegtables only)", 
    "LEGAL_NAME": "MARCELO APARICIO", 
    "STATE": "IL", 
    "DOING_BUSINESS_AS_NAME": "MARCELO APARICIO", 
    "POP_AT_RISK": 34612, 
    "ZIP": 60644, 
    "ADDRESS": "4647 W HURON ST  1", 
    "YEAR": 2001, 
    "LONGITUDE": -87.743050276, 
    "LATTITUDE": 41.893099017
  }
]