[
  {
    "BUSINESS_TYPE": "Motor Vehicle Repair : Engine Only (Class II)", 
    "LEGAL_NAME": "ROBERT E. DARENSBOURG", 
    "STATE": "IL", 
    "DOING_BUSINESS_AS_NAME": "ROB'S SERVICE", 
    "POP_AT_RISK": 24898, 
    "ZIP": 60617, 
    "ADDRESS": "8700 S JEFFERY BLVD  1ST", 
    "YEAR": 1998, 
    "LONGITUDE": -87.575862708, 
    "LATTITUDE": 41.736963127
  }, 
  {
    "BUSINESS_TYPE": "Motor Vehicle Repair : Engine Only (Class II)", 
    "LEGAL_NAME": "PHOLAPRUT WONGHANSA", 
    "STATE": "IL", 
    "DOING_BUSINESS_AS_NAME": "CHICAGO GARAGE", 
    "POP_AT_RISK": 76535, 
    "ZIP": 60613, 
    "ADDRESS": "3827 N ASHLAND AVE  1", 
    "YEAR": 1998, 
    "LONGITUDE": -87.668832135, 
    "LATTITUDE": 41.951469721
  }, 
  {
    "BUSINESS_TYPE": "Motor Vehicle Repair : Engine Only (Class II)", 
    "LEGAL_NAME": "J & R AUTO SPECIALISTS INC", 
    "STATE": "IL", 
    "DOING_BUSINESS_AS_NAME": "J R AUTO SPECIALISTS INC", 
    "POP_AT_RISK": 48311, 
    "ZIP": 60609, 
    "ADDRESS": "4236 S WESTERN AVE 1ST", 
    "YEAR": 1998, 
    "LONGITUDE": -87.684794375, 
    "LATTITUDE": 41.816404419
  }, 
  {
    "BUSINESS_TYPE": "Motor Vehicle Repair : Engine Only (Class II)", 
    "LEGAL_NAME": "AUTO SERVICIOS SANCHEZ INC", 
    "STATE": "IL", 
    "DOING_BUSINESS_AS_NAME": "AUTO SERVICIOS SANCHEZ INC", 
    "POP_AT_RISK": 47505, 
    "ZIP": 60623, 
    "ADDRESS": "4239 W 26TH ST", 
    "YEAR": 1998, 
    "LONGITUDE": -87.73102069, 
    "LATTITUDE": 41.844053678
  }, 
  {
    "BUSINESS_TYPE": "Motor Vehicle Repair : Engine Only (Class II)", 
    "LEGAL_NAME": "TALMUS HIGGINS", 
    "STATE": "IL", 
    "DOING_BUSINESS_AS_NAME": "HIGGINS TOWING & AUTO REPAIR", 
    "POP_AT_RISK": 40549, 
    "ZIP": 60636, 
    "ADDRESS": "6809 S ASHLAND AVE", 
    "YEAR": 1998, 
    "LONGITUDE": -87.663813029, 
    "LATTITUDE": 41.770057225
  }, 
  {
    "BUSINESS_TYPE": "Motor Vehicle Repair : Engine Only (Class II)", 
    "LEGAL_NAME": "AUTOSERV/LUBECO LCC.", 
    "STATE": "IL", 
    "DOING_BUSINESS_AS_NAME": "Q LUBE #1854", 
    "POP_AT_RISK": 49845, 
    "ZIP": 60634, 
    "ADDRESS": "5738 W IRVING PARK RD", 
    "YEAR": 1998, 
    "LONGITUDE": -87.771046196, 
    "LATTITUDE": 41.953239852
  }, 
  {
    "BUSINESS_TYPE": "Motor Vehicle Repair : Engine Only (Class II)", 
    "LEGAL_NAME": "AUTOSERV/LUBECO LCC.", 
    "STATE": "IL", 
    "DOING_BUSINESS_AS_NAME": "Q-LUBE", 
    "POP_AT_RISK": 37900, 
    "ZIP": 60608, 
    "ADDRESS": "810 W 31ST ST", 
    "YEAR": 1998, 
    "LONGITUDE": -87.646679205, 
    "LATTITUDE": 41.838151745
  }, 
  {
    "BUSINESS_TYPE": "Motor Vehicle Repair : Engine Only (Class II)", 
    "LEGAL_NAME": "TRUCKERS OIL PROS INC.", 
    "STATE": "IL", 
    "DOING_BUSINESS_AS_NAME": "TRUCKERS OIL PROS INC.", 
    "POP_AT_RISK": 40373, 
    "ZIP": 60632, 
    "ADDRESS": "2756 W 35TH ST  1", 
    "YEAR": 1998, 
    "LONGITUDE": -87.694609957, 
    "LATTITUDE": 41.830196662
  }, 
  {
    "BUSINESS_TYPE": "Motor Vehicle Repair : Engine Only (Class II)", 
    "LEGAL_NAME": "WEST LOOP AUTO INC", 
    "STATE": "IL", 
    "DOING_BUSINESS_AS_NAME": "WEST LOOP AUTO BODY", 
    "POP_AT_RISK": 36789, 
    "ZIP": 60607, 
    "ADDRESS": "318 S MORGAN ST", 
    "YEAR": 1998, 
    "LONGITUDE": -87.652038868, 
    "LATTITUDE": 41.877263277
  }, 
  {
    "BUSINESS_TYPE": "Motor Vehicle Repair : Engine Only (Class II)", 
    "LEGAL_NAME": "ESMAR A HERRADOR", 
    "STATE": "IL", 
    "DOING_BUSINESS_AS_NAME": "FOUR WHEELS AUTOMOTIVE SERVICE", 
    "POP_AT_RISK": 63426, 
    "ZIP": 60618, 
    "ADDRESS": "4164 N LINCOLN AVE  1ST", 
    "YEAR": 1998, 
    "LONGITUDE": -87.681389447, 
    "LATTITUDE": 41.957673949
  }
]