[
  {
    "BUSINESS_TYPE": "Day Labor Agency", 
    "LEGAL_NAME": "RYAN EMPLOYMENT, INC.", 
    "STATE": "IL", 
    "DOING_BUSINESS_AS_NAME": "EXPRESS PERSONNEL SERVICES", 
    "POP_AT_RISK": 27547, 
    "ZIP": 60630, 
    "ADDRESS": "5526 N MILWAUKEE AVE", 
    "YEAR": 2010, 
    "LONGITUDE": -87.773884314, 
    "LATTITUDE": 41.982205971
  }, 
  {
    "BUSINESS_TYPE": "Day Labor Agency", 
    "LEGAL_NAME": "DEBBIE'S CUSTOMIZED STAFFING, INCORPORATED", 
    "STATE": "IL", 
    "DOING_BUSINESS_AS_NAME": "DEBBIE'S CUSTOMIZED STAFFING", 
    "POP_AT_RISK": 22894, 
    "ZIP": 60632, 
    "ADDRESS": "4117 W 47TH ST  106", 
    "YEAR": 2010, 
    "LONGITUDE": -87.726825174, 
    "LATTITUDE": 41.807721115
  }, 
  {
    "BUSINESS_TYPE": "Day Labor Agency", 
    "LEGAL_NAME": "PRONTO STAFFING SERVICES INC", 
    "STATE": "IL", 
    "DOING_BUSINESS_AS_NAME": "PRONTO STAFFING SERVICES INC", 
    "POP_AT_RISK": 21953, 
    "ZIP": 60617, 
    "ADDRESS": "10526 S EWING AVE 1ST", 
    "YEAR": 2010, 
    "LONGITUDE": -87.535431542, 
    "LATTITUDE": 41.703734504
  }, 
  {
    "BUSINESS_TYPE": "Day Labor Agency", 
    "LEGAL_NAME": "ALLSTAFF, INC.", 
    "STATE": "IL", 
    "DOING_BUSINESS_AS_NAME": "ANDREW'S STAFFING", 
    "POP_AT_RISK": 37704, 
    "ZIP": 60641, 
    "ADDRESS": "4255 N MILWAUKEE AVE 1ST", 
    "YEAR": 2010, 
    "LONGITUDE": -87.752446865, 
    "LATTITUDE": 41.958488692
  }, 
  {
    "BUSINESS_TYPE": "Day Labor Agency", 
    "LEGAL_NAME": "ELITE LABOR SERVICES ON 55TH, LTD.", 
    "STATE": "IL", 
    "DOING_BUSINESS_AS_NAME": "ELITE LABOR SERVICES ON 55TH, LTD.", 
    "POP_AT_RISK": 54343, 
    "ZIP": 60632, 
    "ADDRESS": "3244-3248 W 55TH ST 1ST", 
    "YEAR": 2010, 
    "LONGITUDE": -87.70531638, 
    "LATTITUDE": 41.793596916
  }, 
  {
    "BUSINESS_TYPE": "Day Labor Agency", 
    "LEGAL_NAME": "ASSIST, INC.", 
    "STATE": "IL", 
    "DOING_BUSINESS_AS_NAME": "ASSIST, INC.", 
    "POP_AT_RISK": 79582, 
    "ZIP": 60625, 
    "ADDRESS": "4406 N KEDZIE AVE", 
    "YEAR": 2010, 
    "LONGITUDE": -87.708402605, 
    "LATTITUDE": 41.961398873
  }, 
  {
    "BUSINESS_TYPE": "Day Labor Agency", 
    "LEGAL_NAME": "LABOR TEMPS II, LLC", 
    "STATE": "IL", 
    "DOING_BUSINESS_AS_NAME": "LABOR TEMPS", 
    "POP_AT_RISK": 46458, 
    "ZIP": 60608, 
    "ADDRESS": "1157 W 18TH ST 1", 
    "YEAR": 2010, 
    "LONGITUDE": -87.655425589, 
    "LATTITUDE": 41.857860499
  }, 
  {
    "BUSINESS_TYPE": "Day Labor Agency", 
    "LEGAL_NAME": "LABOR TEMPS II, LLC", 
    "STATE": "IL", 
    "DOING_BUSINESS_AS_NAME": "LABOR TEMPS", 
    "POP_AT_RISK": 51132, 
    "ZIP": 60647, 
    "ADDRESS": "2147 N WESTERN AVE 1", 
    "YEAR": 2010, 
    "LONGITUDE": -87.687380615, 
    "LATTITUDE": 41.921210946
  }, 
  {
    "BUSINESS_TYPE": "Day Labor Agency", 
    "LEGAL_NAME": "ELITE LABOR SERVICES, LTD.", 
    "STATE": "IL", 
    "DOING_BUSINESS_AS_NAME": "ELITE LABOR SERVICES, LTD.", 
    "POP_AT_RISK": 74641, 
    "ZIP": 60647, 
    "ADDRESS": "3215 W ARMITAGE AVE", 
    "YEAR": 2010, 
    "LONGITUDE": -87.707614551, 
    "LATTITUDE": 41.917284644
  }, 
  {
    "BUSINESS_TYPE": "Day Labor Agency", 
    "LEGAL_NAME": "SMRJ, INC.", 
    "STATE": "IL", 
    "DOING_BUSINESS_AS_NAME": "FOUR BOYS LABOR SERVICE", 
    "POP_AT_RISK": 73640, 
    "ZIP": 60639, 
    "ADDRESS": "5018 W FULLERTON AVE  MAIN", 
    "YEAR": 2010, 
    "LONGITUDE": -87.752038845, 
    "LATTITUDE": 41.924273889
  }, 
  {
    "BUSINESS_TYPE": "Day Labor Agency", 
    "LEGAL_NAME": "P.A. STAFFING SERVICES OF ILLINOIS, INC.", 
    "STATE": "IL", 
    "DOING_BUSINESS_AS_NAME": "P.A. STAFFING SERVICES OF ILL", 
    "POP_AT_RISK": 79174, 
    "ZIP": 60647, 
    "ADDRESS": "3508 W FULLERTON AVE", 
    "YEAR": 2010, 
    "LONGITUDE": -87.71496951, 
    "LATTITUDE": 41.924737924
  }, 
  {
    "BUSINESS_TYPE": "Day Labor Agency", 
    "LEGAL_NAME": "ELITE LABOR SERVICES, LTD.", 
    "STATE": "IL", 
    "DOING_BUSINESS_AS_NAME": "ELITE STAFFING, INC.", 
    "POP_AT_RISK": 74083, 
    "ZIP": 60625, 
    "ADDRESS": "4953 N KEDZIE AVE 1", 
    "YEAR": 2010, 
    "LONGITUDE": -87.708423849, 
    "LATTITUDE": 41.971832822
  }, 
  {
    "BUSINESS_TYPE": "Day Labor Agency", 
    "LEGAL_NAME": "PRIME STAFFING INC", 
    "STATE": "IL", 
    "DOING_BUSINESS_AS_NAME": "PRIME STAFFING INC", 
    "POP_AT_RISK": 50190, 
    "ZIP": 60641, 
    "ADDRESS": "3806 N CICERO AVE 1ST", 
    "YEAR": 2010, 
    "LONGITUDE": -87.747368107, 
    "LATTITUDE": 41.949986443
  }, 
  {
    "BUSINESS_TYPE": "Day Labor Agency", 
    "LEGAL_NAME": "ALL-WORK  INC.", 
    "STATE": "IL", 
    "DOING_BUSINESS_AS_NAME": "ALL WORK, INC", 
    "POP_AT_RISK": 74185, 
    "ZIP": 60639, 
    "ADDRESS": "4019 W ARMITAGE AVE", 
    "YEAR": 2010, 
    "LONGITUDE": -87.727442711, 
    "LATTITUDE": 41.917045522
  }, 
  {
    "BUSINESS_TYPE": "Day Labor Agency", 
    "LEGAL_NAME": "CUSTOM STAFFING, INC", 
    "STATE": "IL", 
    "DOING_BUSINESS_AS_NAME": "CUSTOM STAFFING INC", 
    "POP_AT_RISK": 65921, 
    "ZIP": 60623, 
    "ADDRESS": "2700 S LAWNDALE AVE 1ST", 
    "YEAR": 2010, 
    "LONGITUDE": -87.717323898, 
    "LATTITUDE": 41.842423206
  }, 
  {
    "BUSINESS_TYPE": "Day Labor Agency", 
    "LEGAL_NAME": "INDUSTRIAL STAFFING SERVICES, INC.", 
    "STATE": "IL", 
    "DOING_BUSINESS_AS_NAME": "INDUSTRIAL LABOR SERVICES", 
    "POP_AT_RISK": 66927, 
    "ZIP": 60639, 
    "ADDRESS": "5445 W DIVERSEY AVE  1", 
    "YEAR": 2010, 
    "LONGITUDE": -87.763173468, 
    "LATTITUDE": 41.93120742
  }, 
  {
    "BUSINESS_TYPE": "Day Labor Agency", 
    "LEGAL_NAME": "STAFFING NETWORK HOLDINGS, L.L.C.", 
    "STATE": "IL", 
    "DOING_BUSINESS_AS_NAME": "STAFFING NETWORK", 
    "POP_AT_RISK": 32927, 
    "ZIP": 60609, 
    "ADDRESS": "1237 W 47TH ST 1", 
    "YEAR": 2010, 
    "LONGITUDE": -87.65660836, 
    "LATTITUDE": 41.808606189
  }, 
  {
    "BUSINESS_TYPE": "Day Labor Agency", 
    "LEGAL_NAME": "STAFF ONE, INC", 
    "STATE": "IL", 
    "DOING_BUSINESS_AS_NAME": "CLEARSTAFF, INC.", 
    "POP_AT_RISK": 68230, 
    "ZIP": 60641, 
    "ADDRESS": "3031 N PULASKI RD", 
    "YEAR": 2010, 
    "LONGITUDE": -87.726957328, 
    "LATTITUDE": 41.936307879
  }, 
  {
    "BUSINESS_TYPE": "Day Labor Agency", 
    "LEGAL_NAME": "PREMIER MANAGEMENT SYSTEMS CORP.", 
    "STATE": "IL", 
    "DOING_BUSINESS_AS_NAME": "PREMIER STAFFING SERVICES", 
    "POP_AT_RISK": 40239, 
    "ZIP": 60608, 
    "ADDRESS": "2134 W 18TH ST 1", 
    "YEAR": 2010, 
    "LONGITUDE": -87.679817469, 
    "LATTITUDE": 41.857729674
  }
]