[
  {
    "BUSINESS_TYPE": "Explosives", 
    "LEGAL_NAME": "GUY F ATKINSON CONSTRUCTIN, LLC", 
    "STATE": "IL", 
    "DOING_BUSINESS_AS_NAME": "GUY F ATKINSON CONSTRUCTION, LLC", 
    "POP_AT_RISK": 23509, 
    "ZIP": 60605, 
    "ADDRESS": "1400 S LYNN WHITE DR", 
    "YEAR": 2007, 
    "LONGITUDE": -87.609371664, 
    "LATTITUDE": 41.863800798
  }, 
  {
    "BUSINESS_TYPE": "Explosives", 
    "LEGAL_NAME": "BRANDENBURG INDUSTRIAL SERVICE COMPANY", 
    "STATE": "IL", 
    "DOING_BUSINESS_AS_NAME": "BRANDENBURG INDUSTRIAL SERVICE", 
    "POP_AT_RISK": 45079, 
    "ZIP": 60608, 
    "ADDRESS": "2625 S LOOMIS ST  1ST", 
    "YEAR": 2007, 
    "LONGITUDE": -87.660192223, 
    "LATTITUDE": 41.844952492
  }, 
  {
    "BUSINESS_TYPE": "Explosives", 
    "LEGAL_NAME": "CARNEY GROUP", 
    "STATE": "IL", 
    "DOING_BUSINESS_AS_NAME": "CHICAGO EXPLOSIVE SERVICE", 
    "POP_AT_RISK": 50511, 
    "ZIP": 60604, 
    "ADDRESS": "141 W JACKSON BLVD  2007", 
    "YEAR": 2007, 
    "LONGITUDE": -87.632062286, 
    "LATTITUDE": 41.878025655
  }, 
  {
    "BUSINESS_TYPE": "Explosives", 
    "LEGAL_NAME": "Broadway In Chicago, LLC", 
    "STATE": "IL", 
    "DOING_BUSINESS_AS_NAME": "Cadillac Palace Theater", 
    "POP_AT_RISK": 54914, 
    "ZIP": 60601, 
    "ADDRESS": "151 W RANDOLPH ST", 
    "YEAR": 2007, 
    "LONGITUDE": -87.632508385, 
    "LATTITUDE": 41.884363124
  }, 
  {
    "BUSINESS_TYPE": "Explosives", 
    "LEGAL_NAME": "CHICAGO SHAKESPEARE THEATER", 
    "STATE": "IL", 
    "DOING_BUSINESS_AS_NAME": "CHICAGO SHAKESPEARE THEATER", 
    "POP_AT_RISK": 28483, 
    "ZIP": 60611, 
    "ADDRESS": "800 E GRAND AVE  NAVY", 
    "YEAR": 2007, 
    "LONGITUDE": -87.606782206, 
    "LATTITUDE": 41.892291572
  }, 
  {
    "BUSINESS_TYPE": "Explosives", 
    "LEGAL_NAME": "STRICTLY F/X, L.L.C.", 
    "STATE": "IL", 
    "DOING_BUSINESS_AS_NAME": "STRICTLY FX,LLC", 
    "POP_AT_RISK": 40073, 
    "ZIP": 60007, 
    "ADDRESS": "1230  JARVIS AVE", 
    "YEAR": 2007, 
    "LONGITUDE": -87.664513168, 
    "LATTITUDE": 42.016221149
  }
]