[
  {
    "BUSINESS_TYPE": "Day Care Center 2 - 6 Years", 
    "LEGAL_NAME": "CHILDREN'S CAMPUS, INC.", 
    "STATE": "IL", 
    "DOING_BUSINESS_AS_NAME": "CHILDREN CAMPUS INC", 
    "POP_AT_RISK": 15272, 
    "ZIP": 60631, 
    "ADDRESS": "7250 W TOUHY AVE", 
    "YEAR": 2010, 
    "LONGITUDE": -87.808643543, 
    "LATTITUDE": 42.011776153
  }, 
  {
    "BUSINESS_TYPE": "Day Care Center 2 - 6 Years", 
    "LEGAL_NAME": "HULL HOUSE  ASSOCIATION", 
    "STATE": "IL", 
    "DOING_BUSINESS_AS_NAME": "LE CLAIRE HEADSTART CENTER", 
    "POP_AT_RISK": 9840, 
    "ZIP": 60638, 
    "ADDRESS": "4410 S LAPORTE AVE", 
    "YEAR": 2010, 
    "LONGITUDE": -87.747211174, 
    "LATTITUDE": 41.812595077
  }, 
  {
    "BUSINESS_TYPE": "Day Care Center 2 - 6 Years", 
    "LEGAL_NAME": "JUNGLE GYM INC.", 
    "STATE": "IL", 
    "DOING_BUSINESS_AS_NAME": "JUNGLE GYM", 
    "POP_AT_RISK": 16680, 
    "ZIP": 60655, 
    "ADDRESS": "2760 W 111TH ST", 
    "YEAR": 2010, 
    "LONGITUDE": -87.690698256, 
    "LATTITUDE": 41.691799665
  }, 
  {
    "BUSINESS_TYPE": "Day Care Center 2 - 6 Years", 
    "LEGAL_NAME": "LITTLE TYKES PRE-SCHOOL, INC.", 
    "STATE": "IL", 
    "DOING_BUSINESS_AS_NAME": "LITTLE TYKES PRE-SCHOOL INC.", 
    "POP_AT_RISK": 26182, 
    "ZIP": 60609, 
    "ADDRESS": "1711 W 35TH ST  1ST F", 
    "YEAR": 2010, 
    "LONGITUDE": -87.668435534, 
    "LATTITUDE": 41.830358931
  }, 
  {
    "BUSINESS_TYPE": "Day Care Center 2 - 6 Years", 
    "LEGAL_NAME": "A CARING WORLD INC", 
    "STATE": "IL", 
    "DOING_BUSINESS_AS_NAME": "A CARING WORLD INC", 
    "POP_AT_RISK": 72844, 
    "ZIP": 60639, 
    "ADDRESS": "4310 W FULLERTON AVE 1ST", 
    "YEAR": 2010, 
    "LONGITUDE": -87.734574395, 
    "LATTITUDE": 41.924500529
  }, 
  {
    "BUSINESS_TYPE": "Day Care Center 2 - 6 Years", 
    "LEGAL_NAME": "LITTLE GREEN OAK INCORPORATED", 
    "STATE": "IL", 
    "DOING_BUSINESS_AS_NAME": "Little Green Oak", 
    "POP_AT_RISK": 54075, 
    "ZIP": 60634, 
    "ADDRESS": "2820 N NARRAGANSETT AVE 1", 
    "YEAR": 2010, 
    "LONGITUDE": -87.785858781, 
    "LATTITUDE": 41.931658215
  }, 
  {
    "BUSINESS_TYPE": "Day Care Center 2 - 6 Years", 
    "LEGAL_NAME": "APPLE TREE CHILDREN'S LEARNING CENTER", 
    "STATE": "IL", 
    "DOING_BUSINESS_AS_NAME": "APPLE TREE INC.", 
    "POP_AT_RISK": 63203, 
    "ZIP": 60630, 
    "ADDRESS": "4909 N PULASKI RD 1", 
    "YEAR": 2010, 
    "LONGITUDE": -87.727942662, 
    "LATTITUDE": 41.97038297
  }, 
  {
    "BUSINESS_TYPE": "Day Care Center 2 - 6 Years", 
    "LEGAL_NAME": "RUSH UNIVERSITY MEDICAL CENTER", 
    "STATE": "IL", 
    "DOING_BUSINESS_AS_NAME": "LAURENCE ARMOUR DAY SCHOOL", 
    "POP_AT_RISK": 32598, 
    "ZIP": 60612, 
    "ADDRESS": "2150 W HARRISON ST", 
    "YEAR": 2010, 
    "LONGITUDE": -87.680922437, 
    "LATTITUDE": 41.874081966
  }, 
  {
    "BUSINESS_TYPE": "Day Care Center 2 - 6 Years", 
    "LEGAL_NAME": "CENTERS FOR NEW HORIZONS, INC.", 
    "STATE": "IL", 
    "DOING_BUSINESS_AS_NAME": "IDA B. WELLS LEARNING CENTER", 
    "POP_AT_RISK": 30521, 
    "ZIP": 60653, 
    "ADDRESS": "3641 S RHODES AVE 1ST", 
    "YEAR": 2010, 
    "LONGITUDE": -87.614276243, 
    "LATTITUDE": 41.828139816
  }, 
  {
    "BUSINESS_TYPE": "Day Care Center 2 - 6 Years", 
    "LEGAL_NAME": "MARI'S BUMBLE BEE DAY CARE CORP.", 
    "STATE": "IL", 
    "DOING_BUSINESS_AS_NAME": "MARI'S BUMBLE BEE DAY CARE CORP.", 
    "POP_AT_RISK": 17749, 
    "ZIP": 60617, 
    "ADDRESS": "9725 S COMMERCIAL AVE 1ST FLOOR", 
    "YEAR": 2010, 
    "LONGITUDE": -87.550874073, 
    "LATTITUDE": 41.718354119
  }, 
  {
    "BUSINESS_TYPE": "Day Care Center 2 - 6 Years", 
    "LEGAL_NAME": "A-ZMALL WORLD CHILD DEVELOPMENT CENTER CORP.", 
    "STATE": "IL", 
    "DOING_BUSINESS_AS_NAME": "A-ZMALL WORLD CHILD DEVELOPMENT CENTER", 
    "POP_AT_RISK": 68529, 
    "ZIP": 60623, 
    "ADDRESS": "2629 S LAWNDALE AVE 1ST", 
    "YEAR": 2010, 
    "LONGITUDE": -87.717055003, 
    "LATTITUDE": 41.843463891
  }, 
  {
    "BUSINESS_TYPE": "Day Care Center 2 - 6 Years", 
    "LEGAL_NAME": "M&E Day Care LLC", 
    "STATE": "IL", 
    "DOING_BUSINESS_AS_NAME": "79th Street Day Care", 
    "POP_AT_RISK": 28716, 
    "ZIP": 60652, 
    "ADDRESS": "3724-32 W 79TH ST GROUND", 
    "YEAR": 2010, 
    "LONGITUDE": -87.715198043, 
    "LATTITUDE": 41.749786048
  }, 
  {
    "BUSINESS_TYPE": "Day Care Center 2 - 6 Years", 
    "LEGAL_NAME": "KIDDIE GARDEN LITTLE ANGELS CORP.", 
    "STATE": "IL", 
    "DOING_BUSINESS_AS_NAME": "KIDDIE GARDEN LITTLE ANGELS", 
    "POP_AT_RISK": 40641, 
    "ZIP": 60632, 
    "ADDRESS": "4235 S KEDZIE AVE", 
    "YEAR": 2010, 
    "LONGITUDE": -87.704148728, 
    "LATTITUDE": 41.81619537
  }, 
  {
    "BUSINESS_TYPE": "Day Care Center 2 - 6 Years", 
    "LEGAL_NAME": "EARLY EDUCATION UNLIMITED, INC.", 
    "STATE": "IL", 
    "DOING_BUSINESS_AS_NAME": "KIDDIE CORNER NURSERY SCHOOL", 
    "POP_AT_RISK": 24262, 
    "ZIP": 60638, 
    "ADDRESS": "6640 W ARCHER AVE 1ST", 
    "YEAR": 2010, 
    "LONGITUDE": -87.788315368, 
    "LATTITUDE": 41.792329559
  }, 
  {
    "BUSINESS_TYPE": "Day Care Center 2 - 6 Years", 
    "LEGAL_NAME": "BRENDA'S KIDS CLUB DAY CARE CENTER INC.", 
    "STATE": "IL", 
    "DOING_BUSINESS_AS_NAME": "BRENDA'S KIDS CLUB DAYCARE CENTER", 
    "POP_AT_RISK": 6845, 
    "ZIP": 60617, 
    "ADDRESS": "3552 E 118TH ST", 
    "YEAR": 2010, 
    "LONGITUDE": -87.536834327, 
    "LATTITUDE": 41.681053268
  }, 
  {
    "BUSINESS_TYPE": "Day Care Center 2 - 6 Years", 
    "LEGAL_NAME": "THE BRICKTON MONTESSORI SCHOOL", 
    "STATE": "IL", 
    "DOING_BUSINESS_AS_NAME": "BRICKTON MONTESSORI SCHOOL", 
    "POP_AT_RISK": 19154, 
    "ZIP": 60656, 
    "ADDRESS": "8622 W CATALPA AVE 1ST", 
    "YEAR": 2010, 
    "LONGITUDE": -87.842478389, 
    "LATTITUDE": 41.979309653
  }, 
  {
    "BUSINESS_TYPE": "Day Care Center 2 - 6 Years", 
    "LEGAL_NAME": "CHICAGO COMMONS ASSOCIATION", 
    "STATE": "IL", 
    "DOING_BUSINESS_AS_NAME": "PAULO FREIRE CENTER", 
    "POP_AT_RISK": 37314, 
    "ZIP": 60609, 
    "ADDRESS": "1653 W 43RD ST", 
    "YEAR": 2010, 
    "LONGITUDE": -87.667347796, 
    "LATTITUDE": 41.81574158
  }, 
  {
    "BUSINESS_TYPE": "Day Care Center 2 - 6 Years", 
    "LEGAL_NAME": "A.B.A., INC.", 
    "STATE": "IL", 
    "DOING_BUSINESS_AS_NAME": "TOTS N TALES PRE-SCHOOL II", 
    "POP_AT_RISK": 22813, 
    "ZIP": 60638, 
    "ADDRESS": "5784 S ARCHER AVE 1ST 1", 
    "YEAR": 2010, 
    "LONGITUDE": -87.757837109, 
    "LATTITUDE": 41.796529625
  }
]