[
  {
    "BUSINESS_TYPE": "License Manager", 
    "LEGAL_NAME": "CAB MANAGEMENT GROUP INC.", 
    "STATE": "IL", 
    "DOING_BUSINESS_AS_NAME": "CAB MANAGEMENT GROUP INC.", 
    "POP_AT_RISK": 17974, 
    "ZIP": 60646, 
    "ADDRESS": "4020 W GLENLAKE AVE", 
    "YEAR": 2015, 
    "LONGITUDE": -87.729840489, 
    "LATTITUDE": 41.992025442
  }, 
  {
    "BUSINESS_TYPE": "License Manager", 
    "LEGAL_NAME": "24 SEVEN TAXI ASSN., INC", 
    "STATE": "IL", 
    "DOING_BUSINESS_AS_NAME": "24 SEVEN TAXI AFFILIATION", 
    "POP_AT_RISK": 67106, 
    "ZIP": 60640, 
    "ADDRESS": "5416 N BROADWAY  1", 
    "YEAR": 2015, 
    "LONGITUDE": -87.660130507, 
    "LATTITUDE": 41.980513858
  }, 
  {
    "BUSINESS_TYPE": "License Manager", 
    "LEGAL_NAME": "CHICAGO MEDALLION MANAGEMENT CORP.", 
    "STATE": "IL", 
    "DOING_BUSINESS_AS_NAME": "CHICAGO MEDALLION MANAGEMENT CORP.", 
    "POP_AT_RISK": 35899, 
    "ZIP": 60612, 
    "ADDRESS": "2738 W FULTON ST", 
    "YEAR": 2015, 
    "LONGITUDE": -87.695438702, 
    "LATTITUDE": 41.886658173
  }, 
  {
    "BUSINESS_TYPE": "License Manager", 
    "LEGAL_NAME": "CHOICE TAXI ASSOCIATION, INC.", 
    "STATE": "IL", 
    "DOING_BUSINESS_AS_NAME": "Choice Taxi Association Inc.", 
    "POP_AT_RISK": 61300, 
    "ZIP": 60626, 
    "ADDRESS": "6550 N CLARK ST", 
    "YEAR": 2015, 
    "LONGITUDE": -87.671897761, 
    "LATTITUDE": 42.001384896
  }, 
  {
    "BUSINESS_TYPE": "License Manager", 
    "LEGAL_NAME": "CHICAGO TAXICAB MANAGEMENT, INC.", 
    "STATE": "IL", 
    "DOING_BUSINESS_AS_NAME": "CHICAGO TAXICAB MANAGEMENT, INC.", 
    "POP_AT_RISK": 62806, 
    "ZIP": 60647, 
    "ADDRESS": "2028 W CONCORD PL", 
    "YEAR": 2015, 
    "LONGITUDE": -87.678388882, 
    "LATTITUDE": 41.911665864
  }, 
  {
    "BUSINESS_TYPE": "License Manager", 
    "LEGAL_NAME": "SUN FINANCIAL SERVICES INC.", 
    "STATE": "IL", 
    "DOING_BUSINESS_AS_NAME": "SUN FINANCIAL SERVICES, INC.", 
    "POP_AT_RISK": 46544, 
    "ZIP": 60641, 
    "ADDRESS": "4626 W CORNELIA AVE", 
    "YEAR": 2015, 
    "LONGITUDE": -87.74351231, 
    "LATTITUDE": 41.944820739
  }, 
  {
    "BUSINESS_TYPE": "License Manager", 
    "LEGAL_NAME": "TAXI EXPERTS INC", 
    "STATE": "IL", 
    "DOING_BUSINESS_AS_NAME": "TAXI EXPERTS, INC.", 
    "POP_AT_RISK": 56881, 
    "ZIP": 60630, 
    "ADDRESS": "4118 W LAWRENCE AVE", 
    "YEAR": 2015, 
    "LONGITUDE": -87.73126904, 
    "LATTITUDE": 41.968314347
  }, 
  {
    "BUSINESS_TYPE": "License Manager", 
    "LEGAL_NAME": "CHICAGO ELITE CAB CORP.", 
    "STATE": "IL", 
    "DOING_BUSINESS_AS_NAME": "CHICAGO ELITE CAB CORP.", 
    "POP_AT_RISK": 31093, 
    "ZIP": 60616, 
    "ADDRESS": "2617 S WABASH AVE", 
    "YEAR": 2015, 
    "LONGITUDE": -87.625165543, 
    "LATTITUDE": 41.845108847
  }, 
  {
    "BUSINESS_TYPE": "License Manager", 
    "LEGAL_NAME": "PEEPLE TRANS CAB INC.", 
    "STATE": "IL", 
    "DOING_BUSINESS_AS_NAME": "PEEPLE TRANS CAB INC.", 
    "POP_AT_RISK": 45186, 
    "ZIP": 60644, 
    "ADDRESS": "151 N CICERO AVE", 
    "YEAR": 2015, 
    "LONGITUDE": -87.745233965, 
    "LATTITUDE": 41.883273521
  }, 
  {
    "BUSINESS_TYPE": "License Manager", 
    "LEGAL_NAME": "LOCO EXPRESS INC.", 
    "STATE": "IL", 
    "DOING_BUSINESS_AS_NAME": "LOCO EXPRESS INC.", 
    "POP_AT_RISK": 45067, 
    "ZIP": 60622, 
    "ADDRESS": "905 N CALIFORNIA AVE", 
    "YEAR": 2015, 
    "LONGITUDE": -87.696605525, 
    "LATTITUDE": 41.897614893
  }, 
  {
    "BUSINESS_TYPE": "License Manager", 
    "LEGAL_NAME": "TAXI MEDALLION MANAGEMENT LLC", 
    "STATE": "IL", 
    "DOING_BUSINESS_AS_NAME": "TAXI MEDALLION MANAGEMENT LLC", 
    "POP_AT_RISK": 62842, 
    "ZIP": 60618, 
    "ADDRESS": "3351 W ADDISON ST 1", 
    "YEAR": 2015, 
    "LONGITUDE": -87.712337176, 
    "LATTITUDE": 41.94646437
  }, 
  {
    "BUSINESS_TYPE": "License Manager", 
    "LEGAL_NAME": "MASTERS MEDALLION MANAGEMENT, LLC", 
    "STATE": "IL", 
    "DOING_BUSINESS_AS_NAME": "MASTERS MEDALLION MANAGEMENT, LLC", 
    "POP_AT_RISK": 8263, 
    "ZIP": 60656, 
    "ADDRESS": "9696 W FOSTER AVE", 
    "YEAR": 2015, 
    "LONGITUDE": -87.866720754, 
    "LATTITUDE": 41.973311384
  }, 
  {
    "BUSINESS_TYPE": "License Manager", 
    "LEGAL_NAME": "CHICAGO MEDALLION LEASING, INC.", 
    "STATE": "IL", 
    "DOING_BUSINESS_AS_NAME": "CHICAGO MEDALLION LEASING, INC.", 
    "POP_AT_RISK": 41913, 
    "ZIP": 60661, 
    "ADDRESS": "724 W WASHINGTON BLVD", 
    "YEAR": 2015, 
    "LONGITUDE": -87.646494151, 
    "LATTITUDE": 41.883262705
  }
]