[
{"STATE":"IL","ZIP":60655,"LATTITUDE":41.68217268377317,"ADDRESS":"3609 W 116TH ST  ","YEAR":2012,"DOING_BUSINESS_AS_NAME":"CRUISEONE","POP_AT_RISK":19944,"BUSINESS_TYPE":"Home Occupation","LEGAL_NAME":"JOHN R. ROSE","LONGITUDE":-87.7105802296456},
{"STATE":"IL","ZIP":60638,"LATTITUDE":41.77603825973843,"ADDRESS":"6232 W 64TH ST  ","YEAR":2012,"DOING_BUSINESS_AS_NAME":"R C CARPET CLEANING","POP_AT_RISK":28149,"BUSINESS_TYPE":"Home Occupation","LEGAL_NAME":"RUBEN CUELLAR","LONGITUDE":-87.77764608913346},
{"STATE":"IL","ZIP":60656,"LATTITUDE":41.97865803040564,"ADDRESS":"5451 N EAST RIVER RD 14TH 1403","YEAR":2012,"DOING_BUSINESS_AS_NAME":"SHINSEN J.C., INC.","POP_AT_RISK":15819,"BUSINESS_TYPE":"Home Occupation","LEGAL_NAME":"SHINSEN J.C., INC.","LONGITUDE":-87.84630905951563},
{"STATE":"IL","ZIP":60623,"LATTITUDE":41.85326579846807,"ADDRESS":"4335 W 21ST ST 1ST ","YEAR":2012,"DOING_BUSINESS_AS_NAME":"Morris&Wade","POP_AT_RISK":51832,"BUSINESS_TYPE":"Home Occupation","LEGAL_NAME":"Larry D Morris Junior","LONGITUDE":-87.73352912104114},
{"STATE":"IL","ZIP":60827,"LATTITUDE":41.65764196893299,"ADDRESS":"13048 S DR MARTIN LUTHER KING JR DR 1 3","YEAR":2012,"DOING_BUSINESS_AS_NAME":"DUST BUSTERS JANITORIAL","POP_AT_RISK":11356,"BUSINESS_TYPE":"Home Occupation","LEGAL_NAME":"CHIQUITA CORRINE LEWIS","LONGITUDE":-87.61352481445516},
{"STATE":"IL","ZIP":60638,"LATTITUDE":41.775709631013335,"ADDRESS":"7052 W 64TH ST 1ST ","YEAR":2012,"DOING_BUSINESS_AS_NAME":"D. C. A. TOWING INCORPORATED","POP_AT_RISK":17543,"BUSINESS_TYPE":"Home Occupation","LEGAL_NAME":"D. C. A. TOWING INCORPORATED","LONGITUDE":-87.79800922659652},
{"STATE":"IL","ZIP":60655,"LATTITUDE":41.709579673350305,"ADDRESS":"3940 W 101ST ST 1 1","YEAR":2012,"DOING_BUSINESS_AS_NAME":"LYLE APPRAISALS","POP_AT_RISK":22978,"BUSINESS_TYPE":"Home Occupation","LEGAL_NAME":"JEFFREY A. LYLE AND ALISON A. LYLE","LONGITUDE":-87.72006864362096},
{}]