[
  {
    "BUSINESS_TYPE": "Raffles", 
    "LEGAL_NAME": "ST NICHOLAS OF TOLENTINE", 
    "STATE": "IL", 
    "DOING_BUSINESS_AS_NAME": "ST NICHOLAS OF TOLENTINE", 
    "POP_AT_RISK": 57957, 
    "ZIP": 60629, 
    "ADDRESS": "3721 W 62ND ST", 
    "YEAR": 2010, 
    "LONGITUDE": -87.716332912, 
    "LATTITUDE": 41.780471718
  }, 
  {
    "BUSINESS_TYPE": "Raffles", 
    "LEGAL_NAME": "INFANT WELFARE SOCIETY OF CHICAGO", 
    "STATE": "IL", 
    "DOING_BUSINESS_AS_NAME": "INFANT WELFARE SOCIETY OF CHICAGO", 
    "POP_AT_RISK": 80292, 
    "ZIP": 60647, 
    "ADDRESS": "3600 W FULLERTON AVE", 
    "YEAR": 2010, 
    "LONGITUDE": -87.717057351, 
    "LATTITUDE": 41.924712414
  }, 
  {
    "BUSINESS_TYPE": "Raffles", 
    "LEGAL_NAME": "ST VIATOR PARISH", 
    "STATE": "IL", 
    "DOING_BUSINESS_AS_NAME": "ST VIATOR PARISH", 
    "POP_AT_RISK": 50400, 
    "ZIP": 60641, 
    "ADDRESS": "4170 W ADDISON ST", 
    "YEAR": 2010, 
    "LONGITUDE": -87.731875578, 
    "LATTITUDE": 41.946424666
  }, 
  {
    "BUSINESS_TYPE": "Raffles", 
    "LEGAL_NAME": "NATIONAL LATINO EDUCATION INSTITUTE", 
    "STATE": "IL", 
    "DOING_BUSINESS_AS_NAME": "SPANISH COALITION FOR JOBS", 
    "POP_AT_RISK": 38140, 
    "ZIP": 60609, 
    "ADDRESS": "2011 W PERSHING RD 1", 
    "YEAR": 2010, 
    "LONGITUDE": -87.675572197, 
    "LATTITUDE": 41.822990347
  }, 
  {
    "BUSINESS_TYPE": "Raffles", 
    "LEGAL_NAME": "PORT MINISTRIES", 
    "STATE": "IL", 
    "DOING_BUSINESS_AS_NAME": "PORT MINISTRIES", 
    "POP_AT_RISK": 41174, 
    "ZIP": 60609, 
    "ADDRESS": "5013 S HERMITAGE AVE 1 & 2", 
    "YEAR": 2010, 
    "LONGITUDE": -87.668315925, 
    "LATTITUDE": 41.802679712
  }, 
  {
    "BUSINESS_TYPE": "Raffles", 
    "LEGAL_NAME": "SHALVA", 
    "STATE": "IL", 
    "DOING_BUSINESS_AS_NAME": "SHALVA", 
    "POP_AT_RISK": 19796, 
    "ZIP": 60646, 
    "ADDRESS": "4747 W PETERSON AVE", 
    "YEAR": 2010, 
    "LONGITUDE": -87.747842562, 
    "LATTITUDE": 41.989792371
  }, 
  {
    "BUSINESS_TYPE": "Raffles", 
    "LEGAL_NAME": "CHICAGO CONVENTION AND TOURISM BUREAU, INC.", 
    "STATE": "IL", 
    "DOING_BUSINESS_AS_NAME": "CHICAGO CONVENTION AND TOURISM BUREAU, INC.", 
    "POP_AT_RISK": 22273, 
    "ZIP": 60616, 
    "ADDRESS": "2301 S LAKE SHORE DR", 
    "YEAR": 2010, 
    "LONGITUDE": -87.612866633, 
    "LATTITUDE": 41.85110748
  }, 
  {
    "BUSINESS_TYPE": "Raffles", 
    "LEGAL_NAME": "ST. SIMON THE APOSTLE CHRUCH", 
    "STATE": "IL", 
    "DOING_BUSINESS_AS_NAME": "ST. SIMON THE APOSTLE CHURCH", 
    "POP_AT_RISK": 51634, 
    "ZIP": 60632, 
    "ADDRESS": "5157 S CALIFORNIA AVE", 
    "YEAR": 2010, 
    "LONGITUDE": -87.693808722, 
    "LATTITUDE": 41.799313737
  }, 
  {
    "BUSINESS_TYPE": "Raffles", 
    "LEGAL_NAME": "ST THOMAS MORE CHURCH", 
    "STATE": "IL", 
    "DOING_BUSINESS_AS_NAME": "ST THOMAS MORE CHURCH", 
    "POP_AT_RISK": 19511, 
    "ZIP": 60652, 
    "ADDRESS": "2825 W 81ST ST", 
    "YEAR": 2010, 
    "LONGITUDE": -87.693686005, 
    "LATTITUDE": 41.746179525
  }, 
  {
    "BUSINESS_TYPE": "Raffles", 
    "LEGAL_NAME": "ST CAJETAN SCHOOL", 
    "STATE": "IL", 
    "DOING_BUSINESS_AS_NAME": "St. Cajetan Church", 
    "POP_AT_RISK": 21672, 
    "ZIP": 60655, 
    "ADDRESS": "2445 W 112TH ST", 
    "YEAR": 2010, 
    "LONGITUDE": -87.682976859, 
    "LATTITUDE": 41.689684086
  }, 
  {
    "BUSINESS_TYPE": "Raffles", 
    "LEGAL_NAME": "OUR LADY OF THE SNOWS", 
    "STATE": "IL", 
    "DOING_BUSINESS_AS_NAME": "OUR LADY OF THE SNOWS", 
    "POP_AT_RISK": 13441, 
    "ZIP": 60638, 
    "ADDRESS": "4810 S LEAMINGTON AVE", 
    "YEAR": 2010, 
    "LONGITUDE": -87.751801134, 
    "LATTITUDE": 41.805309329
  }, 
  {
    "BUSINESS_TYPE": "Raffles", 
    "LEGAL_NAME": "ANCIENT EGYPTIAN ARABIC ORDER NOBLES OF THE MYSTIC SHRINE PRINCE HALL AFFILIATED, ARABIC TEMPLE NO. 44, INC.", 
    "STATE": "IL", 
    "DOING_BUSINESS_AS_NAME": "ARABIC TEMPLE #44 INC", 
    "POP_AT_RISK": 31461, 
    "ZIP": 60619, 
    "ADDRESS": "7545-7547 S COTTAGE GROVE AVE 1ST", 
    "YEAR": 2010, 
    "LONGITUDE": -87.605212842, 
    "LATTITUDE": 41.757246516
  }, 
  {
    "BUSINESS_TYPE": "Raffles", 
    "LEGAL_NAME": "EDGEBROOK SCHOOL FOUNDATION", 
    "STATE": "IL", 
    "DOING_BUSINESS_AS_NAME": "EDGEBROOK SCHOOL FOUNDATION", 
    "POP_AT_RISK": 17956, 
    "ZIP": 60646, 
    "ADDRESS": "6525 N HIAWATHA AVE 1", 
    "YEAR": 2010, 
    "LONGITUDE": -87.761821103, 
    "LATTITUDE": 41.999460165
  }, 
  {
    "BUSINESS_TYPE": "Raffles", 
    "LEGAL_NAME": "THE CATHOLIC CHARITIES OF THE ARCHDIOCESE OF CHICAGO", 
    "STATE": "IL", 
    "DOING_BUSINESS_AS_NAME": "ST. MICHAEL CHURCH", 
    "POP_AT_RISK": 33876, 
    "ZIP": 60617, 
    "ADDRESS": "8237 S SOUTH SHORE DR 1", 
    "YEAR": 2010, 
    "LONGITUDE": -87.547772136, 
    "LATTITUDE": 41.745418428
  }, 
  {
    "BUSINESS_TYPE": "Raffles", 
    "LEGAL_NAME": "ST. FRANCIS BORGIA CHURCH", 
    "STATE": "IL", 
    "DOING_BUSINESS_AS_NAME": "ST. FRANCIS BORGIA CHURCH", 
    "POP_AT_RISK": 18049, 
    "ZIP": 60634, 
    "ADDRESS": "8033 W ADDISON ST", 
    "YEAR": 2010, 
    "LONGITUDE": -87.827893641, 
    "LATTITUDE": 41.944884991
  }, 
  {
    "BUSINESS_TYPE": "Raffles", 
    "LEGAL_NAME": "ST PATRICK HIGH SCHOOL", 
    "STATE": "IL", 
    "DOING_BUSINESS_AS_NAME": "ST. PATRICK HIGH SCHOOL", 
    "POP_AT_RISK": 54640, 
    "ZIP": 60634, 
    "ADDRESS": "5900 W BELMONT AVE", 
    "YEAR": 2010, 
    "LONGITUDE": -87.773849093, 
    "LATTITUDE": 41.938588572
  }, 
  {
    "BUSINESS_TYPE": "Raffles", 
    "LEGAL_NAME": "Catholic Bishop of Chicago", 
    "STATE": "IL", 
    "DOING_BUSINESS_AS_NAME": "St. Margaret Mary", 
    "POP_AT_RISK": 47384, 
    "ZIP": 60645, 
    "ADDRESS": "2324 W CHASE AVE", 
    "YEAR": 2010, 
    "LONGITUDE": -87.68864244, 
    "LATTITUDE": 42.014198838
  }, 
  {
    "BUSINESS_TYPE": "Raffles", 
    "LEGAL_NAME": "ST BASIL VISITATION", 
    "STATE": "IL", 
    "DOING_BUSINESS_AS_NAME": "ST BASIL VISITATION", 
    "POP_AT_RISK": 28731, 
    "ZIP": 60621, 
    "ADDRESS": "843 W GARFIELD BLVD", 
    "YEAR": 2010, 
    "LONGITUDE": -87.646883147, 
    "LATTITUDE": 41.79380109
  }, 
  {
    "BUSINESS_TYPE": "Raffles", 
    "LEGAL_NAME": "CATHOLIC CHURCH ARCHDIOCESE OF CHICAGO", 
    "STATE": "IL", 
    "DOING_BUSINESS_AS_NAME": "OUR LADY OF MERCY", 
    "POP_AT_RISK": 85800, 
    "ZIP": 60625, 
    "ADDRESS": "4432 N TROY ST", 
    "YEAR": 2010, 
    "LONGITUDE": -87.707203537, 
    "LATTITUDE": 41.962190654
  }, 
  {
    "BUSINESS_TYPE": "Raffles", 
    "LEGAL_NAME": "CATHOLIC BISHOPS OF CHICAGO", 
    "STATE": "IL", 
    "DOING_BUSINESS_AS_NAME": "ST.CAMILLUS PARICH", 
    "POP_AT_RISK": 22813, 
    "ZIP": 60638, 
    "ADDRESS": "5426 S LOCKWOOD AVE", 
    "YEAR": 2010, 
    "LONGITUDE": -87.755149889, 
    "LATTITUDE": 41.793832733
  }, 
  {
    "BUSINESS_TYPE": "Raffles", 
    "LEGAL_NAME": "THIRD BAPTIST CHURCH", 
    "STATE": "IL", 
    "DOING_BUSINESS_AS_NAME": "HERITAGE PLAZA", 
    "POP_AT_RISK": 28946, 
    "ZIP": 60643, 
    "ADDRESS": "1500 W 95TH ST", 
    "YEAR": 2010, 
    "LONGITUDE": -87.660272008, 
    "LATTITUDE": 41.721353154
  }, 
  {
    "BUSINESS_TYPE": "Raffles", 
    "LEGAL_NAME": "ST. PHILOMENA CATHOLIC CHURCH", 
    "STATE": "IL", 
    "DOING_BUSINESS_AS_NAME": "ST PHILOMENA CHURCH", 
    "POP_AT_RISK": 64487, 
    "ZIP": 60639, 
    "ADDRESS": "1921 N KEDVALE AVE", 
    "YEAR": 2010, 
    "LONGITUDE": -87.730035883, 
    "LATTITUDE": 41.915955381
  }, 
  {
    "BUSINESS_TYPE": "Raffles", 
    "LEGAL_NAME": "CATHOLIC BISHOP OF CHICAGO", 
    "STATE": "IL", 
    "DOING_BUSINESS_AS_NAME": "ST MONICA CHURCH", 
    "POP_AT_RISK": 21614, 
    "ZIP": 60656, 
    "ADDRESS": "5136 N NOTTINGHAM AVE", 
    "YEAR": 2010, 
    "LONGITUDE": -87.803723872, 
    "LATTITUDE": 41.974815935
  }, 
  {
    "BUSINESS_TYPE": "Raffles", 
    "LEGAL_NAME": "M.W. PRINCE HALL GRAND LODGE", 
    "STATE": "IL", 
    "DOING_BUSINESS_AS_NAME": "M.W. PRINCE HALL GRAND LODGE", 
    "POP_AT_RISK": 37058, 
    "ZIP": 60653, 
    "ADDRESS": "809 E 42ND PL LL-2", 
    "YEAR": 2010, 
    "LONGITUDE": -87.606302261, 
    "LATTITUDE": 41.817841704
  }, 
  {
    "BUSINESS_TYPE": "Raffles", 
    "LEGAL_NAME": "CHURCH OF THE ANNUNCIATA", 
    "STATE": "IL", 
    "DOING_BUSINESS_AS_NAME": "CHURCH OF THE ANNUNCIATA", 
    "POP_AT_RISK": 17150, 
    "ZIP": 60617, 
    "ADDRESS": "11128 S AVENUE G", 
    "YEAR": 2010, 
    "LONGITUDE": -87.531811302, 
    "LATTITUDE": 41.692726227
  }, 
  {
    "BUSINESS_TYPE": "Raffles", 
    "LEGAL_NAME": "INTERNATIONAL FIRE TRAINING FORCE", 
    "STATE": "IL", 
    "DOING_BUSINESS_AS_NAME": "INTERNATIONAL FIRE TRAINING FORCE", 
    "POP_AT_RISK": 33226, 
    "ZIP": 60616, 
    "ADDRESS": "3414 S CALUMET AVE", 
    "YEAR": 2010, 
    "LONGITUDE": -87.618294739, 
    "LATTITUDE": 41.832378359
  }, 
  {
    "BUSINESS_TYPE": "Raffles", 
    "LEGAL_NAME": "CITIZENS LANDMARK PRESERVATION", 
    "STATE": "IL", 
    "DOING_BUSINESS_AS_NAME": "CITIZENS LANDMARK PRESERVATION", 
    "POP_AT_RISK": 47940, 
    "ZIP": 60651, 
    "ADDRESS": "5200 W CHICAGO AVE 1ST", 
    "YEAR": 2010, 
    "LONGITUDE": -87.755665329, 
    "LATTITUDE": 41.895044142
  }, 
  {
    "BUSINESS_TYPE": "Raffles", 
    "LEGAL_NAME": "ST. STANISLAUS BISHOP & MARTYR", 
    "STATE": "IL", 
    "DOING_BUSINESS_AS_NAME": "ST. STANISLAUS BISHOP & MARTYR", 
    "POP_AT_RISK": 65800, 
    "ZIP": 60639, 
    "ADDRESS": "5352 W BELDEN AVE", 
    "YEAR": 2010, 
    "LONGITUDE": -87.76071251, 
    "LATTITUDE": 41.922331371
  }, 
  {
    "BUSINESS_TYPE": "Raffles", 
    "LEGAL_NAME": "DEBORAH'S PLACE", 
    "STATE": "IL", 
    "DOING_BUSINESS_AS_NAME": "DEBORAH'S PLACE", 
    "POP_AT_RISK": 30137, 
    "ZIP": 60612, 
    "ADDRESS": "2822 W JACKSON BLVD", 
    "YEAR": 2010, 
    "LONGITUDE": -87.697063048, 
    "LATTITUDE": 41.877535886
  }, 
  {
    "BUSINESS_TYPE": "Raffles", 
    "LEGAL_NAME": "LA RABIDA CHILDREN'S HOSPITAL", 
    "STATE": "IL", 
    "DOING_BUSINESS_AS_NAME": "LA RABIDA CHILDRENS HOSPITAL", 
    "POP_AT_RISK": 24062, 
    "ZIP": 60649, 
    "ADDRESS": "6501 S PROMONTORY DR  1ST", 
    "YEAR": 2010, 
    "LONGITUDE": -87.57082461, 
    "LATTITUDE": 41.776653672
  }, 
  {
    "BUSINESS_TYPE": "Raffles", 
    "LEGAL_NAME": "ST CHRISTINA  PARISH", 
    "STATE": "IL", 
    "DOING_BUSINESS_AS_NAME": "ST. CHRISTINA PARISH", 
    "POP_AT_RISK": 25020, 
    "ZIP": 60655, 
    "ADDRESS": "11005 S HOMAN AVE", 
    "YEAR": 2010, 
    "LONGITUDE": -87.705683096, 
    "LATTITUDE": 41.69311328
  }, 
  {
    "BUSINESS_TYPE": "Raffles", 
    "LEGAL_NAME": "OUR LADY MOTHER OF THE CHURCH", 
    "STATE": "IL", 
    "DOING_BUSINESS_AS_NAME": "OUR LADY MOTHER OF THE CHURCH", 
    "POP_AT_RISK": 12033, 
    "ZIP": 60656, 
    "ADDRESS": "8747 W LAWRENCE AVE 1", 
    "YEAR": 2010, 
    "LONGITUDE": -87.845584144, 
    "LATTITUDE": 41.966321788
  }, 
  {
    "BUSINESS_TYPE": "Raffles", 
    "LEGAL_NAME": "SISTERS OF ST CASIMIR CHICAGO", 
    "STATE": "IL", 
    "DOING_BUSINESS_AS_NAME": "SISTERS OF ST CASIMIR CHICAGO", 
    "POP_AT_RISK": 45573, 
    "ZIP": 60629, 
    "ADDRESS": "2601 W MARQUETTE RD", 
    "YEAR": 2010, 
    "LONGITUDE": -87.68839005, 
    "LATTITUDE": 41.771790807
  }, 
  {
    "BUSINESS_TYPE": "Raffles", 
    "LEGAL_NAME": "RESURRECTION COLLEGE PREP HIGH SCHOOL", 
    "STATE": "IL", 
    "DOING_BUSINESS_AS_NAME": "RESURRECTION HIGH SCHOOL", 
    "POP_AT_RISK": 21744, 
    "ZIP": 60631, 
    "ADDRESS": "7500 W TALCOTT AVE", 
    "YEAR": 2010, 
    "LONGITUDE": -87.814210666, 
    "LATTITUDE": 41.989465799
  }, 
  {
    "BUSINESS_TYPE": "Raffles", 
    "LEGAL_NAME": "OFF THE STREET CLUB", 
    "STATE": "IL", 
    "DOING_BUSINESS_AS_NAME": "OFF THE STREET CLUB", 
    "POP_AT_RISK": 44616, 
    "ZIP": 60624, 
    "ADDRESS": "25 N KARLOV AVE", 
    "YEAR": 2010, 
    "LONGITUDE": -87.727997636, 
    "LATTITUDE": 41.881555329
  }, 
  {
    "BUSINESS_TYPE": "Raffles", 
    "LEGAL_NAME": "NATIVITY OF OUR LORD CHU", 
    "STATE": "IL", 
    "DOING_BUSINESS_AS_NAME": "NATIVITY OF OUR LORD CHU", 
    "POP_AT_RISK": 28539, 
    "ZIP": 60609, 
    "ADDRESS": "653 W 37TH ST", 
    "YEAR": 2010, 
    "LONGITUDE": -87.643258872, 
    "LATTITUDE": 41.827028337
  }, 
  {
    "BUSINESS_TYPE": "Raffles", 
    "LEGAL_NAME": "ST RENE CHURCH", 
    "STATE": "IL", 
    "DOING_BUSINESS_AS_NAME": "ST. RENE CHURCH", 
    "POP_AT_RISK": 11842, 
    "ZIP": 60638, 
    "ADDRESS": "6949 W 63RD PL", 
    "YEAR": 2010, 
    "LONGITUDE": -87.795423389, 
    "LATTITUDE": 41.776460688
  }, 
  {
    "BUSINESS_TYPE": "Raffles", 
    "LEGAL_NAME": "GOODCITY NFP", 
    "STATE": "IL", 
    "DOING_BUSINESS_AS_NAME": "GOODCITY NFP", 
    "POP_AT_RISK": 35908, 
    "ZIP": 60644, 
    "ADDRESS": "5049 W HARRISON ST", 
    "YEAR": 2010, 
    "LONGITUDE": -87.751173168, 
    "LATTITUDE": 41.872883489
  }, 
  {
    "BUSINESS_TYPE": "Raffles", 
    "LEGAL_NAME": "AMERICAN LEGION MANUEL PEREZ POST 1017", 
    "STATE": "IL", 
    "DOING_BUSINESS_AS_NAME": "MANUEL PEREZ JR POST 1017", 
    "POP_AT_RISK": 65921, 
    "ZIP": 60623, 
    "ADDRESS": "2658 S HAMLIN AVE 1ST", 
    "YEAR": 2010, 
    "LONGITUDE": -87.719772927, 
    "LATTITUDE": 41.842572203
  }, 
  {
    "BUSINESS_TYPE": "Raffles", 
    "LEGAL_NAME": "SOUTHWEST ORGANIZING PROJECT", 
    "STATE": "IL", 
    "DOING_BUSINESS_AS_NAME": "SOUTHWEST ORGANIZING PROJECT", 
    "POP_AT_RISK": 52093, 
    "ZIP": 60629, 
    "ADDRESS": "2609 W 63RD ST", 
    "YEAR": 2010, 
    "LONGITUDE": -87.688917432, 
    "LATTITUDE": 41.779072725
  }, 
  {
    "BUSINESS_TYPE": "Raffles", 
    "LEGAL_NAME": "SAINT SYMPHOROSA SCHOOL", 
    "STATE": "IL", 
    "DOING_BUSINESS_AS_NAME": "ST. SYMPHOROSA SCHOOL", 
    "POP_AT_RISK": 15782, 
    "ZIP": 60638, 
    "ADDRESS": "6135 S AUSTIN AVE", 
    "YEAR": 2010, 
    "LONGITUDE": -87.771447793, 
    "LATTITUDE": 41.780476471
  }, 
  {
    "BUSINESS_TYPE": "Raffles", 
    "LEGAL_NAME": "WINDOW TO THE WORLD COMMUNICATIONS, INC.", 
    "STATE": "IL", 
    "DOING_BUSINESS_AS_NAME": "WINDOW TO THE WORLD COMMUNICATIONS, INC.", 
    "POP_AT_RISK": 43416, 
    "ZIP": 60625, 
    "ADDRESS": "5400 N ST LOUIS AVE", 
    "YEAR": 2010, 
    "LONGITUDE": -87.716216178, 
    "LATTITUDE": 41.979418142
  }, 
  {
    "BUSINESS_TYPE": "Raffles", 
    "LEGAL_NAME": "ST PRISCILLA PARISH", 
    "STATE": "IL", 
    "DOING_BUSINESS_AS_NAME": "ST. PRISCILLA PARISH", 
    "POP_AT_RISK": 29628, 
    "ZIP": 60634, 
    "ADDRESS": "6949 W ADDISON ST", 
    "YEAR": 2010, 
    "LONGITUDE": -87.800265047, 
    "LATTITUDE": 41.94528538
  }, 
  {
    "BUSINESS_TYPE": "Raffles", 
    "LEGAL_NAME": "SLOVAK AMERICAN SOKOL KRIVAN", 
    "STATE": "IL", 
    "DOING_BUSINESS_AS_NAME": "SLOVAK AMER. SOKOL LODGE 306", 
    "POP_AT_RISK": 45900, 
    "ZIP": 60630, 
    "ADDRESS": "4855 N ELSTON AVE 1ST", 
    "YEAR": 2010, 
    "LONGITUDE": -87.741664511, 
    "LATTITUDE": 41.969177233
  }, 
  {
    "BUSINESS_TYPE": "Raffles", 
    "LEGAL_NAME": "ST. DOROTHY SCHOOL - CATHOLIC BISHOP OF CHICAGO A. CORP SOLE", 
    "STATE": "IL", 
    "DOING_BUSINESS_AS_NAME": "ST. DOROTHY SCHOOL", 
    "POP_AT_RISK": 34410, 
    "ZIP": 60619, 
    "ADDRESS": "7740 S EBERHART AVE", 
    "YEAR": 2010, 
    "LONGITUDE": -87.612709209, 
    "LATTITUDE": 41.75358165
  }, 
  {
    "BUSINESS_TYPE": "Raffles", 
    "LEGAL_NAME": "The Israel Of God", 
    "STATE": "IL", 
    "DOING_BUSINESS_AS_NAME": "THE ISRAEL OF GOD", 
    "POP_AT_RISK": 41794, 
    "ZIP": 60649, 
    "ADDRESS": "2515 E 75TH ST 1ST 1", 
    "YEAR": 2010, 
    "LONGITUDE": -87.563273203, 
    "LATTITUDE": 41.758916599
  }, 
  {
    "BUSINESS_TYPE": "Raffles", 
    "LEGAL_NAME": "CROATIAN SCHOOLS OF AMERICA", 
    "STATE": "IL", 
    "DOING_BUSINESS_AS_NAME": "CROATIAN SCHOOL OF AMERICA", 
    "POP_AT_RISK": 42242, 
    "ZIP": 60615, 
    "ADDRESS": "4851 S DREXEL BLVD", 
    "YEAR": 2010, 
    "LONGITUDE": -87.603679796, 
    "LATTITUDE": 41.806243714
  }
]