[
  {
    "BUSINESS_TYPE": "Consumption on Premises - Incidental Activity", 
    "LEGAL_NAME": "JUDI SPORTS BAR & GRILL, INC", 
    "STATE": "IL", 
    "DOING_BUSINESS_AS_NAME": "JUDI'S SPORTS BAR & GRILL", 
    "POP_AT_RISK": 23970, 
    "ZIP": 60628, 
    "ADDRESS": "512 E 103RD ST", 
    "YEAR": 2008, 
    "LONGITUDE": -87.610766505, 
    "LATTITUDE": 41.707469998
  }, 
  {
    "BUSINESS_TYPE": "Consumption on Premises - Incidental Activity", 
    "LEGAL_NAME": "M. V. ONE INCORPORATED", 
    "STATE": "IL", 
    "DOING_BUSINESS_AS_NAME": "MR G SUPPER CLUB", 
    "POP_AT_RISK": 38801, 
    "ZIP": 60620, 
    "ADDRESS": "1543 W 87TH ST", 
    "YEAR": 2008, 
    "LONGITUDE": -87.662327677, 
    "LATTITUDE": 41.735691079
  }, 
  {
    "BUSINESS_TYPE": "Consumption on Premises - Incidental Activity", 
    "LEGAL_NAME": "LEVERNE  BURNETT", 
    "STATE": "IL", 
    "DOING_BUSINESS_AS_NAME": "E T RESTAURANT AND LOUNGE", 
    "POP_AT_RISK": 34677, 
    "ZIP": 60636, 
    "ADDRESS": "7247-7251 S RACINE AVE 1ST", 
    "YEAR": 2008, 
    "LONGITUDE": -87.653884317, 
    "LATTITUDE": 41.761815633
  }, 
  {
    "BUSINESS_TYPE": "Consumption on Premises - Incidental Activity", 
    "LEGAL_NAME": "STRIKE TWO CORP.", 
    "STATE": "IL", 
    "DOING_BUSINESS_AS_NAME": "SEVEN TEN", 
    "POP_AT_RISK": 39918, 
    "ZIP": 60615, 
    "ADDRESS": "1055 E 55TH ST", 
    "YEAR": 2008, 
    "LONGITUDE": -87.599852031, 
    "LATTITUDE": 41.794921069
  }, 
  {
    "BUSINESS_TYPE": "Consumption on Premises - Incidental Activity", 
    "LEGAL_NAME": "SONRISAS, INC.", 
    "STATE": "IL", 
    "DOING_BUSINESS_AS_NAME": "EL SITIO", 
    "POP_AT_RISK": 60113, 
    "ZIP": 60651, 
    "ADDRESS": "1255 N PULASKI RD", 
    "YEAR": 2008, 
    "LONGITUDE": -87.726195486, 
    "LATTITUDE": 41.904309421
  }, 
  {
    "BUSINESS_TYPE": "Consumption on Premises - Incidental Activity", 
    "LEGAL_NAME": "DAMENZO'S, INC.", 
    "STATE": "IL", 
    "DOING_BUSINESS_AS_NAME": "DAMENZO'S INC", 
    "POP_AT_RISK": 31436, 
    "ZIP": 60612, 
    "ADDRESS": "2322-2324 W TAYLOR ST", 
    "YEAR": 2008, 
    "LONGITUDE": -87.684583758, 
    "LATTITUDE": 41.869107738
  }, 
  {
    "BUSINESS_TYPE": "Consumption on Premises - Incidental Activity", 
    "LEGAL_NAME": "THE NEW LOOK SALON AND RESTAURANT, INC.", 
    "STATE": "IL", 
    "DOING_BUSINESS_AS_NAME": "THE NEW LOOK", 
    "POP_AT_RISK": 40020, 
    "ZIP": 60617, 
    "ADDRESS": "2544 E 83RD ST 1", 
    "YEAR": 2008, 
    "LONGITUDE": -87.561913784, 
    "LATTITUDE": 41.744626104
  }, 
  {
    "BUSINESS_TYPE": "Consumption on Premises - Incidental Activity", 
    "LEGAL_NAME": "THE GREEN OLIVE, LLC", 
    "STATE": "IL", 
    "DOING_BUSINESS_AS_NAME": "THE GREEN OLIVE", 
    "POP_AT_RISK": 6628, 
    "ZIP": 60633, 
    "ADDRESS": "13501-13503 S AVENUE N", 
    "YEAR": 2008, 
    "LONGITUDE": -87.5385142, 
    "LATTITUDE": 41.649958991
  }, 
  {
    "BUSINESS_TYPE": "Consumption on Premises - Incidental Activity", 
    "LEGAL_NAME": "SNEKCID, INC.", 
    "STATE": "IL", 
    "DOING_BUSINESS_AS_NAME": "SKYWAY LANES", 
    "POP_AT_RISK": 15082, 
    "ZIP": 60617, 
    "ADDRESS": "9915 S TORRENCE AVE 1ST", 
    "YEAR": 2008, 
    "LONGITUDE": -87.559621723, 
    "LATTITUDE": 41.71488534
  }, 
  {
    "BUSINESS_TYPE": "Consumption on Premises - Incidental Activity", 
    "LEGAL_NAME": "RESTAURANT EL TIO CORPORATION", 
    "STATE": "IL", 
    "DOING_BUSINESS_AS_NAME": "TAQUERA EL TIO", 
    "POP_AT_RISK": 38502, 
    "ZIP": 60609, 
    "ADDRESS": "5020 S ASHLAND AVE", 
    "YEAR": 2008, 
    "LONGITUDE": -87.664951417, 
    "LATTITUDE": 41.802481327
  }, 
  {
    "BUSINESS_TYPE": "Consumption on Premises - Incidental Activity", 
    "LEGAL_NAME": "LAS FUENTES NO. 2, INC.", 
    "STATE": "IL", 
    "DOING_BUSINESS_AS_NAME": "MR. D'S VILLA", 
    "POP_AT_RISK": 18423, 
    "ZIP": 60617, 
    "ADDRESS": "10468 S INDIANAPOLIS AVE", 
    "YEAR": 2008, 
    "LONGITUDE": -87.527019353, 
    "LATTITUDE": 41.704927939
  }, 
  {
    "BUSINESS_TYPE": "Consumption on Premises - Incidental Activity", 
    "LEGAL_NAME": "LUNA RESTAURANT CORPORATION", 
    "STATE": "IL", 
    "DOING_BUSINESS_AS_NAME": "MARIA'S MEXICAN RESTURANT", 
    "POP_AT_RISK": 14499, 
    "ZIP": 60656, 
    "ADDRESS": "9440 W FOSTER AVE", 
    "YEAR": 2008, 
    "LONGITUDE": -87.863029981, 
    "LATTITUDE": 41.973400958
  }, 
  {
    "BUSINESS_TYPE": "Consumption on Premises - Incidental Activity", 
    "LEGAL_NAME": "CAFE IL CORTILE, INC.", 
    "STATE": "IL", 
    "DOING_BUSINESS_AS_NAME": "CAFE IL CORTILE", 
    "POP_AT_RISK": 12033, 
    "ZIP": 60656, 
    "ADDRESS": "8443-8445 W LAWRENCE AVE", 
    "YEAR": 2008, 
    "LONGITUDE": -87.838385258, 
    "LATTITUDE": 41.966453173
  }, 
  {
    "BUSINESS_TYPE": "Consumption on Premises - Incidental Activity", 
    "LEGAL_NAME": "GARIFUNA ENTERPRISES, INC.", 
    "STATE": "IL", 
    "DOING_BUSINESS_AS_NAME": "GARIFUNA FLAVA CARIBBEAN RESTAURANT", 
    "POP_AT_RISK": 47861, 
    "ZIP": 60629, 
    "ADDRESS": "2516-2518 W 63RD ST", 
    "YEAR": 2008, 
    "LONGITUDE": -87.686883415, 
    "LATTITUDE": 41.779321682
  }, 
  {
    "BUSINESS_TYPE": "Consumption on Premises - Incidental Activity", 
    "LEGAL_NAME": "GADDINI'S, INC.", 
    "STATE": "IL", 
    "DOING_BUSINESS_AS_NAME": "JUST JIM'S", 
    "POP_AT_RISK": 2798, 
    "ZIP": 60633, 
    "ADDRESS": "13191 S BRAINARD AVE", 
    "YEAR": 2008, 
    "LONGITUDE": -87.554446607, 
    "LATTITUDE": 41.655209103
  }, 
  {
    "BUSINESS_TYPE": "Consumption on Premises - Incidental Activity", 
    "LEGAL_NAME": "IN GOOD TASTE, INC.", 
    "STATE": "IL", 
    "DOING_BUSINESS_AS_NAME": "Army & Lou's Restaurant", 
    "POP_AT_RISK": 38146, 
    "ZIP": 60619, 
    "ADDRESS": "420-422 E 75TH ST", 
    "YEAR": 2008, 
    "LONGITUDE": -87.614204755, 
    "LATTITUDE": 41.758535788
  }, 
  {
    "BUSINESS_TYPE": "Consumption on Premises - Incidental Activity", 
    "LEGAL_NAME": "GREENVILLE MISSISSIPPI CLUB, INC.", 
    "STATE": "IL", 
    "DOING_BUSINESS_AS_NAME": "GREENVILLE MISSISSIPPI CLUB, INC.", 
    "POP_AT_RISK": 23129, 
    "ZIP": 60628, 
    "ADDRESS": "344 W 119TH ST", 
    "YEAR": 2008, 
    "LONGITUDE": -87.63163137, 
    "LATTITUDE": 41.678035926
  }, 
  {
    "BUSINESS_TYPE": "Consumption on Premises - Incidental Activity", 
    "LEGAL_NAME": "EL BURRITO FELIZ CORPORATION", 
    "STATE": "IL", 
    "DOING_BUSINESS_AS_NAME": "EL BURRITO FELIZ RESTAURANT", 
    "POP_AT_RISK": 64382, 
    "ZIP": 60623, 
    "ADDRESS": "3219 W CERMAK RD 1ST", 
    "YEAR": 2008, 
    "LONGITUDE": -87.706135151, 
    "LATTITUDE": 41.851646013
  }, 
  {
    "BUSINESS_TYPE": "Consumption on Premises - Incidental Activity", 
    "LEGAL_NAME": "NORFLO HOLDING CORPORATION", 
    "STATE": "IL", 
    "DOING_BUSINESS_AS_NAME": "ROOM FORTY THREE", 
    "POP_AT_RISK": 30498, 
    "ZIP": 60653, 
    "ADDRESS": "1041-1043 E 43RD ST 1ST-BSMT", 
    "YEAR": 2008, 
    "LONGITUDE": -87.600256345, 
    "LATTITUDE": 41.816778686
  }, 
  {
    "BUSINESS_TYPE": "Consumption on Premises - Incidental Activity", 
    "LEGAL_NAME": "M. T. GLASS, CO.", 
    "STATE": "IL", 
    "DOING_BUSINESS_AS_NAME": "NINA'S RESTAURANT", 
    "POP_AT_RISK": 33540, 
    "ZIP": 60652, 
    "ADDRESS": "3359 W 79TH ST 1ST", 
    "YEAR": 2008, 
    "LONGITUDE": -87.707211112, 
    "LATTITUDE": 41.749557313
  }, 
  {
    "BUSINESS_TYPE": "Consumption on Premises - Incidental Activity", 
    "LEGAL_NAME": "HARAMBEE HOUSE BANQUETS & DUSTIES BUFFETS, INC.", 
    "STATE": "IL", 
    "DOING_BUSINESS_AS_NAME": "HARAMBEE HOUSE BANQUETS & DUSTIES BUFFETS, INC.", 
    "POP_AT_RISK": 16113, 
    "ZIP": 60643, 
    "ADDRESS": "11901 S LOOMIS ST 1ST", 
    "YEAR": 2008, 
    "LONGITUDE": -87.656382369, 
    "LATTITUDE": 41.67756555
  }, 
  {
    "BUSINESS_TYPE": "Consumption on Premises - Incidental Activity", 
    "LEGAL_NAME": "COMPASS GROUP USA, INC.", 
    "STATE": "IL", 
    "DOING_BUSINESS_AS_NAME": "GILHOOLEY'S GRANDE SALOON", 
    "POP_AT_RISK": 11260, 
    "ZIP": 60655, 
    "ADDRESS": "3901 W 103RD ST", 
    "YEAR": 2008, 
    "LONGITUDE": -87.718539946, 
    "LATTITUDE": 41.705823553
  }, 
  {
    "BUSINESS_TYPE": "Consumption on Premises - Incidental Activity", 
    "LEGAL_NAME": "POTPOURRI FURNITURE LIQUIDATORS, INC.", 
    "STATE": "IL", 
    "DOING_BUSINESS_AS_NAME": "LANDMARK DELI & RESTAURANT / CHEZ ROUE", 
    "POP_AT_RISK": 47940, 
    "ZIP": 60651, 
    "ADDRESS": "5200 W CHICAGO AVE", 
    "YEAR": 2008, 
    "LONGITUDE": -87.755665329, 
    "LATTITUDE": 41.895044142
  }, 
  {
    "BUSINESS_TYPE": "Consumption on Premises - Incidental Activity", 
    "LEGAL_NAME": "MPV INC", 
    "STATE": "IL", 
    "DOING_BUSINESS_AS_NAME": "LA BARCA", 
    "POP_AT_RISK": 32927, 
    "ZIP": 60609, 
    "ADDRESS": "1221 W 47TH ST 1", 
    "YEAR": 2008, 
    "LONGITUDE": -87.656213823, 
    "LATTITUDE": 41.80861135
  }, 
  {
    "BUSINESS_TYPE": "Consumption on Premises - Incidental Activity", 
    "LEGAL_NAME": "HARRIET WATT", 
    "STATE": "IL", 
    "DOING_BUSINESS_AS_NAME": "WOODLAWN GARDENS", 
    "POP_AT_RISK": 16271, 
    "ZIP": 60619, 
    "ADDRESS": "1200 E 93RD ST 1ST", 
    "YEAR": 2008, 
    "LONGITUDE": -87.594817597, 
    "LATTITUDE": 41.725958181
  }, 
  {
    "BUSINESS_TYPE": "Consumption on Premises - Incidental Activity", 
    "LEGAL_NAME": "CITY-LIFE, LTD.", 
    "STATE": "IL", 
    "DOING_BUSINESS_AS_NAME": "CITY-LIFE, LTD.", 
    "POP_AT_RISK": 37593, 
    "ZIP": 60619, 
    "ADDRESS": "712 E 83RD ST 1", 
    "YEAR": 2008, 
    "LONGITUDE": -87.606889988, 
    "LATTITUDE": 41.744044803
  }, 
  {
    "BUSINESS_TYPE": "Consumption on Premises - Incidental Activity", 
    "LEGAL_NAME": "PIZZA HUT OF AMERICA, LLC", 
    "STATE": "IL", 
    "DOING_BUSINESS_AS_NAME": "PIZZA HUT", 
    "POP_AT_RISK": 55285, 
    "ZIP": 60636, 
    "ADDRESS": "5900 S WESTERN AVE", 
    "YEAR": 2008, 
    "LONGITUDE": -87.683975246, 
    "LATTITUDE": 41.786437175
  }, 
  {
    "BUSINESS_TYPE": "Consumption on Premises - Incidental Activity", 
    "LEGAL_NAME": "LA FIESTA, INC.", 
    "STATE": "IL", 
    "DOING_BUSINESS_AS_NAME": "LA FIESTA RESTAURANT", 
    "POP_AT_RISK": 21003, 
    "ZIP": 60655, 
    "ADDRESS": "3333 W 111TH ST 1ST", 
    "YEAR": 2008, 
    "LONGITUDE": -87.704646344, 
    "LATTITUDE": 41.691399886
  }, 
  {
    "BUSINESS_TYPE": "Consumption on Premises - Incidental Activity", 
    "LEGAL_NAME": "THE SIX GRANDS, CO.", 
    "STATE": "IL", 
    "DOING_BUSINESS_AS_NAME": "HALSTED BOWL", 
    "POP_AT_RISK": 24062, 
    "ZIP": 60628, 
    "ADDRESS": "12345 S HALSTED ST", 
    "YEAR": 2008, 
    "LONGITUDE": -87.641473937, 
    "LATTITUDE": 41.669205248
  }, 
  {
    "BUSINESS_TYPE": "Consumption on Premises - Incidental Activity", 
    "LEGAL_NAME": "THE BALLROOM, LLC", 
    "STATE": "IL", 
    "DOING_BUSINESS_AS_NAME": "THE BALLROOM", 
    "POP_AT_RISK": 36733, 
    "ZIP": 60637, 
    "ADDRESS": "6351-6359 S COTTAGE GROVE AVE 2", 
    "YEAR": 2008, 
    "LONGITUDE": -87.605750719, 
    "LATTITUDE": 41.778912512
  }, 
  {
    "BUSINESS_TYPE": "Consumption on Premises - Incidental Activity", 
    "LEGAL_NAME": "MARINA CAFE, LLC", 
    "STATE": "IL", 
    "DOING_BUSINESS_AS_NAME": "MARINA CAFE", 
    "POP_AT_RISK": 24246, 
    "ZIP": 60649, 
    "ADDRESS": "6401 S COAST GUARD DR", 
    "YEAR": 2008, 
    "LONGITUDE": -87.575451405, 
    "LATTITUDE": 41.77863625
  }
]