[
  {
    "BUSINESS_TYPE": "Laundry, Late Hour", 
    "LEGAL_NAME": "Y & K LAUNDRY & CLEANERS, INC.", 
    "STATE": "IL", 
    "DOING_BUSINESS_AS_NAME": "Aqua Wash Laundry", 
    "POP_AT_RISK": 33177, 
    "ZIP": 60649, 
    "ADDRESS": "7120-7128 S YATES BLVD", 
    "YEAR": 2004, 
    "LONGITUDE": -87.566651058, 
    "LATTITUDE": 41.765509266
  }, 
  {
    "BUSINESS_TYPE": "Laundry, Late Hour", 
    "LEGAL_NAME": "JOHN R. MEYER", 
    "STATE": "IL", 
    "DOING_BUSINESS_AS_NAME": "WASHLAND", 
    "POP_AT_RISK": 33992, 
    "ZIP": 60620, 
    "ADDRESS": "2005 W 79TH ST", 
    "YEAR": 2004, 
    "LONGITUDE": -87.673350452, 
    "LATTITUDE": 41.750119603
  }, 
  {
    "BUSINESS_TYPE": "Laundry, Late Hour", 
    "LEGAL_NAME": "ELSTON COIN LAUNDRY INC", 
    "STATE": "IL", 
    "DOING_BUSINESS_AS_NAME": "ELSTON COIN LAUNDRY WORLD", 
    "POP_AT_RISK": 49116, 
    "ZIP": 60647, 
    "ADDRESS": "2599 N ELSTON AVE 1ST", 
    "YEAR": 2004, 
    "LONGITUDE": -87.68280838, 
    "LATTITUDE": 41.928884865
  }, 
  {
    "BUSINESS_TYPE": "Laundry, Late Hour", 
    "LEGAL_NAME": "HOLDING LIQUIDS, INC.", 
    "STATE": "IL", 
    "DOING_BUSINESS_AS_NAME": "WASH TUB ON PULASKI", 
    "POP_AT_RISK": 69055, 
    "ZIP": 60623, 
    "ADDRESS": "2200 S PULASKI RD", 
    "YEAR": 2004, 
    "LONGITUDE": -87.724904787, 
    "LATTITUDE": 41.851521442
  }, 
  {
    "BUSINESS_TYPE": "Laundry, Late Hour", 
    "LEGAL_NAME": "PHK ENTERPRISES, INC", 
    "STATE": "IL", 
    "DOING_BUSINESS_AS_NAME": "VILLAGE LAUNDRY / CLEANERS", 
    "POP_AT_RISK": 56583, 
    "ZIP": 60622, 
    "ADDRESS": "1055 N WESTERN AVE", 
    "YEAR": 2004, 
    "LONGITUDE": -87.686827961, 
    "LATTITUDE": 41.90103185
  }, 
  {
    "BUSINESS_TYPE": "Laundry, Late Hour", 
    "LEGAL_NAME": "BUBBLELAND LLC", 
    "STATE": "IL", 
    "DOING_BUSINESS_AS_NAME": "BUBBLELAND", 
    "POP_AT_RISK": 53223, 
    "ZIP": 60618, 
    "ADDRESS": "3710 N KIMBALL AVE  1ST", 
    "YEAR": 2004, 
    "LONGITUDE": -87.712923545, 
    "LATTITUDE": 41.948738387
  }, 
  {
    "BUSINESS_TYPE": "Laundry, Late Hour", 
    "LEGAL_NAME": "MICHAEL LACOCO", 
    "STATE": "IL", 
    "DOING_BUSINESS_AS_NAME": "SPARKLE LAUNDROMAT", 
    "POP_AT_RISK": 52865, 
    "ZIP": 60629, 
    "ADDRESS": "6621 S KEDZIE AVE 1ST", 
    "YEAR": 2004, 
    "LONGITUDE": -87.702848138, 
    "LATTITUDE": 41.7727872
  }, 
  {
    "BUSINESS_TYPE": "Laundry, Late Hour", 
    "LEGAL_NAME": "ALL IN HALSTED, INC.", 
    "STATE": "IL", 
    "DOING_BUSINESS_AS_NAME": "SPIN CYCLE", 
    "POP_AT_RISK": 32885, 
    "ZIP": 60621, 
    "ADDRESS": "6611 S HALSTED ST", 
    "YEAR": 2004, 
    "LONGITUDE": -87.644488872, 
    "LATTITUDE": 41.773939262
  }, 
  {
    "BUSINESS_TYPE": "Laundry, Late Hour", 
    "LEGAL_NAME": "D & K LAUNDRY & CLEANERS INC.", 
    "STATE": "IL", 
    "DOING_BUSINESS_AS_NAME": "D & K LAUNDRY & CLEANERS INC.", 
    "POP_AT_RISK": 60467, 
    "ZIP": 60651, 
    "ADDRESS": "4101 W GRAND AVE", 
    "YEAR": 2004, 
    "LONGITUDE": -87.729022116, 
    "LATTITUDE": 41.907076193
  }, 
  {
    "BUSINESS_TYPE": "Laundry, Late Hour", 
    "LEGAL_NAME": "NEW LAUNDRY WORLD, INC.", 
    "STATE": "IL", 
    "DOING_BUSINESS_AS_NAME": "NEW LAUNDRY WORLD & LEZETTA", 
    "POP_AT_RISK": 35021, 
    "ZIP": 60619, 
    "ADDRESS": "1346 E 75TH ST", 
    "YEAR": 2004, 
    "LONGITUDE": -87.591366127, 
    "LATTITUDE": 41.758827894
  }, 
  {
    "BUSINESS_TYPE": "Laundry, Late Hour", 
    "LEGAL_NAME": "BUBBLELAND LLC", 
    "STATE": "IL", 
    "DOING_BUSINESS_AS_NAME": "BUBBLELAND", 
    "POP_AT_RISK": 59710, 
    "ZIP": 60647, 
    "ADDRESS": "2249 N MILWAUKEE AVE", 
    "YEAR": 2004, 
    "LONGITUDE": -87.695208968, 
    "LATTITUDE": 41.921731191
  }, 
  {
    "BUSINESS_TYPE": "Laundry, Late Hour", 
    "LEGAL_NAME": "NEPTUNE ENTERPRISES INC", 
    "STATE": "IL", 
    "DOING_BUSINESS_AS_NAME": "SUPERWASH COIN LAUNDRY", 
    "POP_AT_RISK": 75266, 
    "ZIP": 60647, 
    "ADDRESS": "3415 W DIVERSEY AVE 1ST", 
    "YEAR": 2004, 
    "LONGITUDE": -87.71290125, 
    "LATTITUDE": 41.931852775
  }, 
  {
    "BUSINESS_TYPE": "Laundry, Late Hour", 
    "LEGAL_NAME": "SOAP BOX, INC", 
    "STATE": "IL", 
    "DOING_BUSINESS_AS_NAME": "SOAP BOX, INC", 
    "POP_AT_RISK": 59447, 
    "ZIP": 60641, 
    "ADDRESS": "3214 N PULASKI RD 1", 
    "YEAR": 2004, 
    "LONGITUDE": -87.727345351, 
    "LATTITUDE": 41.939547798
  }, 
  {
    "BUSINESS_TYPE": "Laundry, Late Hour", 
    "LEGAL_NAME": "BUBBLELAND LLC", 
    "STATE": "IL", 
    "DOING_BUSINESS_AS_NAME": "BUBBLELAND", 
    "POP_AT_RISK": 52181, 
    "ZIP": 60639, 
    "ADDRESS": "4446 W NORTH AVE", 
    "YEAR": 2004, 
    "LONGITUDE": -87.73801062, 
    "LATTITUDE": 41.909838829
  }, 
  {
    "BUSINESS_TYPE": "Laundry, Late Hour", 
    "LEGAL_NAME": "FIVE STAR HOTEL LAUNDRY INC", 
    "STATE": "IL", 
    "DOING_BUSINESS_AS_NAME": "FIVE STAR HOTEL LAUNDRY INC", 
    "POP_AT_RISK": 47361, 
    "ZIP": 60622, 
    "ADDRESS": "1060 W DIVISION ST  1", 
    "YEAR": 2004, 
    "LONGITUDE": -87.654777599, 
    "LATTITUDE": 41.903650644
  }, 
  {
    "BUSINESS_TYPE": "Laundry, Late Hour", 
    "LEGAL_NAME": "TRKAM LLC", 
    "STATE": "IL", 
    "DOING_BUSINESS_AS_NAME": "QUIK WASH #5", 
    "POP_AT_RISK": 39265, 
    "ZIP": 60609, 
    "ADDRESS": "1356 W 47TH ST", 
    "YEAR": 2004, 
    "LONGITUDE": -87.659956857, 
    "LATTITUDE": 41.808780247
  }, 
  {
    "BUSINESS_TYPE": "Laundry, Late Hour", 
    "LEGAL_NAME": "SUK JIN YOON", 
    "STATE": "IL", 
    "DOING_BUSINESS_AS_NAME": "SPIN CYCLE #102", 
    "POP_AT_RISK": 26756, 
    "ZIP": 60707, 
    "ADDRESS": "7118 W GRAND AVE", 
    "YEAR": 2004, 
    "LONGITUDE": -87.803381777, 
    "LATTITUDE": 41.923673275
  }, 
  {
    "BUSINESS_TYPE": "Laundry, Late Hour", 
    "LEGAL_NAME": "WASH AROUND THE CLOCK OF ILLINOIS, INC.", 
    "STATE": "IL", 
    "DOING_BUSINESS_AS_NAME": "WASH AROUND THE CLOCK LAUNDRY", 
    "POP_AT_RISK": 49002, 
    "ZIP": 60632, 
    "ADDRESS": "3229 W 47TH PL", 
    "YEAR": 2004, 
    "LONGITUDE": -87.705045415, 
    "LATTITUDE": 41.806696254
  }, 
  {
    "BUSINESS_TYPE": "Laundry, Late Hour", 
    "LEGAL_NAME": "BUBBLELAND LLC", 
    "STATE": "IL", 
    "DOING_BUSINESS_AS_NAME": "BUBBLELAND", 
    "POP_AT_RISK": 17702, 
    "ZIP": 60617, 
    "ADDRESS": "9108 S COMMERCIAL AVE", 
    "YEAR": 2004, 
    "LONGITUDE": -87.551395871, 
    "LATTITUDE": 41.729755723
  }, 
  {
    "BUSINESS_TYPE": "Laundry, Late Hour", 
    "LEGAL_NAME": "NEW LAUNDRY WORLD, INC.", 
    "STATE": "IL", 
    "DOING_BUSINESS_AS_NAME": "NEW LAUNDRY WORLD, INC.", 
    "POP_AT_RISK": 26271, 
    "ZIP": 60621, 
    "ADDRESS": "6049 S HALSTED ST 1ST", 
    "YEAR": 2004, 
    "LONGITUDE": -87.644735386, 
    "LATTITUDE": 41.783558052
  }, 
  {
    "BUSINESS_TYPE": "Laundry, Late Hour", 
    "LEGAL_NAME": "HANCO ENTERPRISES, INC.", 
    "STATE": "IL", 
    "DOING_BUSINESS_AS_NAME": "SU NUEVA LAVANDERIA", 
    "POP_AT_RISK": 31466, 
    "ZIP": 60629, 
    "ADDRESS": "4319 W MARQUETTE RD", 
    "YEAR": 2004, 
    "LONGITUDE": -87.730767218, 
    "LATTITUDE": 41.771165458
  }, 
  {
    "BUSINESS_TYPE": "Laundry, Late Hour", 
    "LEGAL_NAME": "NDA INC", 
    "STATE": "IL", 
    "DOING_BUSINESS_AS_NAME": "BEL-LONG LAUNDRY", 
    "POP_AT_RISK": 70344, 
    "ZIP": 60641, 
    "ADDRESS": "5403 W BELMONT AVE 1ST", 
    "YEAR": 2004, 
    "LONGITUDE": -87.761733589, 
    "LATTITUDE": 41.938526114
  }, 
  {
    "BUSINESS_TYPE": "Laundry, Late Hour", 
    "LEGAL_NAME": "RICKI L & STACEY BOONE", 
    "STATE": "IL", 
    "DOING_BUSINESS_AS_NAME": "WORLD OF SUDS", 
    "POP_AT_RISK": 7012, 
    "ZIP": 60628, 
    "ADDRESS": "12800 S HALSTED ST GROUND", 
    "YEAR": 2004, 
    "LONGITUDE": -87.641502974, 
    "LATTITUDE": 41.66132051
  }, 
  {
    "BUSINESS_TYPE": "Laundry, Late Hour", 
    "LEGAL_NAME": "JOHN R. MEYER", 
    "STATE": "IL", 
    "DOING_BUSINESS_AS_NAME": "RIVERPOINT", 
    "POP_AT_RISK": 57621, 
    "ZIP": 60614, 
    "ADDRESS": "1730 W FULLERTON AVE  29", 
    "YEAR": 2004, 
    "LONGITUDE": -87.671925425, 
    "LATTITUDE": 41.925212328
  }, 
  {
    "BUSINESS_TYPE": "Laundry, Late Hour", 
    "LEGAL_NAME": "BUBBLELAND LLC", 
    "STATE": "IL", 
    "DOING_BUSINESS_AS_NAME": "BUBBLELAND", 
    "POP_AT_RISK": 59334, 
    "ZIP": 60622, 
    "ADDRESS": "2650 W DIVISION ST", 
    "YEAR": 2004, 
    "LONGITUDE": -87.693988482, 
    "LATTITUDE": 41.903060836
  }, 
  {
    "BUSINESS_TYPE": "Laundry, Late Hour", 
    "LEGAL_NAME": "RICKY L. BOONE", 
    "STATE": "IL", 
    "DOING_BUSINESS_AS_NAME": "WORLD OF SUDS II", 
    "POP_AT_RISK": 31780, 
    "ZIP": 60628, 
    "ADDRESS": "201 W 103RD ST", 
    "YEAR": 2004, 
    "LONGITUDE": -87.628355177, 
    "LATTITUDE": 41.706990837
  }, 
  {
    "BUSINESS_TYPE": "Laundry, Late Hour", 
    "LEGAL_NAME": "THE VILLAGE LAUNDRY", 
    "STATE": "IL", 
    "DOING_BUSINESS_AS_NAME": "THE VILLAGE LAUNDRY", 
    "POP_AT_RISK": 49473, 
    "ZIP": 60623, 
    "ADDRESS": "3100 S PULASKI RD 1ST", 
    "YEAR": 2004, 
    "LONGITUDE": -87.724495465, 
    "LATTITUDE": 41.836789643
  }, 
  {
    "BUSINESS_TYPE": "Laundry, Late Hour", 
    "LEGAL_NAME": "SPINCYCLE PLUS, INC.", 
    "STATE": "IL", 
    "DOING_BUSINESS_AS_NAME": "SPINCYCLE PLUS INC", 
    "POP_AT_RISK": 60996, 
    "ZIP": 60639, 
    "ADDRESS": "4059 W NORTH AVE", 
    "YEAR": 2004, 
    "LONGITUDE": -87.728869453, 
    "LATTITUDE": 41.909741388
  }, 
  {
    "BUSINESS_TYPE": "Laundry, Late Hour", 
    "LEGAL_NAME": "BUBBLELAND LLC", 
    "STATE": "IL", 
    "DOING_BUSINESS_AS_NAME": "BUBBLELAND", 
    "POP_AT_RISK": 66342, 
    "ZIP": 60639, 
    "ADDRESS": "4748 W FULLERTON AVE", 
    "YEAR": 2004, 
    "LONGITUDE": -87.745849511, 
    "LATTITUDE": 41.924355929
  }, 
  {
    "BUSINESS_TYPE": "Laundry, Late Hour", 
    "LEGAL_NAME": "DOLLIE MCGINSTER ROBINSON", 
    "STATE": "IL", 
    "DOING_BUSINESS_AS_NAME": "WASH N RELAX LAUNDROMAT", 
    "POP_AT_RISK": 45773, 
    "ZIP": 60620, 
    "ADDRESS": "1364 W 79TH ST 1ST", 
    "YEAR": 2004, 
    "LONGITUDE": -87.657907184, 
    "LATTITUDE": 41.750545419
  }, 
  {
    "BUSINESS_TYPE": "Laundry, Late Hour", 
    "LEGAL_NAME": "JULIANA,DEMETRIO,JULIETA PASCUAL", 
    "STATE": "IL", 
    "DOING_BUSINESS_AS_NAME": "BRITE WASH COIN LAUNDRY", 
    "POP_AT_RISK": 80094, 
    "ZIP": 60660, 
    "ADDRESS": "6266 N CLARK ST 1ST", 
    "YEAR": 2004, 
    "LONGITUDE": -87.670366151, 
    "LATTITUDE": 41.996292409
  }
]