[
  {
    "BUSINESS_TYPE": "Itinerant Merchant, Class I", 
    "LEGAL_NAME": "CATHOLIC BISHOP OF CHICAGO", 
    "STATE": "IL", 
    "DOING_BUSINESS_AS_NAME": "06/13/12-06/17/12 St. Pascal Carnival & Family Fest", 
    "POP_AT_RISK": 39462, 
    "ZIP": 60634, 
    "ADDRESS": "3935 N MELVINA AVE", 
    "YEAR": 2012, 
    "LONGITUDE": -87.781475014, 
    "LATTITUDE": 41.952208702
  }, 
  {
    "BUSINESS_TYPE": "Itinerant Merchant, Class I", 
    "LEGAL_NAME": "I AM LOGAN SQUARE", 
    "STATE": "IL", 
    "DOING_BUSINESS_AS_NAME": "07/20/12-07/22/12 Milwaukee Arts Festival", 
    "POP_AT_RISK": 76323, 
    "ZIP": 60647, 
    "ADDRESS": "2644 N MILWAUKEE AVE", 
    "YEAR": 2012, 
    "LONGITUDE": -87.708805153, 
    "LATTITUDE": 41.929781141
  }, 
  {
    "BUSINESS_TYPE": "Itinerant Merchant, Class I", 
    "LEGAL_NAME": "Ghana National Council of Metropolitan Chicago", 
    "STATE": "IL", 
    "DOING_BUSINESS_AS_NAME": "7/28/12 Ghana Fest 2012", 
    "POP_AT_RISK": 30880, 
    "ZIP": 60637, 
    "ADDRESS": "5600 S RUSSELL DR", 
    "YEAR": 2012, 
    "LONGITUDE": -87.613577694, 
    "LATTITUDE": 41.792869614
  }, 
  {
    "BUSINESS_TYPE": "Itinerant Merchant, Class I", 
    "LEGAL_NAME": "ARCHDIOCESE OF CHICAGO/ST. GABRIEL SCHOOL", 
    "STATE": "IL", 
    "DOING_BUSINESS_AS_NAME": "Saint Gabriel Catholic School", 
    "POP_AT_RISK": 15216, 
    "ZIP": 60609, 
    "ADDRESS": "4500 S WALLACE ST", 
    "YEAR": 2012, 
    "LONGITUDE": -87.640916254, 
    "LATTITUDE": 41.812562993
  }, 
  {
    "BUSINESS_TYPE": "Itinerant Merchant, Class I", 
    "LEGAL_NAME": "AVON PRODUCTS FOUNDATION", 
    "STATE": "IL", 
    "DOING_BUSINESS_AS_NAME": "6/2/12 - 6/3/12 Avon Walk for Breast Cancer", 
    "POP_AT_RISK": 70468, 
    "ZIP": 60618, 
    "ADDRESS": "2741 W MONTROSE AVE", 
    "YEAR": 2012, 
    "LONGITUDE": -87.697701532, 
    "LATTITUDE": 41.961144099
  }, 
  {
    "BUSINESS_TYPE": "Itinerant Merchant, Class I", 
    "LEGAL_NAME": "CHICAGO RUNNING & SPECIAL EVENTS MANAGEMENT, INC.", 
    "STATE": "IL", 
    "DOING_BUSINESS_AS_NAME": "08/24/12-08/26/12 Taste of Latin America", 
    "POP_AT_RISK": 82515, 
    "ZIP": 60647, 
    "ADDRESS": "3600 W ARMITAGE AVE", 
    "YEAR": 2012, 
    "LONGITUDE": -87.716835593, 
    "LATTITUDE": 41.917391781
  }, 
  {
    "BUSINESS_TYPE": "Itinerant Merchant, Class I", 
    "LEGAL_NAME": "JEFFERSON PARK CHAMBER OF COMMERCE", 
    "STATE": "IL", 
    "DOING_BUSINESS_AS_NAME": "7/27/12  7/29/12 Jeff Park Arts & Music Fest", 
    "POP_AT_RISK": 41965, 
    "ZIP": 60630, 
    "ADDRESS": "4822 N LONG AVE", 
    "YEAR": 2012, 
    "LONGITUDE": -87.762605325, 
    "LATTITUDE": 41.968405337
  }, 
  {
    "BUSINESS_TYPE": "Itinerant Merchant, Class I", 
    "LEGAL_NAME": "MIDWAY BROADCASTING CORPORATION", 
    "STATE": "IL", 
    "DOING_BUSINESS_AS_NAME": "7/21/12 Taste of WVON", 
    "POP_AT_RISK": 35150, 
    "ZIP": 60619, 
    "ADDRESS": "8701 S DAUPHIN AVE", 
    "YEAR": 2012, 
    "LONGITUDE": -87.601046799, 
    "LATTITUDE": 41.736637992
  }, 
  {
    "BUSINESS_TYPE": "Itinerant Merchant, Class I", 
    "LEGAL_NAME": "South East Chicago Commision", 
    "STATE": "IL", 
    "DOING_BUSINESS_AS_NAME": "10/6/12 - 10/7/12 Celebrate Hyde Park Oktoberfest", 
    "POP_AT_RISK": 38939, 
    "ZIP": 60615, 
    "ADDRESS": "1500 E 53RD ST", 
    "YEAR": 2012, 
    "LONGITUDE": -87.589048953, 
    "LATTITUDE": 41.799653784
  }, 
  {
    "BUSINESS_TYPE": "Itinerant Merchant, Class I", 
    "LEGAL_NAME": "DEVCORP NORTH", 
    "STATE": "IL", 
    "DOING_BUSINESS_AS_NAME": "07/28/12-07/29/12 Celebrate Clark Street Festival", 
    "POP_AT_RISK": 65641, 
    "ZIP": 60626, 
    "ADDRESS": "6950 N CLARK ST", 
    "YEAR": 2012, 
    "LONGITUDE": -87.673892938, 
    "LATTITUDE": 42.008048245
  }, 
  {
    "BUSINESS_TYPE": "Itinerant Merchant, Class I", 
    "LEGAL_NAME": "Riot Fest Corporation", 
    "STATE": "IL", 
    "DOING_BUSINESS_AS_NAME": "09/15/12-09/16/12 Riot Fest & Carnival", 
    "POP_AT_RISK": 61069, 
    "ZIP": 60622, 
    "ADDRESS": "1440 N HUMBOLDT DR", 
    "YEAR": 2012, 
    "LONGITUDE": -87.701411911, 
    "LATTITUDE": 41.907739733
  }, 
  {
    "BUSINESS_TYPE": "Itinerant Merchant, Class I", 
    "LEGAL_NAME": "RUNNING AWAY ENTERPRISES, LLC", 
    "STATE": "IL", 
    "DOING_BUSINESS_AS_NAME": "7/28/12 South Shore Triathlon", 
    "POP_AT_RISK": 21910, 
    "ZIP": 60649, 
    "ADDRESS": "6300 S COAST GUARD DR", 
    "YEAR": 2012, 
    "LONGITUDE": -87.575066734, 
    "LATTITUDE": 41.779680761
  }, 
  {
    "BUSINESS_TYPE": "Itinerant Merchant, Class I", 
    "LEGAL_NAME": "BACK OF THE YARDS NEIGHBORHOOD COUNCIL", 
    "STATE": "IL", 
    "DOING_BUSINESS_AS_NAME": "Back of the Yards Neighborhood Council", 
    "POP_AT_RISK": 35845, 
    "ZIP": 60609, 
    "ADDRESS": "1751 W 47TH ST", 
    "YEAR": 2012, 
    "LONGITUDE": -87.669427974, 
    "LATTITUDE": 41.808451763
  }, 
  {
    "BUSINESS_TYPE": "Itinerant Merchant, Class I", 
    "LEGAL_NAME": "LINCOLN SQUARE CHAMBER OF COMMERCE", 
    "STATE": "IL", 
    "DOING_BUSINESS_AS_NAME": "09/22/12 Apple Fest", 
    "POP_AT_RISK": 74068, 
    "ZIP": 60625, 
    "ADDRESS": "4731 N LINCOLN AVE", 
    "YEAR": 2012, 
    "LONGITUDE": -87.687649802, 
    "LATTITUDE": 41.967457462
  }, 
  {
    "BUSINESS_TYPE": "Itinerant Merchant, Class I", 
    "LEGAL_NAME": "VASTA & ASSOCIATES, INC.", 
    "STATE": "IL", 
    "DOING_BUSINESS_AS_NAME": "8/10/12 - 8/12/12 Taylor Street Festa Italiana", 
    "POP_AT_RISK": 44429, 
    "ZIP": 60612, 
    "ADDRESS": "1600 W TAYLOR ST", 
    "YEAR": 2012, 
    "LONGITUDE": -87.66652853, 
    "LATTITUDE": 41.869371085
  }, 
  {
    "BUSINESS_TYPE": "Itinerant Merchant, Class I", 
    "LEGAL_NAME": "IRISH AMERICAN HERITAGE CENTER", 
    "STATE": "IL", 
    "DOING_BUSINESS_AS_NAME": "7/13/12 - 7/15/12 Irish American Heritage Festival", 
    "POP_AT_RISK": 46525, 
    "ZIP": 60630, 
    "ADDRESS": "4626 N KNOX AVE", 
    "YEAR": 2012, 
    "LONGITUDE": -87.744116732, 
    "LATTITUDE": 41.96524258
  }, 
  {
    "BUSINESS_TYPE": "Itinerant Merchant, Class I", 
    "LEGAL_NAME": "Chicago Event Management, Inc.", 
    "STATE": "IL", 
    "DOING_BUSINESS_AS_NAME": "10/5/12 - 10/7/12 Chicago Marathon", 
    "POP_AT_RISK": 15050, 
    "ZIP": 60616, 
    "ADDRESS": "2701 S LAKE SHORE DR", 
    "YEAR": 2012, 
    "LONGITUDE": -87.61068301, 
    "LATTITUDE": 41.844528708
  }, 
  {
    "BUSINESS_TYPE": "Itinerant Merchant, Class I", 
    "LEGAL_NAME": "ST EUGENE PARISH", 
    "STATE": "IL", 
    "DOING_BUSINESS_AS_NAME": "09/15/12 Oktoberfest", 
    "POP_AT_RISK": 20886, 
    "ZIP": 60656, 
    "ADDRESS": "5220 N CANFIELD AVE", 
    "YEAR": 2012, 
    "LONGITUDE": -87.824747109, 
    "LATTITUDE": 41.974730897
  }, 
  {
    "BUSINESS_TYPE": "Itinerant Merchant, Class I", 
    "LEGAL_NAME": "Six Corners Association", 
    "STATE": "IL", 
    "DOING_BUSINESS_AS_NAME": "Six Corners Association", 
    "POP_AT_RISK": 50298, 
    "ZIP": 60641, 
    "ADDRESS": "4000 N MILWAUKEE AVE", 
    "YEAR": 2012, 
    "LONGITUDE": -87.74749235, 
    "LATTITUDE": 41.953387202
  }, 
  {
    "BUSINESS_TYPE": "Itinerant Merchant, Class I", 
    "LEGAL_NAME": "StarEvents, LLC", 
    "STATE": "IL", 
    "DOING_BUSINESS_AS_NAME": "9/29/12 - 9/30/12 Hyde Park Jazz Festival", 
    "POP_AT_RISK": 40417, 
    "ZIP": 60637, 
    "ADDRESS": "5900 S WOODLAWN AVE", 
    "YEAR": 2012, 
    "LONGITUDE": -87.596518197, 
    "LATTITUDE": 41.787773705
  }, 
  {
    "BUSINESS_TYPE": "Itinerant Merchant, Class I", 
    "LEGAL_NAME": "AFRICA INTERNATIONAL HOUSE USA, INC.", 
    "STATE": "IL", 
    "DOING_BUSINESS_AS_NAME": "08/31/12-09/03/12  23rd Annual African Festival of the Arts", 
    "POP_AT_RISK": 43046, 
    "ZIP": 60615, 
    "ADDRESS": "5100 S COTTAGE GROVE AVE", 
    "YEAR": 2012, 
    "LONGITUDE": -87.60655293, 
    "LATTITUDE": 41.802220633
  }, 
  {
    "BUSINESS_TYPE": "Itinerant Merchant, Class I", 
    "LEGAL_NAME": "ONESTI ENTERAINMENT", 
    "STATE": "IL", 
    "DOING_BUSINESS_AS_NAME": "Heart of Italy Assn", 
    "POP_AT_RISK": 36667, 
    "ZIP": 60608, 
    "ADDRESS": "2400 S OAKLEY AVE", 
    "YEAR": 2012, 
    "LONGITUDE": -87.68323977, 
    "LATTITUDE": 41.848388064
  }, 
  {
    "BUSINESS_TYPE": "Itinerant Merchant, Class I", 
    "LEGAL_NAME": "EDISON PARK CHAMBER OF COMMERCE", 
    "STATE": "IL", 
    "DOING_BUSINESS_AS_NAME": "8/17/12 - 8/19/12 Edison Park Fest", 
    "POP_AT_RISK": 18918, 
    "ZIP": 60631, 
    "ADDRESS": "6700 N OLMSTED AVE", 
    "YEAR": 2012, 
    "LONGITUDE": -87.816965962, 
    "LATTITUDE": 42.002058922
  }, 
  {
    "BUSINESS_TYPE": "Itinerant Merchant, Class I", 
    "LEGAL_NAME": "PILSEN NEIGHBORS COMMUNITY COUNCIL", 
    "STATE": "IL", 
    "DOING_BUSINESS_AS_NAME": "Pilsen Neighbors Community Council/CRI", 
    "POP_AT_RISK": 48941, 
    "ZIP": 60608, 
    "ADDRESS": "1000 W CERMAK RD", 
    "YEAR": 2012, 
    "LONGITUDE": -87.651492367, 
    "LATTITUDE": 41.852685383
  }, 
  {
    "BUSINESS_TYPE": "Itinerant Merchant, Class I", 
    "LEGAL_NAME": "LIVIER SALAZAR", 
    "STATE": "IL", 
    "DOING_BUSINESS_AS_NAME": "St. Agnes of Bohemia", 
    "POP_AT_RISK": 69037, 
    "ZIP": 60623, 
    "ADDRESS": "2651 S CENTRAL PARK AVE", 
    "YEAR": 2012, 
    "LONGITUDE": -87.71459778, 
    "LATTITUDE": 41.842872349
  }, 
  {
    "BUSINESS_TYPE": "Itinerant Merchant, Class I", 
    "LEGAL_NAME": "ST CLARE OF MONTEFALCO", 
    "STATE": "IL", 
    "DOING_BUSINESS_AS_NAME": "09/14/12-09/16/12 Fiesta Mexicana", 
    "POP_AT_RISK": 58632, 
    "ZIP": 60632, 
    "ADDRESS": "5443 S WASHTENAW AVE", 
    "YEAR": 2012, 
    "LONGITUDE": -87.691229137, 
    "LATTITUDE": 41.794282132
  }, 
  {
    "BUSINESS_TYPE": "Itinerant Merchant, Class I", 
    "LEGAL_NAME": "WEST TOWN CHAMBER OF COMMERCE", 
    "STATE": "IL", 
    "DOING_BUSINESS_AS_NAME": "09/29/12-09/30/12 Design Harvest", 
    "POP_AT_RISK": 45732, 
    "ZIP": 60612, 
    "ADDRESS": "2000 W GRAND AVE", 
    "YEAR": 2012, 
    "LONGITUDE": -87.677034967, 
    "LATTITUDE": 41.890931093
  }
]