[
{"STATE":"IL","ZIP":60707,"LATTITUDE":41.90910578560824,"ADDRESS":"6856 W NORTH AVE  ","YEAR":2013,"DOING_BUSINESS_AS_NAME":"U B C LLC","POP_AT_RISK":172668,"BUSINESS_TYPE":"Board-Up Work","LEGAL_NAME":"U B C LLC","LONGITUDE":-87.7970900667382},
{"STATE":"IL","ZIP":60624,"LATTITUDE":41.88758777549686,"ADDRESS":"4255 W KINZIE ST 1ST ","YEAR":2013,"DOING_BUSINESS_AS_NAME":"H T 'S DISCOUNT GLASS CO","POP_AT_RISK":770000,"BUSINESS_TYPE":"Board-Up Work","LEGAL_NAME":"HERMON TONEY JR","LONGITUDE":-87.73296174326708},
{"STATE":"IL","ZIP":60601,"LATTITUDE":41.88463624920333,"ADDRESS":"155 N MICHIGAN AVE 6 635","YEAR":2013,"DOING_BUSINESS_AS_NAME":"STRUCTURE RE-RIGHT, INC.","POP_AT_RISK":697380,"BUSINESS_TYPE":"Board-Up Work","LEGAL_NAME":"STRUCTURE RE-RIGHT, INC.","LONGITUDE":-87.62431388722874},
{"STATE":"IL","ZIP":60618,"LATTITUDE":41.9376896243661,"ADDRESS":"3101 N WESTERN AVE  ","YEAR":2013,"DOING_BUSINESS_AS_NAME":"A Emergency Services and Restoration, Inc.","POP_AT_RISK":951660,"BUSINESS_TYPE":"Board-Up Work","LEGAL_NAME":"A EMERGENCY FIRE-BOARD UP, INC.","LONGITUDE":-87.68773947308173},
{"STATE":"IL","ZIP":60644,"LATTITUDE":41.880319045582965,"ADDRESS":"5660 W MADISON ST 1ST ","YEAR":2013,"DOING_BUSINESS_AS_NAME":"PLATINUM BOARD UP SERVICES AND CONSTRUCTION CO.INC.","POP_AT_RISK":415210,"BUSINESS_TYPE":"Board-Up Work","LEGAL_NAME":"PLATINUM BOARD UP SERVICES AND CONSTRUCTION CO.INC.","LONGITUDE":-87.76723089050485},
{}]