[
  {
    "BUSINESS_TYPE": "Grooming Facility", 
    "LEGAL_NAME": "CECELIA S BROADUS-JONES", 
    "STATE": "IL", 
    "DOING_BUSINESS_AS_NAME": "PET SALON", 
    "POP_AT_RISK": 32521, 
    "ZIP": 60617, 
    "ADDRESS": "8338 S STONY ISLAND AVE 1ST", 
    "YEAR": 2012, 
    "LONGITUDE": -87.585930273, 
    "LATTITUDE": 41.743052178
  }, 
  {
    "BUSINESS_TYPE": "Grooming Facility", 
    "LEGAL_NAME": "VIANEY GARCIA-JAIME", 
    "STATE": "IL", 
    "DOING_BUSINESS_AS_NAME": "VIANEY'S PET KINGDOM #2", 
    "POP_AT_RISK": 39186, 
    "ZIP": 60632, 
    "ADDRESS": "5302 S PULASKI RD", 
    "YEAR": 2012, 
    "LONGITUDE": -87.723407562, 
    "LATTITUDE": 41.796698503
  }, 
  {
    "BUSINESS_TYPE": "Grooming Facility", 
    "LEGAL_NAME": "JUAN ZARATE", 
    "STATE": "IL", 
    "DOING_BUSINESS_AS_NAME": "CACHORRO PET", 
    "POP_AT_RISK": 53653, 
    "ZIP": 60632, 
    "ADDRESS": "4008 S ARCHER AVE 1", 
    "YEAR": 2012, 
    "LONGITUDE": -87.693231473, 
    "LATTITUDE": 41.820987548
  }, 
  {
    "BUSINESS_TYPE": "Grooming Facility", 
    "LEGAL_NAME": "ALL 4 DIRTY PAWS, INC.", 
    "STATE": "IL", 
    "DOING_BUSINESS_AS_NAME": "ALL 4 DIRTY PAWS, INC.", 
    "POP_AT_RISK": 41954, 
    "ZIP": 60641, 
    "ADDRESS": "4232 N CICERO AVE 1ST", 
    "YEAR": 2012, 
    "LONGITUDE": -87.747594754, 
    "LATTITUDE": 41.958025278
  }, 
  {
    "BUSINESS_TYPE": "Grooming Facility", 
    "LEGAL_NAME": "FLORENDO WAIR", 
    "STATE": "IL", 
    "DOING_BUSINESS_AS_NAME": "PET GROOMERS", 
    "POP_AT_RISK": 18429, 
    "ZIP": 60617, 
    "ADDRESS": "9335 S ESCANABA AVE 1ST", 
    "YEAR": 2012, 
    "LONGITUDE": -87.553758429, 
    "LATTITUDE": 41.725362608
  }, 
  {
    "BUSINESS_TYPE": "Grooming Facility", 
    "LEGAL_NAME": "D'ART OF GROOMING PET SPA", 
    "STATE": "IL", 
    "DOING_BUSINESS_AS_NAME": "D'ART OF GROOMING PET SPA", 
    "POP_AT_RISK": 63698, 
    "ZIP": 60626, 
    "ADDRESS": "6526 N CLARK ST 1", 
    "YEAR": 2012, 
    "LONGITUDE": -87.671645484, 
    "LATTITUDE": 42.000674666
  }, 
  {
    "BUSINESS_TYPE": "Grooming Facility", 
    "LEGAL_NAME": "SOGGY PAWS, INC", 
    "STATE": "IL", 
    "DOING_BUSINESS_AS_NAME": "SOGGY PAWS, INC.", 
    "POP_AT_RISK": 58056, 
    "ZIP": 60647, 
    "ADDRESS": "2526 W ARMITAGE AVE 1", 
    "YEAR": 2012, 
    "LONGITUDE": -87.691036349, 
    "LATTITUDE": 41.917653582
  }, 
  {
    "BUSINESS_TYPE": "Grooming Facility", 
    "LEGAL_NAME": "BARKIN' BEAUTIES, INC.", 
    "STATE": "IL", 
    "DOING_BUSINESS_AS_NAME": "BARKIN' BEAUTIES", 
    "POP_AT_RISK": 24262, 
    "ZIP": 60638, 
    "ADDRESS": "6621 W ARCHER AVE 1", 
    "YEAR": 2012, 
    "LONGITUDE": -87.787663749, 
    "LATTITUDE": 41.792120051
  }, 
  {
    "BUSINESS_TYPE": "Grooming Facility", 
    "LEGAL_NAME": "SOGGY PAWS, INC", 
    "STATE": "IL", 
    "DOING_BUSINESS_AS_NAME": "SP2", 
    "POP_AT_RISK": 77657, 
    "ZIP": 60625, 
    "ADDRESS": "2316 W LELAND AVE 1", 
    "YEAR": 2012, 
    "LONGITUDE": -87.68811597, 
    "LATTITUDE": 41.966777901
  }, 
  {
    "BUSINESS_TYPE": "Grooming Facility", 
    "LEGAL_NAME": "HOWLISTIC GROOMER, INC.", 
    "STATE": "IL", 
    "DOING_BUSINESS_AS_NAME": "HOWLISTIC GROOMING", 
    "POP_AT_RISK": 45304, 
    "ZIP": 60607, 
    "ADDRESS": "1258 S HALSTED ST 1ST", 
    "YEAR": 2012, 
    "LONGITUDE": -87.647012737, 
    "LATTITUDE": 41.865416813
  }, 
  {
    "BUSINESS_TYPE": "Grooming Facility", 
    "LEGAL_NAME": "LORRAINE THERESE LYMAN", 
    "STATE": "IL", 
    "DOING_BUSINESS_AS_NAME": "DAZZLE PET GROOMING", 
    "POP_AT_RISK": 21672, 
    "ZIP": 60643, 
    "ADDRESS": "10918 S WESTERN AVE", 
    "YEAR": 2012, 
    "LONGITUDE": -87.681403434, 
    "LATTITUDE": 41.694939854
  }, 
  {
    "BUSINESS_TYPE": "Grooming Facility", 
    "LEGAL_NAME": "LIZANDRO E. MOLINA", 
    "STATE": "IL", 
    "DOING_BUSINESS_AS_NAME": "WOOF & MEOW", 
    "POP_AT_RISK": 54111, 
    "ZIP": 60634, 
    "ADDRESS": "3138 N AUSTIN AVE 1ST", 
    "YEAR": 2012, 
    "LONGITUDE": -87.776341493, 
    "LATTITUDE": 41.937811751
  }, 
  {
    "BUSINESS_TYPE": "Grooming Facility", 
    "LEGAL_NAME": "ARLETTA M BENNETT", 
    "STATE": "IL", 
    "DOING_BUSINESS_AS_NAME": "DOGS ONLY GROOMING SALON", 
    "POP_AT_RISK": 34170, 
    "ZIP": 60637, 
    "ADDRESS": "361 E 69TH ST 1ST", 
    "YEAR": 2012, 
    "LONGITUDE": -87.616236889, 
    "LATTITUDE": 41.769213229
  }, 
  {
    "BUSINESS_TYPE": "Grooming Facility", 
    "LEGAL_NAME": "SHEAR CRITTERS CORP", 
    "STATE": "IL", 
    "DOING_BUSINESS_AS_NAME": "SHEAR CRITTERS", 
    "POP_AT_RISK": 25353, 
    "ZIP": 60630, 
    "ADDRESS": "5281 N ELSTON AVE 1", 
    "YEAR": 2012, 
    "LONGITUDE": -87.754508541, 
    "LATTITUDE": 41.97709067
  }, 
  {
    "BUSINESS_TYPE": "Grooming Facility", 
    "LEGAL_NAME": "KELLY L. MARUSARZ", 
    "STATE": "IL", 
    "DOING_BUSINESS_AS_NAME": "BROOKLYN'S DOGGIE STYLES", 
    "POP_AT_RISK": 38807, 
    "ZIP": 60608, 
    "ADDRESS": "3203 S HALSTED ST 1ST", 
    "YEAR": 2012, 
    "LONGITUDE": -87.646084237, 
    "LATTITUDE": 41.836096921
  }, 
  {
    "BUSINESS_TYPE": "Grooming Facility", 
    "LEGAL_NAME": "BARSHUVAL INC", 
    "STATE": "IL", 
    "DOING_BUSINESS_AS_NAME": "PAWS-A-TIVELY", 
    "POP_AT_RISK": 65743, 
    "ZIP": 60610, 
    "ADDRESS": "109 W NORTH AVE", 
    "YEAR": 2012, 
    "LONGITUDE": -87.632076567, 
    "LATTITUDE": 41.911053246
  }, 
  {
    "BUSINESS_TYPE": "Grooming Facility", 
    "LEGAL_NAME": "LOGAN PETS GROOMING, INC.", 
    "STATE": "IL", 
    "DOING_BUSINESS_AS_NAME": "LOGAN PETS GROOMING, INC.", 
    "POP_AT_RISK": 81541, 
    "ZIP": 60647, 
    "ADDRESS": "2651 N MILWAUKEE AVE 1ST 1", 
    "YEAR": 2012, 
    "LONGITUDE": -87.70871114, 
    "LATTITUDE": 41.930007458
  }, 
  {
    "BUSINESS_TYPE": "Grooming Facility", 
    "LEGAL_NAME": "DOGGONE RITE DOG GROOMING SALON INC.", 
    "STATE": "IL", 
    "DOING_BUSINESS_AS_NAME": "DOGGONE RITE", 
    "POP_AT_RISK": 22174, 
    "ZIP": 60652, 
    "ADDRESS": "3784 W 79TH ST 1ST", 
    "YEAR": 2012, 
    "LONGITUDE": -87.717635828, 
    "LATTITUDE": 41.749746201
  }, 
  {
    "BUSINESS_TYPE": "Grooming Facility", 
    "LEGAL_NAME": "Gary E. Paczkowski", 
    "STATE": "IL", 
    "DOING_BUSINESS_AS_NAME": "Tres Chic Dog Grooming", 
    "POP_AT_RISK": 28777, 
    "ZIP": 60629, 
    "ADDRESS": "4656 W 63RD ST", 
    "YEAR": 2012, 
    "LONGITUDE": -87.73970152, 
    "LATTITUDE": 41.778569005
  }, 
  {
    "BUSINESS_TYPE": "Grooming Facility", 
    "LEGAL_NAME": "CHICAGO GROOMING ACADEMY INC.", 
    "STATE": "IL", 
    "DOING_BUSINESS_AS_NAME": "CHICAGO GROOMING ACADEMY", 
    "POP_AT_RISK": 78515, 
    "ZIP": 60618, 
    "ADDRESS": "3332 W MONTROSE AVE 1", 
    "YEAR": 2012, 
    "LONGITUDE": -87.712052182, 
    "LATTITUDE": 41.961251262
  }, 
  {
    "BUSINESS_TYPE": "Grooming Facility", 
    "LEGAL_NAME": "STATE/11TH, LLC", 
    "STATE": "IL", 
    "DOING_BUSINESS_AS_NAME": "KRISERS FEEDIN PETS FOR LIFE", 
    "POP_AT_RISK": 43841, 
    "ZIP": 60605, 
    "ADDRESS": "1103 S STATE ST 1ST", 
    "YEAR": 2012, 
    "LONGITUDE": -87.627318068, 
    "LATTITUDE": 41.869096222
  }, 
  {
    "BUSINESS_TYPE": "Grooming Facility", 
    "LEGAL_NAME": "JOSE DAVID GONZALEZ", 
    "STATE": "IL", 
    "DOING_BUSINESS_AS_NAME": "VICKY'S PET GROOMING SHOP", 
    "POP_AT_RISK": 32396, 
    "ZIP": 60632, 
    "ADDRESS": "4609 S ARCHER AVE 1 1", 
    "YEAR": 2012, 
    "LONGITUDE": -87.711307703, 
    "LATTITUDE": 41.809613268
  }, 
  {
    "BUSINESS_TYPE": "Grooming Facility", 
    "LEGAL_NAME": "Hector M Valdez", 
    "STATE": "IL", 
    "DOING_BUSINESS_AS_NAME": "Mr.'s Doggies Pet Grooming Salon", 
    "POP_AT_RISK": 54952, 
    "ZIP": 60629, 
    "ADDRESS": "6352 S PULASKI RD N/A", 
    "YEAR": 2012, 
    "LONGITUDE": -87.722867097, 
    "LATTITUDE": 41.777043691
  }, 
  {
    "BUSINESS_TYPE": "Grooming Facility", 
    "LEGAL_NAME": "MIDWEST CANINE CHOPPERS, INC.", 
    "STATE": "IL", 
    "DOING_BUSINESS_AS_NAME": "MIDWEST CANINE CHOPPERS , INC.", 
    "POP_AT_RISK": 21003, 
    "ZIP": 60655, 
    "ADDRESS": "3308 W 111TH ST", 
    "YEAR": 2012, 
    "LONGITUDE": -87.703714206, 
    "LATTITUDE": 41.691632639
  }, 
  {
    "BUSINESS_TYPE": "Grooming Facility", 
    "LEGAL_NAME": "PARADISE PET SALON & SPA TOO! INC.", 
    "STATE": "IL", 
    "DOING_BUSINESS_AS_NAME": "PARADISE PET SALON & SPA TOO! INC.", 
    "POP_AT_RISK": 70645, 
    "ZIP": 60613, 
    "ADDRESS": "810 W SHERIDAN RD 1ST", 
    "YEAR": 2012, 
    "LONGITUDE": -87.650151802, 
    "LATTITUDE": 41.952847953
  }, 
  {
    "BUSINESS_TYPE": "Grooming Facility", 
    "LEGAL_NAME": "PRETTY PAW'S CORPORATION", 
    "STATE": "IL", 
    "DOING_BUSINESS_AS_NAME": "PRETTY PAW'S", 
    "POP_AT_RISK": 34985, 
    "ZIP": 60707, 
    "ADDRESS": "2411 N NEWLAND AVE 1", 
    "YEAR": 2012, 
    "LONGITUDE": -87.798770774, 
    "LATTITUDE": 41.923944802
  }, 
  {
    "BUSINESS_TYPE": "Grooming Facility", 
    "LEGAL_NAME": "GLORIA & TRACY MCBRIDE", 
    "STATE": "IL", 
    "DOING_BUSINESS_AS_NAME": "PINK POODLE PALACE", 
    "POP_AT_RISK": 14637, 
    "ZIP": 60628, 
    "ADDRESS": "12721 S HALSTED ST 1ST", 
    "YEAR": 2012, 
    "LONGITUDE": -87.641251245, 
    "LATTITUDE": 41.662549682
  }, 
  {
    "BUSINESS_TYPE": "Grooming Facility", 
    "LEGAL_NAME": "EDWARD SIDABRAS", 
    "STATE": "IL", 
    "DOING_BUSINESS_AS_NAME": "THREE PUPS IN A TUB", 
    "POP_AT_RISK": 32850, 
    "ZIP": 60609, 
    "ADDRESS": "556 W 37TH ST 1ST FL", 
    "YEAR": 2012, 
    "LONGITUDE": -87.640999231, 
    "LATTITUDE": 41.827277874
  }, 
  {
    "BUSINESS_TYPE": "Grooming Facility", 
    "LEGAL_NAME": "PSP STORES LLC", 
    "STATE": "IL", 
    "DOING_BUSINESS_AS_NAME": "PET SUPPLIES PLUS", 
    "POP_AT_RISK": 21614, 
    "ZIP": 60656, 
    "ADDRESS": "7220 W FOSTER AVE 1ST", 
    "YEAR": 2012, 
    "LONGITUDE": -87.807981099, 
    "LATTITUDE": 41.97462951
  }, 
  {
    "BUSINESS_TYPE": "Grooming Facility", 
    "LEGAL_NAME": "SOGGY PAWS, INC", 
    "STATE": "IL", 
    "DOING_BUSINESS_AS_NAME": "SOGGY  PAWS  INC", 
    "POP_AT_RISK": 62100, 
    "ZIP": 60640, 
    "ADDRESS": "1148 W LELAND AVE", 
    "YEAR": 2012, 
    "LONGITUDE": -87.659487784, 
    "LATTITUDE": 41.967311214
  }, 
  {
    "BUSINESS_TYPE": "Grooming Facility", 
    "LEGAL_NAME": "VICTOR M. PACHECO", 
    "STATE": "IL", 
    "DOING_BUSINESS_AS_NAME": "ACUARIO PISCIS / ESTETICA CANINA", 
    "POP_AT_RISK": 66336, 
    "ZIP": 60623, 
    "ADDRESS": "3040 W CERMAK RD", 
    "YEAR": 2012, 
    "LONGITUDE": -87.702017063, 
    "LATTITUDE": 41.851920613
  }, 
  {
    "BUSINESS_TYPE": "Grooming Facility", 
    "LEGAL_NAME": "HYDE PARK INC.", 
    "STATE": "IL", 
    "DOING_BUSINESS_AS_NAME": "STREETVILLE PET SPA & BOUTIQUE", 
    "POP_AT_RISK": 57749, 
    "ZIP": 60611, 
    "ADDRESS": "401 E ONTARIO ST 1", 
    "YEAR": 2012, 
    "LONGITUDE": -87.617589151, 
    "LATTITUDE": 41.893341296
  }, 
  {
    "BUSINESS_TYPE": "Grooming Facility", 
    "LEGAL_NAME": "AUDREY ANN FISCHER", 
    "STATE": "IL", 
    "DOING_BUSINESS_AS_NAME": "BEVERLY PET", 
    "POP_AT_RISK": 13585, 
    "ZIP": 60643, 
    "ADDRESS": "10035 S WESTERN AVE  1", 
    "YEAR": 2012, 
    "LONGITUDE": -87.68160723, 
    "LATTITUDE": 41.710804484
  }, 
  {
    "BUSINESS_TYPE": "Grooming Facility", 
    "LEGAL_NAME": "DORIS GRGIN", 
    "STATE": "IL", 
    "DOING_BUSINESS_AS_NAME": "PINK POODLE DOG BOUTIQUE", 
    "POP_AT_RISK": 45613, 
    "ZIP": 60630, 
    "ADDRESS": "5510 W LAWRENCE AVE  1", 
    "YEAR": 2012, 
    "LONGITUDE": -87.765484523, 
    "LATTITUDE": 41.967917406
  }, 
  {
    "BUSINESS_TYPE": "Grooming Facility", 
    "LEGAL_NAME": "Teresa A. Boris", 
    "STATE": "IL", 
    "DOING_BUSINESS_AS_NAME": "Scrub A Dub Dub", 
    "POP_AT_RISK": 63298, 
    "ZIP": 60640, 
    "ADDRESS": "1476-78 W SUMMERDALE AVE", 
    "YEAR": 2012, 
    "LONGITUDE": -87.667774357, 
    "LATTITUDE": 41.979049716
  }, 
  {
    "BUSINESS_TYPE": "Grooming Facility", 
    "LEGAL_NAME": "Temple of the Dog & Meow Lounge", 
    "STATE": "IL", 
    "DOING_BUSINESS_AS_NAME": "Temple of the Dog & Meow Lounge", 
    "POP_AT_RISK": 69815, 
    "ZIP": 60647, 
    "ADDRESS": "2344 N MILWAUKEE AVE 1ST", 
    "YEAR": 2012, 
    "LONGITUDE": -87.698916578, 
    "LATTITUDE": 41.923720199
  }, 
  {
    "BUSINESS_TYPE": "Grooming Facility", 
    "LEGAL_NAME": "SOGGY PAWS, INC", 
    "STATE": "IL", 
    "DOING_BUSINESS_AS_NAME": "SOGGY PAWS", 
    "POP_AT_RISK": 33206, 
    "ZIP": 60616, 
    "ADDRESS": "1925 S ARCHER AVE 1", 
    "YEAR": 2012, 
    "LONGITUDE": -87.628027955, 
    "LATTITUDE": 41.856013501
  }, 
  {
    "BUSINESS_TYPE": "Grooming Facility", 
    "LEGAL_NAME": "LIZANDRO E. MOLINA", 
    "STATE": "IL", 
    "DOING_BUSINESS_AS_NAME": "WOOF & MEOW", 
    "POP_AT_RISK": 59030, 
    "ZIP": 60639, 
    "ADDRESS": "4914 W ARMITAGE AVE 1ST", 
    "YEAR": 2012, 
    "LONGITUDE": -87.750128354, 
    "LATTITUDE": 41.916988727
  }, 
  {
    "BUSINESS_TYPE": "Grooming Facility", 
    "LEGAL_NAME": "PET LUV PET CENTER INC", 
    "STATE": "IL", 
    "DOING_BUSINESS_AS_NAME": "PET LUV PET CENTER INC", 
    "POP_AT_RISK": 11047, 
    "ZIP": 60652, 
    "ADDRESS": "8057 S CICERO AVE", 
    "YEAR": 2012, 
    "LONGITUDE": -87.74110156, 
    "LATTITUDE": 41.74602292
  }, 
  {
    "BUSINESS_TYPE": "Grooming Facility", 
    "LEGAL_NAME": "SMOOCH A POOCH GROOMING LLC", 
    "STATE": "IL", 
    "DOING_BUSINESS_AS_NAME": "SMOOCH A POOCH GROOMING LLC", 
    "POP_AT_RISK": 26137, 
    "ZIP": 60631, 
    "ADDRESS": "6048 N AVONDALE AVE 1ST", 
    "YEAR": 2012, 
    "LONGITUDE": -87.799226092, 
    "LATTITUDE": 41.991088728
  }, 
  {
    "BUSINESS_TYPE": "Grooming Facility", 
    "LEGAL_NAME": "JULIE HERBERT", 
    "STATE": "IL", 
    "DOING_BUSINESS_AS_NAME": "POM POM PALACE", 
    "POP_AT_RISK": 28225, 
    "ZIP": 60634, 
    "ADDRESS": "7500 W BELMONT AVE 1ST", 
    "YEAR": 2012, 
    "LONGITUDE": -87.814137668, 
    "LATTITUDE": 41.938076444
  }, 
  {
    "BUSINESS_TYPE": "Grooming Facility", 
    "LEGAL_NAME": "HYDE BARK, LLC", 
    "STATE": "IL", 
    "DOING_BUSINESS_AS_NAME": "Parker's Pets", 
    "POP_AT_RISK": 43211, 
    "ZIP": 60615, 
    "ADDRESS": "1340-1342 E 55TH ST 1 1", 
    "YEAR": 2012, 
    "LONGITUDE": -87.593298402, 
    "LATTITUDE": 41.795218635
  }, 
  {
    "BUSINESS_TYPE": "Grooming Facility", 
    "LEGAL_NAME": "ANTONIA GARCIA & MARIA ANTONIA JAIME", 
    "STATE": "IL", 
    "DOING_BUSINESS_AS_NAME": "KENIN'S PET GROOMING SHOP", 
    "POP_AT_RISK": 23425, 
    "ZIP": 60652, 
    "ADDRESS": "8142 S KEDZIE AVE 1 1", 
    "YEAR": 2012, 
    "LONGITUDE": -87.702404287, 
    "LATTITUDE": 41.744867655
  }, 
  {
    "BUSINESS_TYPE": "Grooming Facility", 
    "LEGAL_NAME": "ANNE MARIE ZWICK", 
    "STATE": "IL", 
    "DOING_BUSINESS_AS_NAME": "BARK OUT LOUD", 
    "POP_AT_RISK": 47594, 
    "ZIP": 60641, 
    "ADDRESS": "5232 W IRVING PARK RD", 
    "YEAR": 2012, 
    "LONGITUDE": -87.758495748, 
    "LATTITUDE": 41.953392107
  }, 
  {
    "BUSINESS_TYPE": "Grooming Facility", 
    "LEGAL_NAME": "RUB - A- DUB DOG, UNC", 
    "STATE": "IL", 
    "DOING_BUSINESS_AS_NAME": "RUB -A - DUB DOG, INC", 
    "POP_AT_RISK": 36314, 
    "ZIP": 60646, 
    "ADDRESS": "5759 N NAGLE AVE  60646", 
    "YEAR": 2012, 
    "LONGITUDE": -87.787521003, 
    "LATTITUDE": 41.986481136
  }
]