[
  {
    "BUSINESS_TYPE": "Raffles", 
    "LEGAL_NAME": "ST NICHOLAS OF TOLENTINE", 
    "STATE": "IL", 
    "DOING_BUSINESS_AS_NAME": "ST NICHOLAS OF TOLENTINE", 
    "POP_AT_RISK": 57957, 
    "ZIP": 60629, 
    "ADDRESS": "3721 W 62ND ST", 
    "YEAR": 2017, 
    "LONGITUDE": -87.716332912, 
    "LATTITUDE": 41.780471718
  }, 
  {
    "BUSINESS_TYPE": "Raffles", 
    "LEGAL_NAME": "ST MARGARET OF SCOTLAND", 
    "STATE": "IL", 
    "DOING_BUSINESS_AS_NAME": "St. Margaret of Scotland", 
    "POP_AT_RISK": 31234, 
    "ZIP": 60643, 
    "ADDRESS": "9833 S THROOP ST FIRST", 
    "YEAR": 2017, 
    "LONGITUDE": -87.655059575, 
    "LATTITUDE": 41.714885181
  }, 
  {
    "BUSINESS_TYPE": "Raffles", 
    "LEGAL_NAME": "MetroSquash", 
    "STATE": "IL", 
    "DOING_BUSINESS_AS_NAME": "MetroSquash", 
    "POP_AT_RISK": 36565, 
    "ZIP": 60637, 
    "ADDRESS": "6100 S COTTAGE GROVE AVE", 
    "YEAR": 2017, 
    "LONGITUDE": -87.606153791, 
    "LATTITUDE": 41.783964365
  }, 
  {
    "BUSINESS_TYPE": "Raffles", 
    "LEGAL_NAME": "Amate House Foundation", 
    "STATE": "IL", 
    "DOING_BUSINESS_AS_NAME": "Amate House", 
    "POP_AT_RISK": 30396, 
    "ZIP": 60608, 
    "ADDRESS": "3600 S SEELEY AVE", 
    "YEAR": 2017, 
    "LONGITUDE": -87.676598157, 
    "LATTITUDE": 41.82845985
  }, 
  {
    "BUSINESS_TYPE": "Raffles", 
    "LEGAL_NAME": "AFFINITY COMMUNITY SERVICES", 
    "STATE": "IL", 
    "DOING_BUSINESS_AS_NAME": "AFFINITY COMMUNITY SERVICES", 
    "POP_AT_RISK": 31093, 
    "ZIP": 60616, 
    "ADDRESS": "2850 S WABASH AVE 108", 
    "YEAR": 2017, 
    "LONGITUDE": -87.62538507, 
    "LATTITUDE": 41.842039358
  }, 
  {
    "BUSINESS_TYPE": "Raffles", 
    "LEGAL_NAME": "GREATER CHICAGO FOOD DEPOSITORY", 
    "STATE": "IL", 
    "DOING_BUSINESS_AS_NAME": "GREATER CHICAGO FOOD DEPOSITORY", 
    "POP_AT_RISK": 21859, 
    "ZIP": 60632, 
    "ADDRESS": "4100 W ANN LURIE PL", 
    "YEAR": 2017, 
    "LONGITUDE": -87.726317478, 
    "LATTITUDE": 41.81643747
  }, 
  {
    "BUSINESS_TYPE": "Raffles", 
    "LEGAL_NAME": "ST. SIMON THE APOSTLE CHRUCH", 
    "STATE": "IL", 
    "DOING_BUSINESS_AS_NAME": "ST. SIMON THE APOSTLE CHURCH", 
    "POP_AT_RISK": 51634, 
    "ZIP": 60632, 
    "ADDRESS": "5157 S CALIFORNIA AVE", 
    "YEAR": 2017, 
    "LONGITUDE": -87.693808722, 
    "LATTITUDE": 41.799313737
  }, 
  {
    "BUSINESS_TYPE": "Raffles", 
    "LEGAL_NAME": "THE CATHOLIC BISHOP OF CHICAGO", 
    "STATE": "IL", 
    "DOING_BUSINESS_AS_NAME": "ST. BEDE THE VENERABLE CHURCH", 
    "POP_AT_RISK": 17656, 
    "ZIP": 60652, 
    "ADDRESS": "8200 S KOSTNER AVE", 
    "YEAR": 2017, 
    "LONGITUDE": -87.731572486, 
    "LATTITUDE": 41.743376874
  }, 
  {
    "BUSINESS_TYPE": "Raffles", 
    "LEGAL_NAME": "OUR LADY OF THE SNOWS", 
    "STATE": "IL", 
    "DOING_BUSINESS_AS_NAME": "OUR LADY OF THE SNOWS", 
    "POP_AT_RISK": 13441, 
    "ZIP": 60638, 
    "ADDRESS": "4810 S LEAMINGTON AVE", 
    "YEAR": 2017, 
    "LONGITUDE": -87.751801134, 
    "LATTITUDE": 41.805309329
  }, 
  {
    "BUSINESS_TYPE": "Raffles", 
    "LEGAL_NAME": "YOUNG NONPROFIT PROFESSIONALS NETWORK OF CHICAGO", 
    "STATE": "IL", 
    "DOING_BUSINESS_AS_NAME": "YOUNG NONPROFIT PROFESSIONALS NETWORK OF CHICAGO", 
    "POP_AT_RISK": 25417, 
    "ZIP": 60659, 
    "ADDRESS": "5924 N ST LOUIS AVE  1", 
    "YEAR": 2017, 
    "LONGITUDE": -87.716537473, 
    "LATTITUDE": 41.989212867
  }, 
  {
    "BUSINESS_TYPE": "Raffles", 
    "LEGAL_NAME": "EDGEBROOK SCHOOL FOUNDATION", 
    "STATE": "IL", 
    "DOING_BUSINESS_AS_NAME": "EDGEBROOK SCHOOL FOUNDATION", 
    "POP_AT_RISK": 17956, 
    "ZIP": 60646, 
    "ADDRESS": "6525 N HIAWATHA AVE 1", 
    "YEAR": 2017, 
    "LONGITUDE": -87.761821103, 
    "LATTITUDE": 41.999460165
  }, 
  {
    "BUSINESS_TYPE": "Raffles", 
    "LEGAL_NAME": "ST. STANISLAUS BISHOP & MARTYR", 
    "STATE": "IL", 
    "DOING_BUSINESS_AS_NAME": "ST. STANISLAUS BISHOP & MARTYR", 
    "POP_AT_RISK": 65800, 
    "ZIP": 60639, 
    "ADDRESS": "5352 W BELDEN AVE", 
    "YEAR": 2017, 
    "LONGITUDE": -87.76071251, 
    "LATTITUDE": 41.922331371
  }, 
  {
    "BUSINESS_TYPE": "Raffles", 
    "LEGAL_NAME": "Chicago Ballet Arts", 
    "STATE": "IL", 
    "DOING_BUSINESS_AS_NAME": "Chicago Ballet Arts", 
    "POP_AT_RISK": 42822, 
    "ZIP": 60645, 
    "ADDRESS": "7416 N RIDGE BLVD GARDEN LEVEL", 
    "YEAR": 2017, 
    "LONGITUDE": -87.684441324, 
    "LATTITUDE": 42.016464475
  }, 
  {
    "BUSINESS_TYPE": "Raffles", 
    "LEGAL_NAME": "ST. DANIEL THE PROPHET CHURCH", 
    "STATE": "IL", 
    "DOING_BUSINESS_AS_NAME": "ST. DANIEL THE PROPHET CHURCH", 
    "POP_AT_RISK": 21072, 
    "ZIP": 60638, 
    "ADDRESS": "5300 S NATOMA AVE 1ST", 
    "YEAR": 2017, 
    "LONGITUDE": -87.788164079, 
    "LATTITUDE": 41.79586265
  }, 
  {
    "BUSINESS_TYPE": "Raffles", 
    "LEGAL_NAME": "PRIMO CENTER FOR WOMEN AND CHILDREN", 
    "STATE": "IL", 
    "DOING_BUSINESS_AS_NAME": "PRIMO CENTER FOR WOMEN AND CHILDREN", 
    "POP_AT_RISK": 36627, 
    "ZIP": 60621, 
    "ADDRESS": "6212 S SANGAMON ST", 
    "YEAR": 2017, 
    "LONGITUDE": -87.648608777, 
    "LATTITUDE": 41.781011718
  }, 
  {
    "BUSINESS_TYPE": "Raffles", 
    "LEGAL_NAME": "SAINT SYMPHOROSA SCHOOL", 
    "STATE": "IL", 
    "DOING_BUSINESS_AS_NAME": "ST. SYMPHOROSA SCHOOL", 
    "POP_AT_RISK": 15782, 
    "ZIP": 60638, 
    "ADDRESS": "6135 S AUSTIN AVE", 
    "YEAR": 2017, 
    "LONGITUDE": -87.771447793, 
    "LATTITUDE": 41.780476471
  }, 
  {
    "BUSINESS_TYPE": "Raffles", 
    "LEGAL_NAME": "CHICAGO YOUTH PROGRAMS, INC.", 
    "STATE": "IL", 
    "DOING_BUSINESS_AS_NAME": "CHICAGO YOUTH PROGRAMS, INC", 
    "POP_AT_RISK": 26067, 
    "ZIP": 60615, 
    "ADDRESS": "5350 S PRAIRIE AVE", 
    "YEAR": 2017, 
    "LONGITUDE": -87.619426625, 
    "LATTITUDE": 41.796899227
  }, 
  {
    "BUSINESS_TYPE": "Raffles", 
    "LEGAL_NAME": "CHICAGO FOOTBALL CLASSIC, INC.", 
    "STATE": "IL", 
    "DOING_BUSINESS_AS_NAME": "CHICAGO FOOTBALL CLASSIC", 
    "POP_AT_RISK": 35159, 
    "ZIP": 60620, 
    "ADDRESS": "41 W 84TH ST 1ST", 
    "YEAR": 2017, 
    "LONGITUDE": -87.625976311, 
    "LATTITUDE": 41.741705076
  }, 
  {
    "BUSINESS_TYPE": "Raffles", 
    "LEGAL_NAME": "CHICAGO URBAN LEAGUE", 
    "STATE": "IL", 
    "DOING_BUSINESS_AS_NAME": "CHICAGO URBAN LEAGUE", 
    "POP_AT_RISK": 30702, 
    "ZIP": 60653, 
    "ADDRESS": "4510 S MICHIGAN AVE 1ST", 
    "YEAR": 2017, 
    "LONGITUDE": -87.6230742, 
    "LATTITUDE": 41.812724846
  }, 
  {
    "BUSINESS_TYPE": "Raffles", 
    "LEGAL_NAME": "ST COLUMBA PARISH SCHOOL BOARDARCHDIOCESE OF CHICAGO-ST COLUMBA", 
    "STATE": "IL", 
    "DOING_BUSINESS_AS_NAME": "ST COLUMBA PARISH COUNCIL RAFFLE", 
    "POP_AT_RISK": 6628, 
    "ZIP": 60633, 
    "ADDRESS": "13323 S GREEN BAY AVE", 
    "YEAR": 2017, 
    "LONGITUDE": -87.540958624, 
    "LATTITUDE": 41.652953675
  }, 
  {
    "BUSINESS_TYPE": "Raffles", 
    "LEGAL_NAME": "CATHOLIC BISHOPS OF CHICAGO", 
    "STATE": "IL", 
    "DOING_BUSINESS_AS_NAME": "ST.CAMILLUS PARICH", 
    "POP_AT_RISK": 22813, 
    "ZIP": 60638, 
    "ADDRESS": "5426 S LOCKWOOD AVE", 
    "YEAR": 2017, 
    "LONGITUDE": -87.755149889, 
    "LATTITUDE": 41.793832733
  }, 
  {
    "BUSINESS_TYPE": "Raffles", 
    "LEGAL_NAME": "B.U.I.L.D. INCORPORATED", 
    "STATE": "IL", 
    "DOING_BUSINESS_AS_NAME": "B.U.I.L.D. INCORPORATED", 
    "POP_AT_RISK": 31111, 
    "ZIP": 60644, 
    "ADDRESS": "5100 W HARRISON ST 1ST", 
    "YEAR": 2017, 
    "LONGITUDE": -87.753360237, 
    "LATTITUDE": 41.873076636
  }, 
  {
    "BUSINESS_TYPE": "Raffles", 
    "LEGAL_NAME": "ST. PHILOMENA CATHOLIC CHURCH", 
    "STATE": "IL", 
    "DOING_BUSINESS_AS_NAME": "ST PHILOMENA CHURCH", 
    "POP_AT_RISK": 64487, 
    "ZIP": 60639, 
    "ADDRESS": "1921 N KEDVALE AVE", 
    "YEAR": 2017, 
    "LONGITUDE": -87.730035883, 
    "LATTITUDE": 41.915955381
  }, 
  {
    "BUSINESS_TYPE": "Raffles", 
    "LEGAL_NAME": "ILL COLLEGE OF OPTOMETRY", 
    "STATE": "IL", 
    "DOING_BUSINESS_AS_NAME": "ILL COLLEGE OF OPTOMETRY", 
    "POP_AT_RISK": 33319, 
    "ZIP": 60616, 
    "ADDRESS": "3241 S MICHIGAN AVE  1ST", 
    "YEAR": 2017, 
    "LONGITUDE": -87.623201197, 
    "LATTITUDE": 41.835282155
  }, 
  {
    "BUSINESS_TYPE": "Raffles", 
    "LEGAL_NAME": "CATHOLIC BISHOP OF CHICAGO", 
    "STATE": "IL", 
    "DOING_BUSINESS_AS_NAME": "ST MONICA CHURCH", 
    "POP_AT_RISK": 21614, 
    "ZIP": 60656, 
    "ADDRESS": "5136 N NOTTINGHAM AVE", 
    "YEAR": 2017, 
    "LONGITUDE": -87.803723872, 
    "LATTITUDE": 41.974815935
  }, 
  {
    "BUSINESS_TYPE": "Raffles", 
    "LEGAL_NAME": "ASSUMPTION B.V.M. CHURCH", 
    "STATE": "IL", 
    "DOING_BUSINESS_AS_NAME": "ASSUMPTION BVM CHURCH", 
    "POP_AT_RISK": 56637, 
    "ZIP": 60608, 
    "ADDRESS": "2434 S CALIFORNIA AVE", 
    "YEAR": 2017, 
    "LONGITUDE": -87.695459106, 
    "LATTITUDE": 41.847222231
  }, 
  {
    "BUSINESS_TYPE": "Raffles", 
    "LEGAL_NAME": "CHURCH OF THE ANNUNCIATA", 
    "STATE": "IL", 
    "DOING_BUSINESS_AS_NAME": "CHURCH OF THE ANNUNCIATA", 
    "POP_AT_RISK": 17150, 
    "ZIP": 60617, 
    "ADDRESS": "11128 S AVENUE G", 
    "YEAR": 2017, 
    "LONGITUDE": -87.531811302, 
    "LATTITUDE": 41.692726227
  }, 
  {
    "BUSINESS_TYPE": "Raffles", 
    "LEGAL_NAME": "POLISH AMERICAN ASSOCIATION", 
    "STATE": "IL", 
    "DOING_BUSINESS_AS_NAME": "POLISH AMERICAN ASSOCIATION", 
    "POP_AT_RISK": 48558, 
    "ZIP": 60641, 
    "ADDRESS": "3834 N CICERO AVE 1ST", 
    "YEAR": 2017, 
    "LONGITUDE": -87.747389559, 
    "LATTITUDE": 41.950828264
  }, 
  {
    "BUSINESS_TYPE": "Raffles", 
    "LEGAL_NAME": "CATHOLIC BISHOP OF CHICAGO dba ST MARY OF THE WOODS PARISH", 
    "STATE": "IL", 
    "DOING_BUSINESS_AS_NAME": "ST MARY OF THE WOODS", 
    "POP_AT_RISK": 8129, 
    "ZIP": 60646, 
    "ADDRESS": "7033 N MOSELLE AVE FIRST", 
    "YEAR": 2017, 
    "LONGITUDE": -87.777039, 
    "LATTITUDE": 42.00834548
  }, 
  {
    "BUSINESS_TYPE": "Raffles", 
    "LEGAL_NAME": "ST CHRISTINA  PARISH", 
    "STATE": "IL", 
    "DOING_BUSINESS_AS_NAME": "ST. CHRISTINA PARISH", 
    "POP_AT_RISK": 25020, 
    "ZIP": 60655, 
    "ADDRESS": "11005 S HOMAN AVE", 
    "YEAR": 2017, 
    "LONGITUDE": -87.705683096, 
    "LATTITUDE": 41.69311328
  }, 
  {
    "BUSINESS_TYPE": "Raffles", 
    "LEGAL_NAME": "FRIENDS OF CHICAGO ANIMAL CARE AND CONTROL, INC.", 
    "STATE": "IL", 
    "DOING_BUSINESS_AS_NAME": "FRIENDS OF CHICAGO ANIMAL CARE AND CONTROL, INC.", 
    "POP_AT_RISK": 28389, 
    "ZIP": 60643, 
    "ADDRESS": "9704 S CHARLES ST", 
    "YEAR": 2017, 
    "LONGITUDE": -87.663242146, 
    "LATTITUDE": 41.71812456
  }, 
  {
    "BUSINESS_TYPE": "Raffles", 
    "LEGAL_NAME": "RESURRECTION COLLEGE PREP HIGH SCHOOL", 
    "STATE": "IL", 
    "DOING_BUSINESS_AS_NAME": "RESURRECTION HIGH SCHOOL", 
    "POP_AT_RISK": 21744, 
    "ZIP": 60631, 
    "ADDRESS": "7500 W TALCOTT AVE", 
    "YEAR": 2017, 
    "LONGITUDE": -87.814210666, 
    "LATTITUDE": 41.989465799
  }, 
  {
    "BUSINESS_TYPE": "Raffles", 
    "LEGAL_NAME": "ST BASIL VISITATION", 
    "STATE": "IL", 
    "DOING_BUSINESS_AS_NAME": "ST BASIL VISITATION", 
    "POP_AT_RISK": 28731, 
    "ZIP": 60621, 
    "ADDRESS": "843 W GARFIELD BLVD", 
    "YEAR": 2017, 
    "LONGITUDE": -87.646883147, 
    "LATTITUDE": 41.79380109
  }, 
  {
    "BUSINESS_TYPE": "Raffles", 
    "LEGAL_NAME": "THE CATHOLIC BISHOP OF CHICAGO", 
    "STATE": "IL", 
    "DOING_BUSINESS_AS_NAME": "St.Denis Catholic Church", 
    "POP_AT_RISK": 9837, 
    "ZIP": 60652, 
    "ADDRESS": "8301 S ST LOUIS AVE", 
    "YEAR": 2017, 
    "LONGITUDE": -87.709352828, 
    "LATTITUDE": 41.742335317
  }, 
  {
    "BUSINESS_TYPE": "Raffles", 
    "LEGAL_NAME": "CENTER FOR CHANGING LIVES", 
    "STATE": "IL", 
    "DOING_BUSINESS_AS_NAME": "CENTER FOR CHANGING LIVES", 
    "POP_AT_RISK": 75696, 
    "ZIP": 60647, 
    "ADDRESS": "1955 N ST LOUIS AVE 1ST 101", 
    "YEAR": 2017, 
    "LONGITUDE": -87.713389233, 
    "LATTITUDE": 41.917255239
  }, 
  {
    "BUSINESS_TYPE": "Raffles", 
    "LEGAL_NAME": "NATIONAL POSTAL MAIL HANDLERS UNION, LOCAL 306", 
    "STATE": "IL", 
    "DOING_BUSINESS_AS_NAME": "NATIONAL POSTAL MAIL HANDLERS UNION, LOCAL 306", 
    "POP_AT_RISK": 9128, 
    "ZIP": 60643, 
    "ADDRESS": "9045 S WESTERN AVE 1", 
    "YEAR": 2017, 
    "LONGITUDE": -87.682158158, 
    "LATTITUDE": 41.728725236
  }, 
  {
    "BUSINESS_TYPE": "Raffles", 
    "LEGAL_NAME": "CROATIAN SCHOOLS OF AMERICA", 
    "STATE": "IL", 
    "DOING_BUSINESS_AS_NAME": "CROATIAN SCHOOL OF AMERICA", 
    "POP_AT_RISK": 42242, 
    "ZIP": 60615, 
    "ADDRESS": "4851 S DREXEL BLVD", 
    "YEAR": 2017, 
    "LONGITUDE": -87.603679796, 
    "LATTITUDE": 41.806243714
  }, 
  {
    "BUSINESS_TYPE": "Raffles", 
    "LEGAL_NAME": "PORCHLIGHT MUSIC THEATRE", 
    "STATE": "IL", 
    "DOING_BUSINESS_AS_NAME": "PORCHLIGHT MUSIC THEATRE CHICAGO", 
    "POP_AT_RISK": 58536, 
    "ZIP": 60639, 
    "ADDRESS": "4200 W DIVERSEY AVE 1-2", 
    "YEAR": 2017, 
    "LONGITUDE": -87.731564037, 
    "LATTITUDE": 41.931842244
  }, 
  {
    "BUSINESS_TYPE": "Raffles", 
    "LEGAL_NAME": "ST. MARTIN DE PORRES CATHOLIS CHURCH", 
    "STATE": "IL", 
    "DOING_BUSINESS_AS_NAME": "ST. MARTIN DE PORRES", 
    "POP_AT_RISK": 39489, 
    "ZIP": 60624, 
    "ADDRESS": "4300 W WASHINGTON BLVD", 
    "YEAR": 2017, 
    "LONGITUDE": -87.733190784, 
    "LATTITUDE": 41.882065246
  }, 
  {
    "BUSINESS_TYPE": "Raffles", 
    "LEGAL_NAME": "Catholic Bishop of Chicago/Pope John Paul II Catholic School", 
    "STATE": "IL", 
    "DOING_BUSINESS_AS_NAME": "CATHOLIC BISHOP OF CHICAGO/POPE JOHN PAUL II CATHOLIC SCHOOL", 
    "POP_AT_RISK": 44304, 
    "ZIP": 60632, 
    "ADDRESS": "4325 S RICHMOND ST 1ST", 
    "YEAR": 2017, 
    "LONGITUDE": -87.697942533, 
    "LATTITUDE": 41.814723634
  }, 
  {
    "BUSINESS_TYPE": "Raffles", 
    "LEGAL_NAME": "ST CLARE OF MONTEFALCO", 
    "STATE": "IL", 
    "DOING_BUSINESS_AS_NAME": "ST. CLARE OF MONTEFALCO", 
    "POP_AT_RISK": 58632, 
    "ZIP": 60632, 
    "ADDRESS": "5443 S WASHTENAW AVE", 
    "YEAR": 2017, 
    "LONGITUDE": -87.691229137, 
    "LATTITUDE": 41.794282132
  }, 
  {
    "BUSINESS_TYPE": "Raffles", 
    "LEGAL_NAME": "ST PATRICK HIGH SCHOOL", 
    "STATE": "IL", 
    "DOING_BUSINESS_AS_NAME": "ST. PATRICK HIGH SCHOOL", 
    "POP_AT_RISK": 54640, 
    "ZIP": 60634, 
    "ADDRESS": "5900 W BELMONT AVE", 
    "YEAR": 2017, 
    "LONGITUDE": -87.773849093, 
    "LATTITUDE": 41.938588572
  }, 
  {
    "BUSINESS_TYPE": "Raffles", 
    "LEGAL_NAME": "Catholic Bishop of Chicago, Corporation Sole, Saint Juliana Parish", 
    "STATE": "IL", 
    "DOING_BUSINESS_AS_NAME": "Saint Juliana Parish", 
    "POP_AT_RISK": 11341, 
    "ZIP": 60631, 
    "ADDRESS": "7200 N OSCEOLA AVE", 
    "YEAR": 2017, 
    "LONGITUDE": -87.812877869, 
    "LATTITUDE": 42.011645069
  }, 
  {
    "BUSINESS_TYPE": "Raffles", 
    "LEGAL_NAME": "MUSEUM OF SCIENCE AND INDUSTRY", 
    "STATE": "IL", 
    "DOING_BUSINESS_AS_NAME": "MUSEUM OF SCIENCE AND INDUSTRY", 
    "POP_AT_RISK": 34697, 
    "ZIP": 60637, 
    "ADDRESS": "1701 E 57TH", 
    "YEAR": 2017, 
    "LONGITUDE": -87.583791206, 
    "LATTITUDE": 41.792536209
  }, 
  {
    "BUSINESS_TYPE": "Raffles", 
    "LEGAL_NAME": "THE CATHOLIC BISHOP OF CHICAGO", 
    "STATE": "IL", 
    "DOING_BUSINESS_AS_NAME": "IMMACULATE CONCEPTION SCHOOL", 
    "POP_AT_RISK": 25210, 
    "ZIP": 60617, 
    "ADDRESS": "8739 S EXCHANGE AVE", 
    "YEAR": 2017, 
    "LONGITUDE": -87.552644554, 
    "LATTITUDE": 41.736199545
  }
]