[
  {
    "BUSINESS_TYPE": "Expediter - Class A", 
    "LEGAL_NAME": "MODERN ACCOUNTING & INS INC.", 
    "STATE": "IL", 
    "DOING_BUSINESS_AS_NAME": "MODERN ACCOUNTING & INS INC.", 
    "POP_AT_RISK": 54500, 
    "ZIP": 60659, 
    "ADDRESS": "6357 N FAIRFIELD AVE 1ST", 
    "YEAR": 2011, 
    "LONGITUDE": -87.698268821, 
    "LATTITUDE": 41.997439625
  }, 
  {
    "BUSINESS_TYPE": "Expediter - Class A", 
    "LEGAL_NAME": "PREMIER CONSULTING INC", 
    "STATE": "IL", 
    "DOING_BUSINESS_AS_NAME": "PREMIER CONSULTING INC", 
    "POP_AT_RISK": 41809, 
    "ZIP": 60607, 
    "ADDRESS": "1301 W MADISON ST 6TH 608", 
    "YEAR": 2011, 
    "LONGITUDE": -87.65966035, 
    "LATTITUDE": 41.881463025
  }, 
  {
    "BUSINESS_TYPE": "Expediter - Class A", 
    "LEGAL_NAME": "J & K CONSULTANTS, INC", 
    "STATE": "IL", 
    "DOING_BUSINESS_AS_NAME": "J & K CONSULTANTS INC.", 
    "POP_AT_RISK": 44488, 
    "ZIP": 60630, 
    "ADDRESS": "4507 W LAWRENCE AVE 1ST 107", 
    "YEAR": 2011, 
    "LONGITUDE": -87.741776114, 
    "LATTITUDE": 41.967983305
  }, 
  {
    "BUSINESS_TYPE": "Expediter - Class A", 
    "LEGAL_NAME": "4 STAR COURIER COLLECTIVE, LLC", 
    "STATE": "IL", 
    "DOING_BUSINESS_AS_NAME": "4 STAR COURIER COLLECTIVE, LLC", 
    "POP_AT_RISK": 50563, 
    "ZIP": 60622, 
    "ADDRESS": "1049 N MARSHFIELD AVE 2ND 2 R", 
    "YEAR": 2011, 
    "LONGITUDE": -87.668506918, 
    "LATTITUDE": 41.901086185
  }, 
  {
    "BUSINESS_TYPE": "Expediter - Class A", 
    "LEGAL_NAME": "Square Block Consulting, Inc.", 
    "STATE": "IL", 
    "DOING_BUSINESS_AS_NAME": "Square Block Consulting, Inc.", 
    "POP_AT_RISK": 51049, 
    "ZIP": 60626, 
    "ADDRESS": "1327 W GREENLEAF AVE 1 GW", 
    "YEAR": 2011, 
    "LONGITUDE": -87.663577648, 
    "LATTITUDE": 42.010270843
  }, 
  {
    "BUSINESS_TYPE": "Expediter - Class A", 
    "LEGAL_NAME": "ARELLANO'S PERMIT EXPEDITING, LLC", 
    "STATE": "IL", 
    "DOING_BUSINESS_AS_NAME": "ARELLANO'S PERMIT EXPEDITING, LLC", 
    "POP_AT_RISK": 62746, 
    "ZIP": 60640, 
    "ADDRESS": "1054 W LAWRENCE AVE 1ST", 
    "YEAR": 2011, 
    "LONGITUDE": -87.657003773, 
    "LATTITUDE": 41.969169855
  }, 
  {
    "BUSINESS_TYPE": "Expediter - Class A", 
    "LEGAL_NAME": "CONTRACTOR'S FINANCE CENTRAL MANAGEMENT, INC.", 
    "STATE": "IL", 
    "DOING_BUSINESS_AS_NAME": "CONTRACTOR'S FINANCE CENTRAL MANAGEMENT, INC.", 
    "POP_AT_RISK": 28308, 
    "ZIP": 60619, 
    "ADDRESS": "8759 S WABASH AVE 1ST", 
    "YEAR": 2011, 
    "LONGITUDE": -87.622413528, 
    "LATTITUDE": 41.73464783
  }, 
  {
    "BUSINESS_TYPE": "Expediter - Class A", 
    "LEGAL_NAME": "PERMEX REMODELING INC.", 
    "STATE": "IL", 
    "DOING_BUSINESS_AS_NAME": "PERMEX REMODELING INC.", 
    "POP_AT_RISK": 62960, 
    "ZIP": 60623, 
    "ADDRESS": "2727 S LAWNDALE AVE", 
    "YEAR": 2011, 
    "LONGITUDE": -87.71701278, 
    "LATTITUDE": 41.841686823
  }, 
  {
    "BUSINESS_TYPE": "Expediter - Class A", 
    "LEGAL_NAME": "N&V DESIGNER, INC.", 
    "STATE": "IL", 
    "DOING_BUSINESS_AS_NAME": "N&V DESIGNER, INC.", 
    "POP_AT_RISK": 59063, 
    "ZIP": 60647, 
    "ADDRESS": "2138 N CAMPBELL AVE 1 1", 
    "YEAR": 2011, 
    "LONGITUDE": -87.689424255, 
    "LATTITUDE": 41.921093039
  }, 
  {
    "BUSINESS_TYPE": "Expediter - Class A", 
    "LEGAL_NAME": "CITY CONSULTANTS, INC.", 
    "STATE": "IL", 
    "DOING_BUSINESS_AS_NAME": "CITY CONSULTANTS", 
    "POP_AT_RISK": 26675, 
    "ZIP": 60634, 
    "ADDRESS": "6441 W WARNER AVE  211", 
    "YEAR": 2011, 
    "LONGITUDE": -87.788169809, 
    "LATTITUDE": 41.956196542
  }, 
  {
    "BUSINESS_TYPE": "Expediter - Class A", 
    "LEGAL_NAME": "OMEGA PERMIT, LTD.", 
    "STATE": "IL", 
    "DOING_BUSINESS_AS_NAME": "OMEGA PERMIT, LTD.", 
    "POP_AT_RISK": 59085, 
    "ZIP": 60641, 
    "ADDRESS": "4549 W BELMONT AVE 1", 
    "YEAR": 2011, 
    "LONGITUDE": -87.741390522, 
    "LATTITUDE": 41.938791923
  }, 
  {
    "BUSINESS_TYPE": "Expediter - Class A", 
    "LEGAL_NAME": "BRW CONTRACTORS, LLC.", 
    "STATE": "IL", 
    "DOING_BUSINESS_AS_NAME": "BRW CONTRACTORS, LLC.", 
    "POP_AT_RISK": 61233, 
    "ZIP": 60610, 
    "ADDRESS": "1550 N CLARK ST 2ND", 
    "YEAR": 2011, 
    "LONGITUDE": -87.631812013, 
    "LATTITUDE": 41.91093885
  }, 
  {
    "BUSINESS_TYPE": "Expediter - Class A", 
    "LEGAL_NAME": "DARA CONSTRUCTION CO., INC.", 
    "STATE": "IL", 
    "DOING_BUSINESS_AS_NAME": "DARA CONSULTING", 
    "POP_AT_RISK": 60629, 
    "ZIP": 60614, 
    "ADDRESS": "1357 W FULLERTON AVE 1ST 1 F", 
    "YEAR": 2011, 
    "LONGITUDE": -87.662791835, 
    "LATTITUDE": 41.925115775
  }, 
  {
    "BUSINESS_TYPE": "Expediter - Class A", 
    "LEGAL_NAME": "CHICAGO DESIGN LLC", 
    "STATE": "IL", 
    "DOING_BUSINESS_AS_NAME": "CHICAGO DESIGN LLC", 
    "POP_AT_RISK": 72391, 
    "ZIP": 60647, 
    "ADDRESS": "2417 N CALIFORNIA AVE 1ST", 
    "YEAR": 2011, 
    "LONGITUDE": -87.697280952, 
    "LATTITUDE": 41.925352876
  }, 
  {
    "BUSINESS_TYPE": "Expediter - Class A", 
    "LEGAL_NAME": "UJAMAA VENTURES MANAGEMENT LLC", 
    "STATE": "IL", 
    "DOING_BUSINESS_AS_NAME": "ACCURATESITES", 
    "POP_AT_RISK": 31945, 
    "ZIP": 60619, 
    "ADDRESS": "7240 S DR MARTIN LUTHER KING JR DR 1 B", 
    "YEAR": 2011, 
    "LONGITUDE": -87.615366279, 
    "LATTITUDE": 41.762658263
  }, 
  {
    "BUSINESS_TYPE": "Expediter - Class A", 
    "LEGAL_NAME": "IPERMIT CONSULTING, INC.", 
    "STATE": "IL", 
    "DOING_BUSINESS_AS_NAME": "IPERMIT CONSULTING, INC.", 
    "POP_AT_RISK": 28017, 
    "ZIP": 60612, 
    "ADDRESS": "2507 W HARRISON ST 1 1", 
    "YEAR": 2011, 
    "LONGITUDE": -87.68895176, 
    "LATTITUDE": 41.873752322
  }, 
  {
    "BUSINESS_TYPE": "Expediter - Class A", 
    "LEGAL_NAME": "INDELIBLE IMPRESSIONS CONSTRUCTION, INC.", 
    "STATE": "IL", 
    "DOING_BUSINESS_AS_NAME": "INDELIBLE IMPRESSIONS CONSTRUCTION, INC.", 
    "POP_AT_RISK": 38801, 
    "ZIP": 60636, 
    "ADDRESS": "5621 S ASHLAND AVE 1ST", 
    "YEAR": 2011, 
    "LONGITUDE": -87.664374418, 
    "LATTITUDE": 41.791553561
  }, 
  {
    "BUSINESS_TYPE": "Expediter - Class A", 
    "LEGAL_NAME": "CONTRACTOR'S FINANCE CENTRAL MANAGEMENT, INC.", 
    "STATE": "IL", 
    "DOING_BUSINESS_AS_NAME": "CONTRACTOR' S FINANCE CENTRAL MGMT EXPEDITING", 
    "POP_AT_RISK": 37499, 
    "ZIP": 60621, 
    "ADDRESS": "7141 S PRINCETON AVE 2ND", 
    "YEAR": 2011, 
    "LONGITUDE": -87.632035296, 
    "LATTITUDE": 41.764174833
  }, 
  {
    "BUSINESS_TYPE": "Expediter - Class A", 
    "LEGAL_NAME": "TAXPOL BELMONT CORP.", 
    "STATE": "IL", 
    "DOING_BUSINESS_AS_NAME": "TAXPOL BELMONT CORP.", 
    "POP_AT_RISK": 78711, 
    "ZIP": 60641, 
    "ADDRESS": "5421 W BELMONT AVE 1", 
    "YEAR": 2011, 
    "LONGITUDE": -87.762442942, 
    "LATTITUDE": 41.93851879
  }, 
  {
    "BUSINESS_TYPE": "Expediter - Class A", 
    "LEGAL_NAME": "CHICAGO PERMIT SERVICES LTD.", 
    "STATE": "IL", 
    "DOING_BUSINESS_AS_NAME": "PRIMO PROS INC.", 
    "POP_AT_RISK": 51611, 
    "ZIP": 60641, 
    "ADDRESS": "4425 W MONTROSE AVE 1 8", 
    "YEAR": 2011, 
    "LONGITUDE": -87.739569354, 
    "LATTITUDE": 41.960704655
  }, 
  {
    "BUSINESS_TYPE": "Expediter - Class A", 
    "LEGAL_NAME": "CYNTHIA INCH INC.", 
    "STATE": "IL", 
    "DOING_BUSINESS_AS_NAME": "CYNTHIA INCH INC.", 
    "POP_AT_RISK": 71895, 
    "ZIP": 60611, 
    "ADDRESS": "405 N WABASH AVE  707", 
    "YEAR": 2011, 
    "LONGITUDE": -87.626509274, 
    "LATTITUDE": 41.889465329
  }, 
  {
    "BUSINESS_TYPE": "Expediter - Class A", 
    "LEGAL_NAME": "EXPEDITERS EXPRESS, INC.", 
    "STATE": "IL", 
    "DOING_BUSINESS_AS_NAME": "EXPEDITERS EXPRESS", 
    "POP_AT_RISK": 22202, 
    "ZIP": 60638, 
    "ADDRESS": "5640 W 63RD ST 1", 
    "YEAR": 2011, 
    "LONGITUDE": -87.763349641, 
    "LATTITUDE": 41.778129652
  }, 
  {
    "BUSINESS_TYPE": "Expediter - Class A", 
    "LEGAL_NAME": "KING DAVID MINES INC.", 
    "STATE": "IL", 
    "DOING_BUSINESS_AS_NAME": "KING DAVID CONSULTING", 
    "POP_AT_RISK": 14808, 
    "ZIP": 60707, 
    "ADDRESS": "1925 N HARLEM AVE  104", 
    "YEAR": 2011, 
    "LONGITUDE": -87.805826212, 
    "LATTITUDE": 41.915135754
  }, 
  {
    "BUSINESS_TYPE": "Expediter - Class A", 
    "LEGAL_NAME": "VIOLETAS PERMIT & BUSINESS LICENSE L.L.C.", 
    "STATE": "IL", 
    "DOING_BUSINESS_AS_NAME": "VIOLETAS PERMIT & BUSINESS LICENSE L.L.C.", 
    "POP_AT_RISK": 61074, 
    "ZIP": 60623, 
    "ADDRESS": "3052 W CERMAK RD 1ST", 
    "YEAR": 2011, 
    "LONGITUDE": -87.702457829, 
    "LATTITUDE": 41.85191341
  }, 
  {
    "BUSINESS_TYPE": "Expediter - Class A", 
    "LEGAL_NAME": "CHICAGO EXPEDITING SERVICES INC", 
    "STATE": "IL", 
    "DOING_BUSINESS_AS_NAME": "CHICAGO EXPEDITING SERVICES INC", 
    "POP_AT_RISK": 39264, 
    "ZIP": 60642, 
    "ADDRESS": "1481 W ERIE ST 2 2F", 
    "YEAR": 2011, 
    "LONGITUDE": -87.665494195, 
    "LATTITUDE": 41.893260154
  }, 
  {
    "BUSINESS_TYPE": "Expediter - Class A", 
    "LEGAL_NAME": "FMHC CORPORATION", 
    "STATE": "IL", 
    "DOING_BUSINESS_AS_NAME": "FMHC", 
    "POP_AT_RISK": 19154, 
    "ZIP": 60631, 
    "ADDRESS": "8600 W BRYN MAWR AVE 6 600NORTH", 
    "YEAR": 2011, 
    "LONGITUDE": -87.841638423, 
    "LATTITUDE": 41.981134545
  }, 
  {
    "BUSINESS_TYPE": "Expediter - Class A", 
    "LEGAL_NAME": "ESCRITORIO PUBLICO INC", 
    "STATE": "IL", 
    "DOING_BUSINESS_AS_NAME": "ESCRITORIO PUBLICO INC", 
    "POP_AT_RISK": 44998, 
    "ZIP": 60608, 
    "ADDRESS": "2202 W CERMAK RD 1", 
    "YEAR": 2011, 
    "LONGITUDE": -87.680886258, 
    "LATTITUDE": 41.852206451
  }, 
  {
    "BUSINESS_TYPE": "Expediter - Class A", 
    "LEGAL_NAME": "ONE ON ONE AGENT SERVICE CORP.", 
    "STATE": "IL", 
    "DOING_BUSINESS_AS_NAME": "CHINESE LANGUAGE SERVICES ASSOCIATES", 
    "POP_AT_RISK": 31209, 
    "ZIP": 60616, 
    "ADDRESS": "238 W CERMAK RD 3RD C-D", 
    "YEAR": 2011, 
    "LONGITUDE": -87.633607481, 
    "LATTITUDE": 41.852939607
  }, 
  {
    "BUSINESS_TYPE": "Expediter - Class A", 
    "LEGAL_NAME": "STERN GROUP CORPORATION", 
    "STATE": "IL", 
    "DOING_BUSINESS_AS_NAME": "STERN GROUP CORPORATION", 
    "POP_AT_RISK": 23071, 
    "ZIP": 60631, 
    "ADDRESS": "6041 N NAVARRE AVE 3", 
    "YEAR": 2011, 
    "LONGITUDE": -87.793921704, 
    "LATTITUDE": 41.990999784
  }, 
  {
    "BUSINESS_TYPE": "Expediter - Class A", 
    "LEGAL_NAME": "BASTE FINANCIAL SERVICES, INC.", 
    "STATE": "IL", 
    "DOING_BUSINESS_AS_NAME": "LIBERTY TAX SERVICE", 
    "POP_AT_RISK": 22077, 
    "ZIP": 60652, 
    "ADDRESS": "4651 W 79TH ST  105", 
    "YEAR": 2011, 
    "LONGITUDE": -87.738422847, 
    "LATTITUDE": 41.749088829
  }, 
  {
    "BUSINESS_TYPE": "Expediter - Class A", 
    "LEGAL_NAME": "VMR FINANCIAL STRATEGIES INC.", 
    "STATE": "IL", 
    "DOING_BUSINESS_AS_NAME": "VMR FINANCIAL STRATEGIES, INC.", 
    "POP_AT_RISK": 59649, 
    "ZIP": 60618, 
    "ADDRESS": "2947 W BELMONT AVE 1ST", 
    "YEAR": 2011, 
    "LONGITUDE": -87.702191089, 
    "LATTITUDE": 41.93925639
  }
]