[
  {
    "BUSINESS_TYPE": "Peddler, non-food, special", 
    "LEGAL_NAME": "KELLY CARTER", 
    "STATE": "IL", 
    "DOING_BUSINESS_AS_NAME": "KELLY CARTER", 
    "POP_AT_RISK": 25685, 
    "ZIP": 60621, 
    "ADDRESS": "6024 S UNION AVE", 
    "YEAR": 2014, 
    "LONGITUDE": -87.642617682, 
    "LATTITUDE": 41.784247694
  }, 
  {
    "BUSINESS_TYPE": "Peddler, non-food, special", 
    "LEGAL_NAME": "MARY JONES", 
    "STATE": "IL", 
    "DOING_BUSINESS_AS_NAME": "MARY JONES", 
    "POP_AT_RISK": 39128, 
    "ZIP": 60615, 
    "ADDRESS": "5325 S COTTAGE GROVE AVE  305", 
    "YEAR": 2014, 
    "LONGITUDE": -87.606154969, 
    "LATTITUDE": 41.797870809
  }, 
  {
    "BUSINESS_TYPE": "Peddler, non-food, special", 
    "LEGAL_NAME": "LARRY EMANUELL DIXON", 
    "STATE": "IL", 
    "DOING_BUSINESS_AS_NAME": "LARRY EMANUELL DIXON", 
    "POP_AT_RISK": 30156, 
    "ZIP": 60615, 
    "ADDRESS": "5328 S DR MARTIN LUTHER KING JR DR", 
    "YEAR": 2014, 
    "LONGITUDE": -87.616198944, 
    "LATTITUDE": 41.797582543
  }, 
  {
    "BUSINESS_TYPE": "Peddler, non-food, special", 
    "LEGAL_NAME": "ROSA ROGERS", 
    "STATE": "IL", 
    "DOING_BUSINESS_AS_NAME": "ROSA ROGERS", 
    "POP_AT_RISK": 34675, 
    "ZIP": 60628, 
    "ADDRESS": "11128 S EMERALD AVE", 
    "YEAR": 2014, 
    "LONGITUDE": -87.641287359, 
    "LATTITUDE": 41.691485216
  }, 
  {
    "BUSINESS_TYPE": "Peddler, non-food, special", 
    "LEGAL_NAME": "ELAINE SUTTON", 
    "STATE": "IL", 
    "DOING_BUSINESS_AS_NAME": "ELAINE SUTTON", 
    "POP_AT_RISK": 24078, 
    "ZIP": 60628, 
    "ADDRESS": "161 E 111TH ST", 
    "YEAR": 2014, 
    "LONGITUDE": -87.618552909, 
    "LATTITUDE": 41.692538389
  }, 
  {
    "BUSINESS_TYPE": "Peddler, non-food, special", 
    "LEGAL_NAME": "MARVIN R. COLLINS", 
    "STATE": "IL", 
    "DOING_BUSINESS_AS_NAME": "MARVIN R. COLLINS", 
    "POP_AT_RISK": 8945, 
    "ZIP": 60643, 
    "ADDRESS": "11718 S HALE AVE", 
    "YEAR": 2014, 
    "LONGITUDE": -87.673012275, 
    "LATTITUDE": 41.68036167
  }, 
  {
    "BUSINESS_TYPE": "Peddler, non-food, special", 
    "LEGAL_NAME": "RAYMOND BARANDA", 
    "STATE": "IL", 
    "DOING_BUSINESS_AS_NAME": "RAYMOND BARANDA", 
    "POP_AT_RISK": 58398, 
    "ZIP": 60659, 
    "ADDRESS": "2840 W HOLLYWOOD AVE 3RD 3 E", 
    "YEAR": 2014, 
    "LONGITUDE": -87.700827805, 
    "LATTITUDE": 41.985040598
  }, 
  {
    "BUSINESS_TYPE": "Peddler, non-food, special", 
    "LEGAL_NAME": "JAMES TYREE SLACK III", 
    "STATE": "IL", 
    "DOING_BUSINESS_AS_NAME": "JAMES TYREE SLACK III", 
    "POP_AT_RISK": 73909, 
    "ZIP": 60618, 
    "ADDRESS": "2825 N AVERS AVE", 
    "YEAR": 2014, 
    "LONGITUDE": -87.723161229, 
    "LATTITUDE": 41.93261151
  }, 
  {
    "BUSINESS_TYPE": "Peddler, non-food, special", 
    "LEGAL_NAME": "SHANNONE CLAIBORNE", 
    "STATE": "IL", 
    "DOING_BUSINESS_AS_NAME": "SHANNONE CLAIBORNE", 
    "POP_AT_RISK": 62087, 
    "ZIP": 60647, 
    "ADDRESS": "3401 W NORTH AVE", 
    "YEAR": 2014, 
    "LONGITUDE": -87.711949783, 
    "LATTITUDE": 41.909943335
  }, 
  {
    "BUSINESS_TYPE": "Peddler, non-food, special", 
    "LEGAL_NAME": "KENYATTA PHAJJA CHILEMBWE", 
    "STATE": "IL", 
    "DOING_BUSINESS_AS_NAME": "KENYATTA PHAJJA CHILEMBWE", 
    "POP_AT_RISK": 28949, 
    "ZIP": 60616, 
    "ADDRESS": "2710 S STATE ST 6TH 601", 
    "YEAR": 2014, 
    "LONGITUDE": -87.627070432, 
    "LATTITUDE": 41.844007892
  }, 
  {
    "BUSINESS_TYPE": "Peddler, non-food, special", 
    "LEGAL_NAME": "BOBBIE STEPHEN", 
    "STATE": "IL", 
    "DOING_BUSINESS_AS_NAME": "BOBBIE STEPHEN", 
    "POP_AT_RISK": 33032, 
    "ZIP": 60617, 
    "ADDRESS": "8620 S MANISTEE AVE 1 1", 
    "YEAR": 2014, 
    "LONGITUDE": -87.557672438, 
    "LATTITUDE": 41.738466157
  }, 
  {
    "BUSINESS_TYPE": "Peddler, non-food, special", 
    "LEGAL_NAME": "CARLOTA NERA GOODSON", 
    "STATE": "IL", 
    "DOING_BUSINESS_AS_NAME": "CARLOTA NERA GOODSON", 
    "POP_AT_RISK": 29612, 
    "ZIP": 60615, 
    "ADDRESS": "4940 S EAST END AVE 8 8F", 
    "YEAR": 2014, 
    "LONGITUDE": -87.585624555, 
    "LATTITUDE": 41.804923177
  }, 
  {
    "BUSINESS_TYPE": "Peddler, non-food, special", 
    "LEGAL_NAME": "DAVID CARPENTER", 
    "STATE": "IL", 
    "DOING_BUSINESS_AS_NAME": "DAVID CARPENTER", 
    "POP_AT_RISK": 51227, 
    "ZIP": 60609, 
    "ADDRESS": "5427 S SEELEY AVE", 
    "YEAR": 2014, 
    "LONGITUDE": -87.675400195, 
    "LATTITUDE": 41.794911236
  }, 
  {
    "BUSINESS_TYPE": "Peddler, non-food, special", 
    "LEGAL_NAME": "EDGAR LEE MASON", 
    "STATE": "IL", 
    "DOING_BUSINESS_AS_NAME": "EDGAR LEE MASON", 
    "POP_AT_RISK": 33300, 
    "ZIP": 60649, 
    "ADDRESS": "7439 S COLES AVE  A", 
    "YEAR": 2014, 
    "LONGITUDE": -87.559316602, 
    "LATTITUDE": 41.760786399
  }, 
  {
    "BUSINESS_TYPE": "Peddler, non-food, special", 
    "LEGAL_NAME": "GREGORY EARL BROOKS", 
    "STATE": "IL", 
    "DOING_BUSINESS_AS_NAME": "GREGORY EARL BROOKS", 
    "POP_AT_RISK": 32997, 
    "ZIP": 60619, 
    "ADDRESS": "1344 E 72ND PL 1 1", 
    "YEAR": 2014, 
    "LONGITUDE": -87.591565758, 
    "LATTITUDE": 41.763389997
  }, 
  {
    "BUSINESS_TYPE": "Peddler, non-food, special", 
    "LEGAL_NAME": "LEROY SMITH", 
    "STATE": "IL", 
    "DOING_BUSINESS_AS_NAME": "LEROY SMITH", 
    "POP_AT_RISK": 24321, 
    "ZIP": 60628, 
    "ADDRESS": "10055 S INDIANA AVE", 
    "YEAR": 2014, 
    "LONGITUDE": -87.618585519, 
    "LATTITUDE": 41.711088789
  }, 
  {
    "BUSINESS_TYPE": "Peddler, non-food, special", 
    "LEGAL_NAME": "RATKO IKIC", 
    "STATE": "IL", 
    "DOING_BUSINESS_AS_NAME": "RATKO IKIC", 
    "POP_AT_RISK": 68274, 
    "ZIP": 60618, 
    "ADDRESS": "3142 W IRVING PARK RD 2", 
    "YEAR": 2014, 
    "LONGITUDE": -87.707327581, 
    "LATTITUDE": 41.954034304
  }, 
  {
    "BUSINESS_TYPE": "Peddler, non-food, special", 
    "LEGAL_NAME": "FRANK L. JOHNSON", 
    "STATE": "IL", 
    "DOING_BUSINESS_AS_NAME": "FRANK L. JOHNSON", 
    "POP_AT_RISK": 33829, 
    "ZIP": 60616, 
    "ADDRESS": "2910 S DEARBORN ST  702", 
    "YEAR": 2014, 
    "LONGITUDE": -87.628092569, 
    "LATTITUDE": 41.841819339
  }, 
  {
    "BUSINESS_TYPE": "Peddler, non-food, special", 
    "LEGAL_NAME": "GENEVA GLASPER", 
    "STATE": "IL", 
    "DOING_BUSINESS_AS_NAME": "GENEVA GLASPER", 
    "POP_AT_RISK": 27303, 
    "ZIP": 60620, 
    "ADDRESS": "9149 S WALLACE ST", 
    "YEAR": 2014, 
    "LONGITUDE": -87.638370838, 
    "LATTITUDE": 41.727384321
  }, 
  {
    "BUSINESS_TYPE": "Peddler, non-food, special", 
    "LEGAL_NAME": "WADGENE I BROWN", 
    "STATE": "IL", 
    "DOING_BUSINESS_AS_NAME": "WADGENE I BROWN", 
    "POP_AT_RISK": 22945, 
    "ZIP": 60612, 
    "ADDRESS": "2010 W JACKSON BLVD", 
    "YEAR": 2014, 
    "LONGITUDE": -87.677031885, 
    "LATTITUDE": 41.877593532
  }, 
  {
    "BUSINESS_TYPE": "Peddler, non-food, special", 
    "LEGAL_NAME": "NAOMI G DIAZ", 
    "STATE": "IL", 
    "DOING_BUSINESS_AS_NAME": "NAOMI G DIAZ", 
    "POP_AT_RISK": 67896, 
    "ZIP": 60640, 
    "ADDRESS": "4750 N SHERIDAN RD", 
    "YEAR": 2014, 
    "LONGITUDE": -87.654963263, 
    "LATTITUDE": 41.96875259
  }, 
  {
    "BUSINESS_TYPE": "Peddler, non-food, special", 
    "LEGAL_NAME": "ROBERT FRANKLIN ROBINSON SR", 
    "STATE": "IL", 
    "DOING_BUSINESS_AS_NAME": "ROBERT FRANKLIN ROBINSON SR", 
    "POP_AT_RISK": 32160, 
    "ZIP": 60617, 
    "ADDRESS": "8521 S ESCANABA AVE 1 1", 
    "YEAR": 2014, 
    "LONGITUDE": -87.553767826, 
    "LATTITUDE": 41.740334102
  }, 
  {
    "BUSINESS_TYPE": "Peddler, non-food, special", 
    "LEGAL_NAME": "KEVIN ONEAL", 
    "STATE": "IL", 
    "DOING_BUSINESS_AS_NAME": "KEVIN ONEAL", 
    "POP_AT_RISK": 41057, 
    "ZIP": 60624, 
    "ADDRESS": "523 N SAWYER AVE", 
    "YEAR": 2014, 
    "LONGITUDE": -87.707493289, 
    "LATTITUDE": 41.89103102
  }, 
  {
    "BUSINESS_TYPE": "Peddler, non-food, special", 
    "LEGAL_NAME": "LAVAUGHN R. HART", 
    "STATE": "IL", 
    "DOING_BUSINESS_AS_NAME": "LAVAUGHN R. HART", 
    "POP_AT_RISK": 39491, 
    "ZIP": 60605, 
    "ADDRESS": "1231 S STATE ST", 
    "YEAR": 2014, 
    "LONGITUDE": -87.62724749, 
    "LATTITUDE": 41.86655821
  }, 
  {
    "BUSINESS_TYPE": "Peddler, non-food, special", 
    "LEGAL_NAME": "ISAIAH MCCLELLAN", 
    "STATE": "IL", 
    "DOING_BUSINESS_AS_NAME": "ISAIAH MCCLELLAN", 
    "POP_AT_RISK": 46022, 
    "ZIP": 60651, 
    "ADDRESS": "5331 W HIRSCH ST 1 2W", 
    "YEAR": 2014, 
    "LONGITUDE": -87.759668972, 
    "LATTITUDE": 41.905718954
  }, 
  {
    "BUSINESS_TYPE": "Peddler, non-food, special", 
    "LEGAL_NAME": "MARY CARTER", 
    "STATE": "IL", 
    "DOING_BUSINESS_AS_NAME": "MARY CARTER", 
    "POP_AT_RISK": 30220, 
    "ZIP": 60612, 
    "ADDRESS": "2449 W ADAMS ST", 
    "YEAR": 2014, 
    "LONGITUDE": -87.688277179, 
    "LATTITUDE": 41.87833478
  }, 
  {
    "BUSINESS_TYPE": "Peddler, non-food, special", 
    "LEGAL_NAME": "ALVIN LOUIS SPARROW", 
    "STATE": "IL", 
    "DOING_BUSINESS_AS_NAME": "ALVIN LOUIS SPARROW", 
    "POP_AT_RISK": 38848, 
    "ZIP": 60620, 
    "ADDRESS": "8359 S PAULINA ST", 
    "YEAR": 2014, 
    "LONGITUDE": -87.665491348, 
    "LATTITUDE": 41.741311664
  }, 
  {
    "BUSINESS_TYPE": "Peddler, non-food, special", 
    "LEGAL_NAME": "RAMON MORA", 
    "STATE": "IL", 
    "DOING_BUSINESS_AS_NAME": "MODA URBANA", 
    "POP_AT_RISK": 77239, 
    "ZIP": 60629, 
    "ADDRESS": "5914 S KEDZIE AVE", 
    "YEAR": 2014, 
    "LONGITUDE": -87.703483041, 
    "LATTITUDE": 41.785771865
  }, 
  {
    "BUSINESS_TYPE": "Peddler, non-food, special", 
    "LEGAL_NAME": "HENSE D WITHERSPOON", 
    "STATE": "IL", 
    "DOING_BUSINESS_AS_NAME": "HENSE D WITHERSPOON", 
    "POP_AT_RISK": 35922, 
    "ZIP": 60637, 
    "ADDRESS": "6224 S MICHIGAN AVE", 
    "YEAR": 2014, 
    "LONGITUDE": -87.622372153, 
    "LATTITUDE": 41.781154097
  }, 
  {
    "BUSINESS_TYPE": "Peddler, non-food, special", 
    "LEGAL_NAME": "ANNIE B MCWILLIAMS", 
    "STATE": "IL", 
    "DOING_BUSINESS_AS_NAME": "ANNIE B MCWILLIAMS", 
    "POP_AT_RISK": 37887, 
    "ZIP": 60617, 
    "ADDRESS": "7947 S MERRILL AVE 2ND", 
    "YEAR": 2014, 
    "LONGITUDE": -87.572152421, 
    "LATTITUDE": 41.75026661
  }, 
  {
    "BUSINESS_TYPE": "Peddler, non-food, special", 
    "LEGAL_NAME": "WILLIAM DANIEL", 
    "STATE": "IL", 
    "DOING_BUSINESS_AS_NAME": "WILLIAM DANIEL", 
    "POP_AT_RISK": 52055, 
    "ZIP": 60623, 
    "ADDRESS": "1648 S SPRINGFIELD AVE", 
    "YEAR": 2014, 
    "LONGITUDE": -87.722566956, 
    "LATTITUDE": 41.857445891
  }, 
  {
    "BUSINESS_TYPE": "Peddler, non-food, special", 
    "LEGAL_NAME": "DON E. SHEPARD", 
    "STATE": "IL", 
    "DOING_BUSINESS_AS_NAME": "DON E SHEPARD", 
    "POP_AT_RISK": 44403, 
    "ZIP": 60615, 
    "ADDRESS": "4832 S DREXEL BLVD", 
    "YEAR": 2014, 
    "LONGITUDE": -87.60446148, 
    "LATTITUDE": 41.80674333
  }, 
  {
    "BUSINESS_TYPE": "Peddler, non-food, special", 
    "LEGAL_NAME": "EDWARD REID", 
    "STATE": "IL", 
    "DOING_BUSINESS_AS_NAME": "EDWARD REID", 
    "POP_AT_RISK": 25772, 
    "ZIP": 60629, 
    "ADDRESS": "7230 S SACRAMENTO AVE", 
    "YEAR": 2014, 
    "LONGITUDE": -87.69799053, 
    "LATTITUDE": 41.76169396
  }, 
  {
    "BUSINESS_TYPE": "Peddler, non-food, special", 
    "LEGAL_NAME": "FELIPE M CRUZ", 
    "STATE": "IL", 
    "DOING_BUSINESS_AS_NAME": "FELIPE M CRUZ", 
    "POP_AT_RISK": 46271, 
    "ZIP": 60632, 
    "ADDRESS": "5145 S FAIRFIELD AVE", 
    "YEAR": 2014, 
    "LONGITUDE": -87.692595696, 
    "LATTITUDE": 41.799674046
  }, 
  {
    "BUSINESS_TYPE": "Peddler, non-food, special", 
    "LEGAL_NAME": "ARTHUR L. PARKER", 
    "STATE": "IL", 
    "DOING_BUSINESS_AS_NAME": "ARTHUR L. PARKER", 
    "POP_AT_RISK": 15306, 
    "ZIP": 60652, 
    "ADDRESS": "2627 W SEIPP ST", 
    "YEAR": 2014, 
    "LONGITUDE": -87.688691721, 
    "LATTITUDE": 41.737696372
  }, 
  {
    "BUSINESS_TYPE": "Peddler, non-food, special", 
    "LEGAL_NAME": "CAROLYN ANN SELF-EDWARDS", 
    "STATE": "IL", 
    "DOING_BUSINESS_AS_NAME": "CAROLYN ANN SELF-EDWARDS", 
    "POP_AT_RISK": 37676, 
    "ZIP": 60619, 
    "ADDRESS": "7739 S DR MARTIN LUTHER KING JR DR", 
    "YEAR": 2014, 
    "LONGITUDE": -87.614867055, 
    "LATTITUDE": 41.753599836
  }, 
  {
    "BUSINESS_TYPE": "Peddler, non-food, special", 
    "LEGAL_NAME": "ALEXANDRA D MCMULLAN", 
    "STATE": "IL", 
    "DOING_BUSINESS_AS_NAME": "ALEXANDRA D MCMULLAN", 
    "POP_AT_RISK": 34956, 
    "ZIP": 60637, 
    "ADDRESS": "6500 S RHODES AVE", 
    "YEAR": 2014, 
    "LONGITUDE": -87.612083193, 
    "LATTITUDE": 41.776578059
  }, 
  {
    "BUSINESS_TYPE": "Peddler, non-food, special", 
    "LEGAL_NAME": "DAVID FARUQ", 
    "STATE": "IL", 
    "DOING_BUSINESS_AS_NAME": "DAVID FARUQ", 
    "POP_AT_RISK": 43877, 
    "ZIP": 60620, 
    "ADDRESS": "8736 S MAY ST", 
    "YEAR": 2014, 
    "LONGITUDE": -87.65224181, 
    "LATTITUDE": 41.734802568
  }, 
  {
    "BUSINESS_TYPE": "Peddler, non-food, special", 
    "LEGAL_NAME": "BOBBY LEE JESTER", 
    "STATE": "IL", 
    "DOING_BUSINESS_AS_NAME": "BOBBY LEE JESTER", 
    "POP_AT_RISK": 79339, 
    "ZIP": 60610, 
    "ADDRESS": "116 W ELM ST", 
    "YEAR": 2014, 
    "LONGITUDE": -87.632205824, 
    "LATTITUDE": 41.903236175
  }, 
  {
    "BUSINESS_TYPE": "Peddler, non-food, special", 
    "LEGAL_NAME": "MAURA DIAZ", 
    "STATE": "IL", 
    "DOING_BUSINESS_AS_NAME": "MAURA DIAZ", 
    "POP_AT_RISK": 70840, 
    "ZIP": 60625, 
    "ADDRESS": "4616 N ST LOUIS AVE", 
    "YEAR": 2014, 
    "LONGITUDE": -87.715861573, 
    "LATTITUDE": 41.965262196
  }, 
  {
    "BUSINESS_TYPE": "Peddler, non-food, special", 
    "LEGAL_NAME": "TROY J LOSKE", 
    "STATE": "IL", 
    "DOING_BUSINESS_AS_NAME": "TROY J LOSKE", 
    "POP_AT_RISK": 79257, 
    "ZIP": 60654, 
    "ADDRESS": "300 N STATE ST", 
    "YEAR": 2014, 
    "LONGITUDE": -87.628153065, 
    "LATTITUDE": 41.887557873
  }
]