[
  {
    "BUSINESS_TYPE": "Residential Real Estate Developer", 
    "LEGAL_NAME": "BARRON DEVELOPMENT LLC", 
    "STATE": "IL", 
    "DOING_BUSINESS_AS_NAME": "BARRON DEVELOPMENT LLC", 
    "POP_AT_RISK": 25747, 
    "ZIP": 60644, 
    "ADDRESS": "5000 W ROOSEVELT RD  101", 
    "YEAR": 2009, 
    "LONGITUDE": -87.749703926, 
    "LATTITUDE": 41.86593374
  }, 
  {
    "BUSINESS_TYPE": "Residential Real Estate Developer", 
    "LEGAL_NAME": "AABY BUILDERS, INC.", 
    "STATE": "IL", 
    "DOING_BUSINESS_AS_NAME": "AABY BUILDERS, INC.", 
    "POP_AT_RISK": 31060, 
    "ZIP": 60631, 
    "ADDRESS": "5801 N NORTHWEST HWY", 
    "YEAR": 2009, 
    "LONGITUDE": -87.789381432, 
    "LATTITUDE": 41.987033227
  }, 
  {
    "BUSINESS_TYPE": "Residential Real Estate Developer", 
    "LEGAL_NAME": "WADE ENTERPRISE & ASSOCIATES INC.", 
    "STATE": "IL", 
    "DOING_BUSINESS_AS_NAME": "WADE ENTERPRISE & ASSOCS INC", 
    "POP_AT_RISK": 32623, 
    "ZIP": 60617, 
    "ADDRESS": "8550 S STONY ISLAND AVE", 
    "YEAR": 2009, 
    "LONGITUDE": -87.58584066, 
    "LATTITUDE": 41.739027185
  }, 
  {
    "BUSINESS_TYPE": "Residential Real Estate Developer", 
    "LEGAL_NAME": "CLARETIAN ASSOCIATES, INC.", 
    "STATE": "IL", 
    "DOING_BUSINESS_AS_NAME": "CLARETIAN ASSOCIATES", 
    "POP_AT_RISK": 17702, 
    "ZIP": 60617, 
    "ADDRESS": "9108 S BRANDON AVE 1", 
    "YEAR": 2009, 
    "LONGITUDE": -87.547069977, 
    "LATTITUDE": 41.729803342
  }, 
  {
    "BUSINESS_TYPE": "Residential Real Estate Developer", 
    "LEGAL_NAME": "LUSTER AND BERNICE LOCKHART", 
    "STATE": "IL", 
    "DOING_BUSINESS_AS_NAME": "B. L. BLOCK CONSTRUCTION AND DEVELOPMENT CORP.", 
    "POP_AT_RISK": 25250, 
    "ZIP": 60628, 
    "ADDRESS": "10948 S EMERALD AVE", 
    "YEAR": 2009, 
    "LONGITUDE": -87.64138277, 
    "LATTITUDE": 41.694562275
  }, 
  {
    "BUSINESS_TYPE": "Residential Real Estate Developer", 
    "LEGAL_NAME": "A & SL CONSTRUCTION, INC.", 
    "STATE": "IL", 
    "DOING_BUSINESS_AS_NAME": "A & SL CONSTRUCTION, INC.", 
    "POP_AT_RISK": 30725, 
    "ZIP": 60638, 
    "ADDRESS": "5611 S NASHVILLE AVE", 
    "YEAR": 2009, 
    "LONGITUDE": -87.786463233, 
    "LATTITUDE": 41.790057645
  }, 
  {
    "BUSINESS_TYPE": "Residential Real Estate Developer", 
    "LEGAL_NAME": "HARBOR 4000 EAST, LLC", 
    "STATE": "IL", 
    "DOING_BUSINESS_AS_NAME": "HARBOUR POINT ESTATES", 
    "POP_AT_RISK": 6628, 
    "ZIP": 60633, 
    "ADDRESS": "4000 E 134TH ST 1ST 1ST", 
    "YEAR": 2009, 
    "LONGITUDE": -87.527491945, 
    "LATTITUDE": 41.65170129
  }, 
  {
    "BUSINESS_TYPE": "Residential Real Estate Developer", 
    "LEGAL_NAME": "ST. EDMUND'S REDEVELOPMENT CORPORATION", 
    "STATE": "IL", 
    "DOING_BUSINESS_AS_NAME": "ST EDMUND'S REDEVELOPMENT CORPORATION", 
    "POP_AT_RISK": 33731, 
    "ZIP": 60637, 
    "ADDRESS": "6105 S MICHIGAN AVE LOWER LEVEL", 
    "YEAR": 2009, 
    "LONGITUDE": -87.622031235, 
    "LATTITUDE": 41.783594587
  }, 
  {
    "BUSINESS_TYPE": "Residential Real Estate Developer", 
    "LEGAL_NAME": "NHS REDEVELOPMENT CORPORATION", 
    "STATE": "IL", 
    "DOING_BUSINESS_AS_NAME": "NHS NEIGHBORHOOD HOUSING SERVICE ROSELAND", 
    "POP_AT_RISK": 31036, 
    "ZIP": 60628, 
    "ADDRESS": "11001 S MICHIGAN AVE", 
    "YEAR": 2009, 
    "LONGITUDE": -87.620645364, 
    "LATTITUDE": 41.694397881
  }, 
  {
    "BUSINESS_TYPE": "Residential Real Estate Developer", 
    "LEGAL_NAME": "THE TEEJ GROUP, INCORPORATED", 
    "STATE": "IL", 
    "DOING_BUSINESS_AS_NAME": "THE TEEJ GROUP, INCORPORATED", 
    "POP_AT_RISK": 35442, 
    "ZIP": 60637, 
    "ADDRESS": "7000 S SOUTH CHICAGO AVE", 
    "YEAR": 2009, 
    "LONGITUDE": -87.608573155, 
    "LATTITUDE": 41.76785686
  }, 
  {
    "BUSINESS_TYPE": "Residential Real Estate Developer", 
    "LEGAL_NAME": "GALVIN B & B CORPORATION", 
    "STATE": "IL", 
    "DOING_BUSINESS_AS_NAME": "GALVIN B & B CORPORATION", 
    "POP_AT_RISK": 25573, 
    "ZIP": 60628, 
    "ADDRESS": "10400 S CALUMET AVE  HSE", 
    "YEAR": 2009, 
    "LONGITUDE": -87.615082406, 
    "LATTITUDE": 41.705377094
  }, 
  {
    "BUSINESS_TYPE": "Residential Real Estate Developer", 
    "LEGAL_NAME": "WINDY CITY DEVELOPERS INCORPORATED", 
    "STATE": "IL", 
    "DOING_BUSINESS_AS_NAME": "WINDY CITY DEVELOPERS INCORPORATED", 
    "POP_AT_RISK": 25020, 
    "ZIP": 60655, 
    "ADDRESS": "3400 W 111TH ST", 
    "YEAR": 2009, 
    "LONGITUDE": -87.705802013, 
    "LATTITUDE": 41.691601539
  }, 
  {
    "BUSINESS_TYPE": "Residential Real Estate Developer", 
    "LEGAL_NAME": "STINNETTE & BROWN, LLC", 
    "STATE": "IL", 
    "DOING_BUSINESS_AS_NAME": "STINNETTE & BROWN", 
    "POP_AT_RISK": 31621, 
    "ZIP": 60619, 
    "ADDRESS": "1133 E 83RD ST 1ST 186", 
    "YEAR": 2009, 
    "LONGITUDE": -87.596398555, 
    "LATTITUDE": 41.743962584
  }, 
  {
    "BUSINESS_TYPE": "Residential Real Estate Developer", 
    "LEGAL_NAME": "S BUILDING SERVICES, INC.", 
    "STATE": "IL", 
    "DOING_BUSINESS_AS_NAME": "S BUILDING SERVICES", 
    "POP_AT_RISK": 38049, 
    "ZIP": 60629, 
    "ADDRESS": "3145 W 71ST ST 1", 
    "YEAR": 2009, 
    "LONGITUDE": -87.702157944, 
    "LATTITUDE": 41.764288242
  }, 
  {
    "BUSINESS_TYPE": "Residential Real Estate Developer", 
    "LEGAL_NAME": "PARAMOUNT GROUP, L.L.C.", 
    "STATE": "IL", 
    "DOING_BUSINESS_AS_NAME": "PARAMOUNT GROUP, L.L.C", 
    "POP_AT_RISK": 39210, 
    "ZIP": 60649, 
    "ADDRESS": "6901 S STONY ISLAND AVE", 
    "YEAR": 2009, 
    "LONGITUDE": -87.585797216, 
    "LATTITUDE": 41.769657782
  }, 
  {
    "BUSINESS_TYPE": "Residential Real Estate Developer", 
    "LEGAL_NAME": "ANDREW PLATA", 
    "STATE": "IL", 
    "DOING_BUSINESS_AS_NAME": "ANDREW PLATA", 
    "POP_AT_RISK": 51282, 
    "ZIP": 60639, 
    "ADDRESS": "5836 W GRAND AVE 1ST FL", 
    "YEAR": 2009, 
    "LONGITUDE": -87.772109402, 
    "LATTITUDE": 41.920029651
  }, 
  {
    "BUSINESS_TYPE": "Residential Real Estate Developer", 
    "LEGAL_NAME": "3517 SOUTH HALSTED PROPERTIES, INC.", 
    "STATE": "IL", 
    "DOING_BUSINESS_AS_NAME": "3517 SOUTH HALSTED PROPERTIES, INC.", 
    "POP_AT_RISK": 29932, 
    "ZIP": 60609, 
    "ADDRESS": "3723 S LOWE AVE 1 B", 
    "YEAR": 2009, 
    "LONGITUDE": -87.642196923, 
    "LATTITUDE": 41.826438711
  }, 
  {
    "BUSINESS_TYPE": "Residential Real Estate Developer", 
    "LEGAL_NAME": "ONSITE BUILDERS, INC.", 
    "STATE": "IL", 
    "DOING_BUSINESS_AS_NAME": "ONSITE BUILDERS,INC", 
    "POP_AT_RISK": 62719, 
    "ZIP": 60639, 
    "ADDRESS": "4954 W ALTGELD ST", 
    "YEAR": 2009, 
    "LONGITUDE": -87.751020988, 
    "LATTITUDE": 41.926143955
  }, 
  {
    "BUSINESS_TYPE": "Residential Real Estate Developer", 
    "LEGAL_NAME": "THE ALEKSANDAR DEVELOPMENT, INCORPORATED", 
    "STATE": "IL", 
    "DOING_BUSINESS_AS_NAME": "THE ALEKSANDAR DEVELOPMENT, INCORPORATED", 
    "POP_AT_RISK": 34344, 
    "ZIP": 60609, 
    "ADDRESS": "832 W 36TH ST 1ST", 
    "YEAR": 2009, 
    "LONGITUDE": -87.647440172, 
    "LATTITUDE": 41.828765728
  }, 
  {
    "BUSINESS_TYPE": "Residential Real Estate Developer", 
    "LEGAL_NAME": "THE NUNEZ COMPANY, LLC", 
    "STATE": "IL", 
    "DOING_BUSINESS_AS_NAME": "THE NUNEZ COMPANY, LLC", 
    "POP_AT_RISK": 28225, 
    "ZIP": 60707, 
    "ADDRESS": "3059 N OSCEOLA AVE", 
    "YEAR": 2009, 
    "LONGITUDE": -87.812642086, 
    "LATTITUDE": 41.936128213
  }, 
  {
    "BUSINESS_TYPE": "Residential Real Estate Developer", 
    "LEGAL_NAME": "PRIMESTOR 119, LLC", 
    "STATE": "IL", 
    "DOING_BUSINESS_AS_NAME": "PRIMESTOR 119, LLC", 
    "POP_AT_RISK": 16113, 
    "ZIP": 60643, 
    "ADDRESS": "1700 W 119TH ST 1ST", 
    "YEAR": 2009, 
    "LONGITUDE": -87.664196313, 
    "LATTITUDE": 41.677596059
  }, 
  {
    "BUSINESS_TYPE": "Residential Real Estate Developer", 
    "LEGAL_NAME": "SATURN CONSTRUCTION, INC.", 
    "STATE": "IL", 
    "DOING_BUSINESS_AS_NAME": "SATURN CONSTRUCTION, INC.", 
    "POP_AT_RISK": 36467, 
    "ZIP": 60634, 
    "ADDRESS": "6548 W ROSCOE ST", 
    "YEAR": 2009, 
    "LONGITUDE": -87.790435075, 
    "LATTITUDE": 41.942021374
  }, 
  {
    "BUSINESS_TYPE": "Residential Real Estate Developer", 
    "LEGAL_NAME": "BETTY J. BROWN", 
    "STATE": "IL", 
    "DOING_BUSINESS_AS_NAME": "IMRI REALTY", 
    "POP_AT_RISK": 19126, 
    "ZIP": 60617, 
    "ADDRESS": "9219 S MERRILL AVE 1ST", 
    "YEAR": 2009, 
    "LONGITUDE": -87.57168641, 
    "LATTITUDE": 41.727388208
  }, 
  {
    "BUSINESS_TYPE": "Residential Real Estate Developer", 
    "LEGAL_NAME": "GREATER AUBURN-GRESHAM DEVELOPMENT CORPORATION", 
    "STATE": "IL", 
    "DOING_BUSINESS_AS_NAME": "GREATER AUBURN-GRESHAM DEVELOPMENT CORPORATION", 
    "POP_AT_RISK": 42826, 
    "ZIP": 60620, 
    "ADDRESS": "1159 W 79TH ST 1", 
    "YEAR": 2009, 
    "LONGITUDE": -87.653675057, 
    "LATTITUDE": 41.750388046
  }, 
  {
    "BUSINESS_TYPE": "Residential Real Estate Developer", 
    "LEGAL_NAME": "WDM WRIGHTS REALESTATE DEVELOPMENT & MANAGEMENT CORPORATION", 
    "STATE": "IL", 
    "DOING_BUSINESS_AS_NAME": "WDM WRIGHTS REALESTATE DEVELOPMENT & MANAGEMENT CORPORATION", 
    "POP_AT_RISK": 32696, 
    "ZIP": 60621, 
    "ADDRESS": "6800 S LOWE AVE 1ST", 
    "YEAR": 2009, 
    "LONGITUDE": -87.640396502, 
    "LATTITUDE": 41.770632709
  }, 
  {
    "BUSINESS_TYPE": "Residential Real Estate Developer", 
    "LEGAL_NAME": "PROGRESS CONSTRUCTION", 
    "STATE": "IL", 
    "DOING_BUSINESS_AS_NAME": "PROGRESS CONSTRUCTION", 
    "POP_AT_RISK": 49060, 
    "ZIP": 60609, 
    "ADDRESS": "2321 W 41ST ST", 
    "YEAR": 2009, 
    "LONGITUDE": -87.683232798, 
    "LATTITUDE": 41.819231415
  }, 
  {
    "BUSINESS_TYPE": "Residential Real Estate Developer", 
    "LEGAL_NAME": "Sustainable Realty Group LLC", 
    "STATE": "IL", 
    "DOING_BUSINESS_AS_NAME": "Sustainable Realty Group LLC", 
    "POP_AT_RISK": 44045, 
    "ZIP": 60632, 
    "ADDRESS": "4016 S CALIFORNIA AVE 1ST", 
    "YEAR": 2009, 
    "LONGITUDE": -87.69472664, 
    "LATTITUDE": 41.820419862
  }, 
  {
    "BUSINESS_TYPE": "Residential Real Estate Developer", 
    "LEGAL_NAME": "3FJ CONSTRUCTION COMPANY, INC.", 
    "STATE": "IL", 
    "DOING_BUSINESS_AS_NAME": "3FJ CONSTRUCTION COMPANY, INC.", 
    "POP_AT_RISK": 39404, 
    "ZIP": 60609, 
    "ADDRESS": "4801 S ASHLAND AVE", 
    "YEAR": 2009, 
    "LONGITUDE": -87.664771653, 
    "LATTITUDE": 41.806693924
  }, 
  {
    "BUSINESS_TYPE": "Residential Real Estate Developer", 
    "LEGAL_NAME": "FRANKLIN WILLIAMS", 
    "STATE": "IL", 
    "DOING_BUSINESS_AS_NAME": "FRANKLIN WILLIAMS ENTERPRISES", 
    "POP_AT_RISK": 32797, 
    "ZIP": 60636, 
    "ADDRESS": "1305 W 61ST ST", 
    "YEAR": 2009, 
    "LONGITUDE": -87.657364301, 
    "LATTITUDE": 41.783095866
  }, 
  {
    "BUSINESS_TYPE": "Residential Real Estate Developer", 
    "LEGAL_NAME": "MADINA DEVELOPMENT GROUP, INC.", 
    "STATE": "IL", 
    "DOING_BUSINESS_AS_NAME": "MADINA DEVELOPMENT GROUP, INC.", 
    "POP_AT_RISK": 35639, 
    "ZIP": 60608, 
    "ADDRESS": "2893 S ARCHER AVE", 
    "YEAR": 2009, 
    "LONGITUDE": -87.657316835, 
    "LATTITUDE": 41.841825317
  }, 
  {
    "BUSINESS_TYPE": "Residential Real Estate Developer", 
    "LEGAL_NAME": "EAST LAKE MANAGEMENT & DEVELOPMENT CORP.", 
    "STATE": "IL", 
    "DOING_BUSINESS_AS_NAME": "EASTLAKE MANAGEMENT", 
    "POP_AT_RISK": 30469, 
    "ZIP": 60616, 
    "ADDRESS": "2850 S MICHIGAN AVE", 
    "YEAR": 2009, 
    "LONGITUDE": -87.623693267, 
    "LATTITUDE": 41.842029055
  }, 
  {
    "BUSINESS_TYPE": "Residential Real Estate Developer", 
    "LEGAL_NAME": "TAYLOR MADE CONSTRUCTION, LLC", 
    "STATE": "IL", 
    "DOING_BUSINESS_AS_NAME": "TAYLOR MADE CONSTRUCTION", 
    "POP_AT_RISK": 23425, 
    "ZIP": 60652, 
    "ADDRESS": "3325 W 83RD PL 1ST", 
    "YEAR": 2009, 
    "LONGITUDE": -87.705631739, 
    "LATTITUDE": 41.741418289
  }, 
  {
    "BUSINESS_TYPE": "Residential Real Estate Developer", 
    "LEGAL_NAME": "E SOLIS GENERAL CONTRACTORS, INC.", 
    "STATE": "IL", 
    "DOING_BUSINESS_AS_NAME": "E SOLIS GENERAL CONTRACTORS, INC.", 
    "POP_AT_RISK": 57928, 
    "ZIP": 60629, 
    "ADDRESS": "2816 W 63RD ST", 
    "YEAR": 2009, 
    "LONGITUDE": -87.694130485, 
    "LATTITUDE": 41.779215217
  }, 
  {
    "BUSINESS_TYPE": "Residential Real Estate Developer", 
    "LEGAL_NAME": "DEVELOPMENT FOR IMPROVEMENT OF LAWNDALE", 
    "STATE": "IL", 
    "DOING_BUSINESS_AS_NAME": "DEVELOPMENT FOR IMPROVEMENT OF LAWNDALE", 
    "POP_AT_RISK": 42143, 
    "ZIP": 60623, 
    "ADDRESS": "1414 S HAMLIN AVE 2", 
    "YEAR": 2009, 
    "LONGITUDE": -87.720309705, 
    "LATTITUDE": 41.861749716
  }, 
  {
    "BUSINESS_TYPE": "Residential Real Estate Developer", 
    "LEGAL_NAME": "1401 STATE LLC", 
    "STATE": "IL", 
    "DOING_BUSINESS_AS_NAME": "1401 STATE LLC", 
    "POP_AT_RISK": 49424, 
    "ZIP": 60523, 
    "ADDRESS": "2603 W 22ND ST  22", 
    "YEAR": 2009, 
    "LONGITUDE": -87.690737281, 
    "LATTITUDE": 41.851855707
  }, 
  {
    "BUSINESS_TYPE": "Residential Real Estate Developer", 
    "LEGAL_NAME": "LINDA ALANIS", 
    "STATE": "IL", 
    "DOING_BUSINESS_AS_NAME": "LINDA ALANIS", 
    "POP_AT_RISK": 65038, 
    "ZIP": 60618, 
    "ADDRESS": "4237 N HAMLIN AVE", 
    "YEAR": 2009, 
    "LONGITUDE": -87.722706461, 
    "LATTITUDE": 41.958476591
  }, 
  {
    "BUSINESS_TYPE": "Residential Real Estate Developer", 
    "LEGAL_NAME": "L&R DEVELOPERS, L.L.C.", 
    "STATE": "IL", 
    "DOING_BUSINESS_AS_NAME": "L&R DEVELOPERS", 
    "POP_AT_RISK": 41622, 
    "ZIP": 60624, 
    "ADDRESS": "120 S HAMLIN BLVD 1", 
    "YEAR": 2009, 
    "LONGITUDE": -87.720832759, 
    "LATTITUDE": 41.879089167
  }, 
  {
    "BUSINESS_TYPE": "Residential Real Estate Developer", 
    "LEGAL_NAME": "JACLYN A. THORNTON", 
    "STATE": "IL", 
    "DOING_BUSINESS_AS_NAME": "JACK E CHANINSON REAL ESTATE", 
    "POP_AT_RISK": 21672, 
    "ZIP": 60643, 
    "ADDRESS": "2350 W 110TH ST", 
    "YEAR": 2009, 
    "LONGITUDE": -87.680639026, 
    "LATTITUDE": 41.694086681
  }, 
  {
    "BUSINESS_TYPE": "Residential Real Estate Developer", 
    "LEGAL_NAME": "REGINALD GIBSON", 
    "STATE": "IL", 
    "DOING_BUSINESS_AS_NAME": "RVG & ASSOCAITES", 
    "POP_AT_RISK": 29974, 
    "ZIP": 60643, 
    "ADDRESS": "9721 S PEORIA ST 1ST", 
    "YEAR": 2009, 
    "LONGITUDE": -87.645377088, 
    "LATTITUDE": 41.716961111
  }
]