[
  {
    "BUSINESS_TYPE": "Laboratories", 
    "LEGAL_NAME": "CHICAGO FAMILY HEALTH CENTER, INC.", 
    "STATE": "IL", 
    "DOING_BUSINESS_AS_NAME": "CHICAGO FAMILY HEALTH CENTER", 
    "POP_AT_RISK": 13745, 
    "ZIP": 60628, 
    "ADDRESS": "556 E 115TH ST 1ST", 
    "YEAR": 2014, 
    "LONGITUDE": -87.609330224, 
    "LATTITUDE": 41.685570884
  }, 
  {
    "BUSINESS_TYPE": "Laboratories", 
    "LEGAL_NAME": "PLANNED PARENTHOOD OF ILLINOIS", 
    "STATE": "IL", 
    "DOING_BUSINESS_AS_NAME": "PLANNED PARENTHOOD/CHICAGO AREA", 
    "POP_AT_RISK": 51346, 
    "ZIP": 60642, 
    "ADDRESS": "1152 N MILWAUKEE AVE", 
    "YEAR": 2014, 
    "LONGITUDE": -87.665459634, 
    "LATTITUDE": 41.902561613
  }, 
  {
    "BUSINESS_TYPE": "Laboratories", 
    "LEGAL_NAME": "PLANNED PARENTHOOD OF ILLINOIS", 
    "STATE": "IL", 
    "DOING_BUSINESS_AS_NAME": "PLANNED PARENTHOOD/ CHICAGO AREA", 
    "POP_AT_RISK": 62776, 
    "ZIP": 60603, 
    "ADDRESS": "18 S MICHIGAN AVE 6", 
    "YEAR": 2014, 
    "LONGITUDE": -87.624500099, 
    "LATTITUDE": 41.881658739
  }, 
  {
    "BUSINESS_TYPE": "Laboratories", 
    "LEGAL_NAME": "CHICAGO FAMILY HEALTH CENTER, INC.", 
    "STATE": "IL", 
    "DOING_BUSINESS_AS_NAME": "CHICAGO FAMILY HEALTH CENTER, INC.", 
    "POP_AT_RISK": 34522, 
    "ZIP": 60628, 
    "ADDRESS": "120 W 111TH ST 1", 
    "YEAR": 2014, 
    "LONGITUDE": -87.626686406, 
    "LATTITUDE": 41.692651315
  }, 
  {
    "BUSINESS_TYPE": "Laboratories", 
    "LEGAL_NAME": "CHICAGO FAMILY HEALTH CENTER, INC.", 
    "STATE": "IL", 
    "DOING_BUSINESS_AS_NAME": "CHICAGO FAMILY HEALTH CENTER, INC.", 
    "POP_AT_RISK": 24497, 
    "ZIP": 60617, 
    "ADDRESS": "10536 S EWING AVE 1", 
    "YEAR": 2014, 
    "LONGITUDE": -87.535432133, 
    "LATTITUDE": 41.703450448
  }, 
  {
    "BUSINESS_TYPE": "Laboratories", 
    "LEGAL_NAME": "PLANNED PARENTHOOD OF ILLINOIS", 
    "STATE": "IL", 
    "DOING_BUSINESS_AS_NAME": "PLANNED PARENTHOOD/CHICAGO AREA", 
    "POP_AT_RISK": 66544, 
    "ZIP": 60660, 
    "ADDRESS": "6353 N BROADWAY", 
    "YEAR": 2014, 
    "LONGITUDE": -87.660371604, 
    "LATTITUDE": 41.997939426
  }, 
  {
    "BUSINESS_TYPE": "Laboratories", 
    "LEGAL_NAME": "CHICAGO FAMILY HEALTH CENTER, INC.", 
    "STATE": "IL", 
    "DOING_BUSINESS_AS_NAME": "CHICAGO FAMILY HEALTH CENTER, INC.", 
    "POP_AT_RISK": 62644, 
    "ZIP": 60629, 
    "ADDRESS": "3223 W 63RD ST 1", 
    "YEAR": 2014, 
    "LONGITUDE": -87.704081302, 
    "LATTITUDE": 41.778848206
  }, 
  {
    "BUSINESS_TYPE": "Laboratories", 
    "LEGAL_NAME": "PLANNED PARENTHOOD OF ILLINOIS", 
    "STATE": "IL", 
    "DOING_BUSINESS_AS_NAME": "PLANNED PARENTHOOD/CHICAGO AREA", 
    "POP_AT_RISK": 34112, 
    "ZIP": 60636, 
    "ADDRESS": "6059 S ASHLAND AVE", 
    "YEAR": 2014, 
    "LONGITUDE": -87.664164527, 
    "LATTITUDE": 41.78320283
  }, 
  {
    "BUSINESS_TYPE": "Laboratories", 
    "LEGAL_NAME": "PLANNED PARENTHOOD OF ILLINOIS", 
    "STATE": "IL", 
    "DOING_BUSINESS_AS_NAME": "PLANNED PARENTHOOD/CHICAGO AREA", 
    "POP_AT_RISK": 28025, 
    "ZIP": 60651, 
    "ADDRESS": "5937 W CHICAGO AVE", 
    "YEAR": 2014, 
    "LONGITUDE": -87.773782711, 
    "LATTITUDE": 41.89462306
  }, 
  {
    "BUSINESS_TYPE": "Laboratories", 
    "LEGAL_NAME": "CHICAGO FAMILY HEALTH CENTER, INC.", 
    "STATE": "IL", 
    "DOING_BUSINESS_AS_NAME": "CHICAGO FAMILY MEDICAL CENTER", 
    "POP_AT_RISK": 17702, 
    "ZIP": 60617, 
    "ADDRESS": "9119 S EXCHANGE AVE", 
    "YEAR": 2014, 
    "LONGITUDE": -87.552477818, 
    "LATTITUDE": 41.72945712
  }, 
  {
    "BUSINESS_TYPE": "Laboratories", 
    "LEGAL_NAME": "PLANNED PARENTHOOD OF ILLINOIS", 
    "STATE": "IL", 
    "DOING_BUSINESS_AS_NAME": "PLANNED PARENTHOOD ASSOCIATION/CHICAGO AREA", 
    "POP_AT_RISK": 83768, 
    "ZIP": 60610, 
    "ADDRESS": "1200 N LA SALLE DR  1ST", 
    "YEAR": 2014, 
    "LONGITUDE": -87.633070711, 
    "LATTITUDE": 41.903969211
  }, 
  {
    "BUSINESS_TYPE": "Laboratories", 
    "LEGAL_NAME": "PLANNED PARENTHOOD OF ILLINOIS", 
    "STATE": "IL", 
    "DOING_BUSINESS_AS_NAME": "PLANNED PARENTHOOD/CHICAGO AREA", 
    "POP_AT_RISK": 27097, 
    "ZIP": 60628, 
    "ADDRESS": "11250 S HALSTED ST", 
    "YEAR": 2014, 
    "LONGITUDE": -87.642423194, 
    "LATTITUDE": 41.68903437
  }
]