[
  {
    "BUSINESS_TYPE": "Performing Arts Venue", 
    "LEGAL_NAME": "RAVEN THEATRE COMPANY", 
    "STATE": "IL", 
    "DOING_BUSINESS_AS_NAME": "RAVEN THEATRE COMPANY", 
    "POP_AT_RISK": 67467, 
    "ZIP": 60660, 
    "ADDRESS": "6157 N CLARK ST", 
    "YEAR": 2013, 
    "LONGITUDE": -87.670000075, 
    "LATTITUDE": 41.994330438
  }, 
  {
    "BUSINESS_TYPE": "Performing Arts Venue", 
    "LEGAL_NAME": "PROVISION THEATER COMPANY", 
    "STATE": "IL", 
    "DOING_BUSINESS_AS_NAME": "PROVISION THEATER COMPANY", 
    "POP_AT_RISK": 41082, 
    "ZIP": 60608, 
    "ADDRESS": "1001 W ROOSEVELT RD 1ST REAR", 
    "YEAR": 2013, 
    "LONGITUDE": -87.651081836, 
    "LATTITUDE": 41.866976966
  }, 
  {
    "BUSINESS_TYPE": "Performing Arts Venue", 
    "LEGAL_NAME": "WILLIAM BERMINGHAM", 
    "STATE": "IL", 
    "DOING_BUSINESS_AS_NAME": "THE CHARNEL HOUSE", 
    "POP_AT_RISK": 81220, 
    "ZIP": 60647, 
    "ADDRESS": "3421 W FULLERTON AVE 1ST", 
    "YEAR": 2013, 
    "LONGITUDE": -87.712949629, 
    "LATTITUDE": 41.924544228
  }, 
  {
    "BUSINESS_TYPE": "Performing Arts Venue", 
    "LEGAL_NAME": "NEW HEARTLAND CAFE, INC.", 
    "STATE": "IL", 
    "DOING_BUSINESS_AS_NAME": "NO EXIT CAFE", 
    "POP_AT_RISK": 54038, 
    "ZIP": 60626, 
    "ADDRESS": "6970-6972 N GLENWOOD AVE 1", 
    "YEAR": 2013, 
    "LONGITUDE": -87.666353919, 
    "LATTITUDE": 42.008813689
  }, 
  {
    "BUSINESS_TYPE": "Performing Arts Venue", 
    "LEGAL_NAME": "THE PROP THEATER GROUP", 
    "STATE": "IL", 
    "DOING_BUSINESS_AS_NAME": "PROP THTR", 
    "POP_AT_RISK": 56736, 
    "ZIP": 60618, 
    "ADDRESS": "3502-3504 N ELSTON AVE 1", 
    "YEAR": 2013, 
    "LONGITUDE": -87.706374907, 
    "LATTITUDE": 41.944787249
  }, 
  {
    "BUSINESS_TYPE": "Performing Arts Venue", 
    "LEGAL_NAME": "GORILLA TANGO INCORPORATED", 
    "STATE": "IL", 
    "DOING_BUSINESS_AS_NAME": "GORILLA TANGO THEATRE", 
    "POP_AT_RISK": 64115, 
    "ZIP": 60647, 
    "ADDRESS": "1919 N MILWAUKEE AVE  1", 
    "YEAR": 2013, 
    "LONGITUDE": -87.686547149, 
    "LATTITUDE": 41.916408032
  }, 
  {
    "BUSINESS_TYPE": "Performing Arts Venue", 
    "LEGAL_NAME": "BETH-ANNE FOUNDATION", 
    "STATE": "IL", 
    "DOING_BUSINESS_AS_NAME": "BETH ANNE LIFE CENTER", 
    "POP_AT_RISK": 44882, 
    "ZIP": 60651, 
    "ADDRESS": "1130-1140 N LAMON AVE", 
    "YEAR": 2013, 
    "LONGITUDE": -87.748545838, 
    "LATTITUDE": 41.901362168
  }, 
  {
    "BUSINESS_TYPE": "Performing Arts Venue", 
    "LEGAL_NAME": "THE OLD TOWN SCHOOL OF FOLK MUSIC, INC.", 
    "STATE": "IL", 
    "DOING_BUSINESS_AS_NAME": "OLD TOWN SCHOOL OF FOLK MUSIC", 
    "POP_AT_RISK": 68575, 
    "ZIP": 60625, 
    "ADDRESS": "4543-4551 N LINCOLN AVE", 
    "YEAR": 2013, 
    "LONGITUDE": -87.68560705, 
    "LATTITUDE": 41.964372388
  }, 
  {
    "BUSINESS_TYPE": "Performing Arts Venue", 
    "LEGAL_NAME": "A RED ORCHID THEATRE", 
    "STATE": "IL", 
    "DOING_BUSINESS_AS_NAME": "A RED ORCHID THEATRE", 
    "POP_AT_RISK": 66796, 
    "ZIP": 60610, 
    "ADDRESS": "1531 N WELLS ST", 
    "YEAR": 2013, 
    "LONGITUDE": -87.634529769, 
    "LATTITUDE": 41.910080242
  }, 
  {
    "BUSINESS_TYPE": "Performing Arts Venue", 
    "LEGAL_NAME": "AGUIJON THEATER COMPANY OF CHICAGO", 
    "STATE": "IL", 
    "DOING_BUSINESS_AS_NAME": "AGUIJON THEATER COMPANY", 
    "POP_AT_RISK": 73309, 
    "ZIP": 60639, 
    "ADDRESS": "2707 N LARAMIE AVE", 
    "YEAR": 2013, 
    "LONGITUDE": -87.756214062, 
    "LATTITUDE": 41.929840295
  }, 
  {
    "BUSINESS_TYPE": "Performing Arts Venue", 
    "LEGAL_NAME": "THE DEN THEATRE CHICAGO, LLC", 
    "STATE": "IL", 
    "DOING_BUSINESS_AS_NAME": "THE DEN THEATRE", 
    "POP_AT_RISK": 57211, 
    "ZIP": 60642, 
    "ADDRESS": "1333 N MILWAUKEE AVE 2 2", 
    "YEAR": 2013, 
    "LONGITUDE": -87.670646024, 
    "LATTITUDE": 41.906162866
  }, 
  {
    "BUSINESS_TYPE": "Performing Arts Venue", 
    "LEGAL_NAME": "REDMOON THEATER", 
    "STATE": "IL", 
    "DOING_BUSINESS_AS_NAME": "REDMOON THEATER", 
    "POP_AT_RISK": 39485, 
    "ZIP": 60642, 
    "ADDRESS": "1438 W KINZIE ST", 
    "YEAR": 2013, 
    "LONGITUDE": -87.663819487, 
    "LATTITUDE": 41.888984832
  }, 
  {
    "BUSINESS_TYPE": "Performing Arts Venue", 
    "LEGAL_NAME": "THE UNIVERSITY OF CHICAGO", 
    "STATE": "IL", 
    "DOING_BUSINESS_AS_NAME": "UNIVERSITY OF CHICAGO COURT THEATRE", 
    "POP_AT_RISK": 43898, 
    "ZIP": 60637, 
    "ADDRESS": "5535 S ELLIS AVE", 
    "YEAR": 2013, 
    "LONGITUDE": -87.601213936, 
    "LATTITUDE": 41.793979809
  }, 
  {
    "BUSINESS_TYPE": "Performing Arts Venue", 
    "LEGAL_NAME": "THE GIFT THEATRE COMPANY", 
    "STATE": "IL", 
    "DOING_BUSINESS_AS_NAME": "THE GIFT THEATRE COMPANY", 
    "POP_AT_RISK": 41622, 
    "ZIP": 60630, 
    "ADDRESS": "4802 N MILWAUKEE AVE", 
    "YEAR": 2013, 
    "LONGITUDE": -87.760938108, 
    "LATTITUDE": 41.967890006
  }
]