[
  {
    "BUSINESS_TYPE": "Motor Vehicle Repair: Engine/Body(Class III)", 
    "LEGAL_NAME": "FRANKLIN R LOGAN", 
    "STATE": "IL", 
    "DOING_BUSINESS_AS_NAME": "FRANK'S AUTO REPAIR", 
    "POP_AT_RISK": 21920, 
    "ZIP": 60643, 
    "ADDRESS": "1119 W 115TH ST 1ST", 
    "YEAR": 2001, 
    "LONGITUDE": -87.650323297, 
    "LATTITUDE": 41.684862249
  }, 
  {
    "BUSINESS_TYPE": "Motor Vehicle Repair: Engine/Body(Class III)", 
    "LEGAL_NAME": "RALPH GASTON", 
    "STATE": "IL", 
    "DOING_BUSINESS_AS_NAME": "GASTONS AUTO BODY SHOP", 
    "POP_AT_RISK": 31763, 
    "ZIP": 60628, 
    "ADDRESS": "534 W 119TH ST 1ST", 
    "YEAR": 2001, 
    "LONGITUDE": -87.636034612, 
    "LATTITUDE": 41.677987783
  }, 
  {
    "BUSINESS_TYPE": "Motor Vehicle Repair: Engine/Body(Class III)", 
    "LEGAL_NAME": "B & B & B BODY CO INC", 
    "STATE": "IL", 
    "DOING_BUSINESS_AS_NAME": "B&B&B BODY CO INC", 
    "POP_AT_RISK": 68879, 
    "ZIP": 60623, 
    "ADDRESS": "3665 W OGDEN AVE 1ST", 
    "YEAR": 2001, 
    "LONGITUDE": -87.717393294, 
    "LATTITUDE": 41.853515406
  }, 
  {
    "BUSINESS_TYPE": "Motor Vehicle Repair: Engine/Body(Class III)", 
    "LEGAL_NAME": "JOMI CORP", 
    "STATE": "IL", 
    "DOING_BUSINESS_AS_NAME": "NU-LIFE AUTO BODY SHOP", 
    "POP_AT_RISK": 41876, 
    "ZIP": 60641, 
    "ADDRESS": "4156 N MILWAUKEE AVE  1", 
    "YEAR": 2001, 
    "LONGITUDE": -87.751177175, 
    "LATTITUDE": 41.956618148
  }, 
  {
    "BUSINESS_TYPE": "Motor Vehicle Repair: Engine/Body(Class III)", 
    "LEGAL_NAME": "CLASSIC AUTO II, INC.", 
    "STATE": "IL", 
    "DOING_BUSINESS_AS_NAME": "CLASSIC AUTO REPAIR INC", 
    "POP_AT_RISK": 44713, 
    "ZIP": 60632, 
    "ADDRESS": "4627 S KEDZIE AVE 1ST", 
    "YEAR": 2001, 
    "LONGITUDE": -87.703867797, 
    "LATTITUDE": 41.809115497
  }, 
  {
    "BUSINESS_TYPE": "Motor Vehicle Repair: Engine/Body(Class III)", 
    "LEGAL_NAME": "RICHARD STEWART", 
    "STATE": "IL", 
    "DOING_BUSINESS_AS_NAME": "STEWART AUTO BODY SHOP", 
    "POP_AT_RISK": 35328, 
    "ZIP": 60617, 
    "ADDRESS": "8041 S EXCHANGE AVE", 
    "YEAR": 2001, 
    "LONGITUDE": -87.552695324, 
    "LATTITUDE": 41.748868379
  }, 
  {
    "BUSINESS_TYPE": "Motor Vehicle Repair: Engine/Body(Class III)", 
    "LEGAL_NAME": "LOUKAS PERGANTAS", 
    "STATE": "IL", 
    "DOING_BUSINESS_AS_NAME": "FOUR STAR BODY SHOP", 
    "POP_AT_RISK": 52887, 
    "ZIP": 60641, 
    "ADDRESS": "5424 W MONTROSE AVE", 
    "YEAR": 2001, 
    "LONGITUDE": -87.763358288, 
    "LATTITUDE": 41.960639241
  }, 
  {
    "BUSINESS_TYPE": "Motor Vehicle Repair: Engine/Body(Class III)", 
    "LEGAL_NAME": "W G M AUTO REBUILDERS INC", 
    "STATE": "IL", 
    "DOING_BUSINESS_AS_NAME": "W G M AUTO REBUILDERS INC", 
    "POP_AT_RISK": 26753, 
    "ZIP": 60629, 
    "ADDRESS": "6906 S PULASKI RD 1ST", 
    "YEAR": 2001, 
    "LONGITUDE": -87.722626405, 
    "LATTITUDE": 41.767511955
  }, 
  {
    "BUSINESS_TYPE": "Motor Vehicle Repair: Engine/Body(Class III)", 
    "LEGAL_NAME": "ORIGINAL CAIRO AUTO SERVICE, INC", 
    "STATE": "IL", 
    "DOING_BUSINESS_AS_NAME": "ORIGINAL CAIRO AUTO SERVICE,INC", 
    "POP_AT_RISK": 66170, 
    "ZIP": 60640, 
    "ADDRESS": "4874 - 4876 N CLARK ST", 
    "YEAR": 2001, 
    "LONGITUDE": -87.667891325, 
    "LATTITUDE": 41.971061587
  }, 
  {
    "BUSINESS_TYPE": "Motor Vehicle Repair: Engine/Body(Class III)", 
    "LEGAL_NAME": "VAN D HOLT", 
    "STATE": "IL", 
    "DOING_BUSINESS_AS_NAME": "STEVE AUTO REBUILDERS", 
    "POP_AT_RISK": 32803, 
    "ZIP": 60620, 
    "ADDRESS": "7758 S CLAREMONT AVE  1", 
    "YEAR": 2001, 
    "LONGITUDE": -87.681765433, 
    "LATTITUDE": 41.752009962
  }, 
  {
    "BUSINESS_TYPE": "Motor Vehicle Repair: Engine/Body(Class III)", 
    "LEGAL_NAME": "MAUREE & WILLIAM BAKER", 
    "STATE": "IL", 
    "DOING_BUSINESS_AS_NAME": "BAKER'S AUTO REBUILDERS", 
    "POP_AT_RISK": 25741, 
    "ZIP": 60620, 
    "ADDRESS": "1032 W 93RD ST 1ST", 
    "YEAR": 2001, 
    "LONGITUDE": -87.649448691, 
    "LATTITUDE": 41.725140783
  }, 
  {
    "BUSINESS_TYPE": "Motor Vehicle Repair: Engine/Body(Class III)", 
    "LEGAL_NAME": "RANK AUTO BODY AND EQUIPMENT, INC.", 
    "STATE": "IL", 
    "DOING_BUSINESS_AS_NAME": "RANK AUTO BODY & EQUIPMENT INC", 
    "POP_AT_RISK": 22813, 
    "ZIP": 60638, 
    "ADDRESS": "5400 S CENTRAL AVE 1ST", 
    "YEAR": 2001, 
    "LONGITUDE": -87.762507874, 
    "LATTITUDE": 41.794446738
  }, 
  {
    "BUSINESS_TYPE": "Motor Vehicle Repair: Engine/Body(Class III)", 
    "LEGAL_NAME": "D & D AUTO ENTERPRISES INC", 
    "STATE": "IL", 
    "DOING_BUSINESS_AS_NAME": "HOWARD & BELL AUTO CENTER", 
    "POP_AT_RISK": 34943, 
    "ZIP": 60645, 
    "ADDRESS": "2255 W HOWARD ST", 
    "YEAR": 2001, 
    "LONGITUDE": -87.686729345, 
    "LATTITUDE": 42.019398568
  }, 
  {
    "BUSINESS_TYPE": "Motor Vehicle Repair: Engine/Body(Class III)", 
    "LEGAL_NAME": "MIDWAY DODGE INC II", 
    "STATE": "IL", 
    "DOING_BUSINESS_AS_NAME": "MIDWAY DODGE INC II", 
    "POP_AT_RISK": 31737, 
    "ZIP": 60632, 
    "ADDRESS": "4723 S PULASKI RD", 
    "YEAR": 2001, 
    "LONGITUDE": -87.723418056, 
    "LATTITUDE": 41.807164676
  }, 
  {
    "BUSINESS_TYPE": "Motor Vehicle Repair: Engine/Body(Class III)", 
    "LEGAL_NAME": "MARGARITA AND PEDRO GUTIERREZ", 
    "STATE": "IL", 
    "DOING_BUSINESS_AS_NAME": "GUTTERREZ AUTO CONSTRUCTION", 
    "POP_AT_RISK": 89488, 
    "ZIP": 60647, 
    "ADDRESS": "3814 W ARMITAGE AVE", 
    "YEAR": 2001, 
    "LONGITUDE": -87.722280411, 
    "LATTITUDE": 41.917324439
  }, 
  {
    "BUSINESS_TYPE": "Motor Vehicle Repair: Engine/Body(Class III)", 
    "LEGAL_NAME": "VICTOR WEGRZYN", 
    "STATE": "IL", 
    "DOING_BUSINESS_AS_NAME": "A-ACTION AUTO INC", 
    "POP_AT_RISK": 26375, 
    "ZIP": 60634, 
    "ADDRESS": "6645 W IRVING PARK RD 1ST", 
    "YEAR": 2001, 
    "LONGITUDE": -87.793321762, 
    "LATTITUDE": 41.952684796
  }, 
  {
    "BUSINESS_TYPE": "Motor Vehicle Repair: Engine/Body(Class III)", 
    "LEGAL_NAME": "D. B. C. CORPORATION", 
    "STATE": "IL", 
    "DOING_BUSINESS_AS_NAME": "CARR'S AUTO CONSTRUCTION", 
    "POP_AT_RISK": 52744, 
    "ZIP": 60660, 
    "ADDRESS": "1920 W PETERSON AVE  1ST", 
    "YEAR": 2001, 
    "LONGITUDE": -87.678011102, 
    "LATTITUDE": 41.990813694
  }, 
  {
    "BUSINESS_TYPE": "Motor Vehicle Repair: Engine/Body(Class III)", 
    "LEGAL_NAME": "EAGLE COLLISON SPECALISTS INC", 
    "STATE": "IL", 
    "DOING_BUSINESS_AS_NAME": "EAGLE COLLISON SPECALISTS INC", 
    "POP_AT_RISK": 58514, 
    "ZIP": 60647, 
    "ADDRESS": "2223 N MILWAUKEE AVE", 
    "YEAR": 2001, 
    "LONGITUDE": -87.694477084, 
    "LATTITUDE": 41.921282127
  }, 
  {
    "BUSINESS_TYPE": "Motor Vehicle Repair: Engine/Body(Class III)", 
    "LEGAL_NAME": "MIKE SIMBALL", 
    "STATE": "IL", 
    "DOING_BUSINESS_AS_NAME": "M COMPLETE AUTO REPAIR", 
    "POP_AT_RISK": 53873, 
    "ZIP": 60618, 
    "ADDRESS": "2739 W BELMONT AVE  1ST", 
    "YEAR": 2001, 
    "LONGITUDE": -87.696761592, 
    "LATTITUDE": 41.939288516
  }, 
  {
    "BUSINESS_TYPE": "Motor Vehicle Repair: Engine/Body(Class III)", 
    "LEGAL_NAME": "CREATIVE ENTERPRISES", 
    "STATE": "IL", 
    "DOING_BUSINESS_AS_NAME": "CREATIVE ENTERPRISES", 
    "POP_AT_RISK": 35670, 
    "ZIP": 60616, 
    "ADDRESS": "1830 S CLINTON ST 1ST", 
    "YEAR": 2001, 
    "LONGITUDE": -87.640579783, 
    "LATTITUDE": 41.856449743
  }, 
  {
    "BUSINESS_TYPE": "Motor Vehicle Repair: Engine/Body(Class III)", 
    "LEGAL_NAME": "DON'S AUTO REBUILDERS INC", 
    "STATE": "IL", 
    "DOING_BUSINESS_AS_NAME": "DON'S AUTO REBUILDERS", 
    "POP_AT_RISK": 26998, 
    "ZIP": 60652, 
    "ADDRESS": "3435 W COLUMBUS AVE 1ST", 
    "YEAR": 2001, 
    "LONGITUDE": -87.70797391, 
    "LATTITUDE": 41.746130296
  }, 
  {
    "BUSINESS_TYPE": "Motor Vehicle Repair: Engine/Body(Class III)", 
    "LEGAL_NAME": "S & C AUTO", 
    "STATE": "IL", 
    "DOING_BUSINESS_AS_NAME": "S & C AUTO", 
    "POP_AT_RISK": 64511, 
    "ZIP": 60618, 
    "ADDRESS": "3942 W BELMONT AVE 1ST", 
    "YEAR": 2001, 
    "LONGITUDE": -87.725758861, 
    "LATTITUDE": 41.939221971
  }, 
  {
    "BUSINESS_TYPE": "Motor Vehicle Repair: Engine/Body(Class III)", 
    "LEGAL_NAME": "WILLIAM HOLWELL", 
    "STATE": "IL", 
    "DOING_BUSINESS_AS_NAME": "MODERN BODY", 
    "POP_AT_RISK": 33000, 
    "ZIP": 60608, 
    "ADDRESS": "3440 S ASHLAND AVE 1ST", 
    "YEAR": 2001, 
    "LONGITUDE": -87.66572984, 
    "LATTITUDE": 41.831105025
  }, 
  {
    "BUSINESS_TYPE": "Motor Vehicle Repair: Engine/Body(Class III)", 
    "LEGAL_NAME": "JOSE J JARA", 
    "STATE": "IL", 
    "DOING_BUSINESS_AS_NAME": "JARA'S AUTO REBUILDERS", 
    "POP_AT_RISK": 13632, 
    "ZIP": 60617, 
    "ADDRESS": "9601 S EWING AVE 1ST", 
    "YEAR": 2001, 
    "LONGITUDE": -87.535140541, 
    "LATTITUDE": 41.721259707
  }, 
  {
    "BUSINESS_TYPE": "Motor Vehicle Repair: Engine/Body(Class III)", 
    "LEGAL_NAME": "SAMAD AHMADI", 
    "STATE": "IL", 
    "DOING_BUSINESS_AS_NAME": "SAMAD'S AUTO SALES & SERVICE", 
    "POP_AT_RISK": 60936, 
    "ZIP": 60660, 
    "ADDRESS": "5628 N BROADWAY", 
    "YEAR": 2001, 
    "LONGITUDE": -87.660243351, 
    "LATTITUDE": 41.984511164
  }, 
  {
    "BUSINESS_TYPE": "Motor Vehicle Repair: Engine/Body(Class III)", 
    "LEGAL_NAME": "NAJIB BELGAMH", 
    "STATE": "IL", 
    "DOING_BUSINESS_AS_NAME": "OMAR'S BODY SHOP", 
    "POP_AT_RISK": 68886, 
    "ZIP": 60613, 
    "ADDRESS": "3652 N LINCOLN AVE  1TH S", 
    "YEAR": 2001, 
    "LONGITUDE": -87.674874698, 
    "LATTITUDE": 41.948339267
  }, 
  {
    "BUSINESS_TYPE": "Motor Vehicle Repair: Engine/Body(Class III)", 
    "LEGAL_NAME": "D. B. C. CORPORATION", 
    "STATE": "IL", 
    "DOING_BUSINESS_AS_NAME": "CARRS HONDA", 
    "POP_AT_RISK": 63493, 
    "ZIP": 60645, 
    "ADDRESS": "6600 N WESTERN AVE", 
    "YEAR": 2001, 
    "LONGITUDE": -87.690126179, 
    "LATTITUDE": 42.001456972
  }, 
  {
    "BUSINESS_TYPE": "Motor Vehicle Repair: Engine/Body(Class III)", 
    "LEGAL_NAME": "JAY EMBRY", 
    "STATE": "IL", 
    "DOING_BUSINESS_AS_NAME": "JAY'S AUTO", 
    "POP_AT_RISK": 25440, 
    "ZIP": 60609, 
    "ADDRESS": "5242 S HALSTED ST # 1", 
    "YEAR": 2001, 
    "LONGITUDE": -87.645412919, 
    "LATTITUDE": 41.798524664
  }, 
  {
    "BUSINESS_TYPE": "Motor Vehicle Repair: Engine/Body(Class III)", 
    "LEGAL_NAME": "H & F TRUCK & TRAILER", 
    "STATE": "IL", 
    "DOING_BUSINESS_AS_NAME": "H & F TRUCK & TRAILER REPAIR", 
    "POP_AT_RISK": 47405, 
    "ZIP": 60632, 
    "ADDRESS": "5037 S HOMAN AVE 1ST", 
    "YEAR": 2001, 
    "LONGITUDE": -87.708556509, 
    "LATTITUDE": 41.801470091
  }, 
  {
    "BUSINESS_TYPE": "Motor Vehicle Repair: Engine/Body(Class III)", 
    "LEGAL_NAME": "JAN FIEDARUK", 
    "STATE": "IL", 
    "DOING_BUSINESS_AS_NAME": "OF Auto Repair Inc.", 
    "POP_AT_RISK": 48327, 
    "ZIP": 60639, 
    "ADDRESS": "2012 N AUSTIN AVE 1ST", 
    "YEAR": 2001, 
    "LONGITUDE": -87.775628612, 
    "LATTITUDE": 41.916906416
  }, 
  {
    "BUSINESS_TYPE": "Motor Vehicle Repair: Engine/Body(Class III)", 
    "LEGAL_NAME": "SULIK AUTO, INC.", 
    "STATE": "IL", 
    "DOING_BUSINESS_AS_NAME": "SULIK AUTO INC", 
    "POP_AT_RISK": 74634, 
    "ZIP": 60639, 
    "ADDRESS": "5301-5303 W DIVERSEY AVE 1ST", 
    "YEAR": 2001, 
    "LONGITUDE": -87.758992766, 
    "LATTITUDE": 41.931257516
  }, 
  {
    "BUSINESS_TYPE": "Motor Vehicle Repair: Engine/Body(Class III)", 
    "LEGAL_NAME": "MAKKAH AUT0 REPAIR & B0DY", 
    "STATE": "IL", 
    "DOING_BUSINESS_AS_NAME": "MAKKAH AUTO REPAIR", 
    "POP_AT_RISK": 32562, 
    "ZIP": 60607, 
    "ADDRESS": "1389 W LAKE ST", 
    "YEAR": 2001, 
    "LONGITUDE": -87.662188077, 
    "LATTITUDE": 41.885310226
  }, 
  {
    "BUSINESS_TYPE": "Motor Vehicle Repair: Engine/Body(Class III)", 
    "LEGAL_NAME": "RONALD STRAUSS", 
    "STATE": "IL", 
    "DOING_BUSINESS_AS_NAME": "UNITED AUTO SERVICE", 
    "POP_AT_RISK": 59160, 
    "ZIP": 60629, 
    "ADDRESS": "2423 W 59TH ST", 
    "YEAR": 2001, 
    "LONGITUDE": -87.684900151, 
    "LATTITUDE": 41.786437402
  }, 
  {
    "BUSINESS_TYPE": "Motor Vehicle Repair: Engine/Body(Class III)", 
    "LEGAL_NAME": "P C BLANCO & A O AVECILLIA", 
    "STATE": "IL", 
    "DOING_BUSINESS_AS_NAME": "ABM SERVICE CENTERS", 
    "POP_AT_RISK": 36800, 
    "ZIP": 60651, 
    "ADDRESS": "4540 W AUGUSTA BLVD", 
    "YEAR": 2001, 
    "LONGITUDE": -87.740159804, 
    "LATTITUDE": 41.898904591
  }
]