[
  {
    "BUSINESS_TYPE": "Food - Shared Kitchen Short-Term User", 
    "LEGAL_NAME": "STEPHEN BIENIEK", 
    "STATE": "IL", 
    "DOING_BUSINESS_AS_NAME": "D LISH DISH", 
    "POP_AT_RISK": 74900, 
    "ZIP": 60613, 
    "ADDRESS": "3600 N LAKE SHORE DR 5TH 525", 
    "YEAR": 2013, 
    "LONGITUDE": -87.643649759, 
    "LATTITUDE": 41.948683674
  }, 
  {
    "BUSINESS_TYPE": "Food - Shared Kitchen Short-Term User", 
    "LEGAL_NAME": "MELISSA CHRUSFIELD", 
    "STATE": "IL", 
    "DOING_BUSINESS_AS_NAME": "GREEN TOMATO CAFE", 
    "POP_AT_RISK": 64817, 
    "ZIP": 60618, 
    "ADDRESS": "3137 N ST LOUIS AVE", 
    "YEAR": 2013, 
    "LONGITUDE": -87.714768764, 
    "LATTITUDE": 41.938537605
  }, 
  {
    "BUSINESS_TYPE": "Food - Shared Kitchen Short-Term User", 
    "LEGAL_NAME": "THE POPCORN ASYLUM LLC", 
    "STATE": "IL", 
    "DOING_BUSINESS_AS_NAME": "THE POPCORN ASYLUM", 
    "POP_AT_RISK": 57485, 
    "ZIP": 60660, 
    "ADDRESS": "5858 N BROADWAY   404", 
    "YEAR": 2013, 
    "LONGITUDE": -87.660372096, 
    "LATTITUDE": 41.988702682
  }, 
  {
    "BUSINESS_TYPE": "Food - Shared Kitchen Short-Term User", 
    "LEGAL_NAME": "JOHNNY CASSEROLE, INC.", 
    "STATE": "IL", 
    "DOING_BUSINESS_AS_NAME": "JOHNNY CASSEROLE", 
    "POP_AT_RISK": 55485, 
    "ZIP": 60647, 
    "ADDRESS": "2622 N TALMAN AVE", 
    "YEAR": 2013, 
    "LONGITUDE": -87.694058306, 
    "LATTITUDE": 41.929454037
  }, 
  {
    "BUSINESS_TYPE": "Food - Shared Kitchen Short-Term User", 
    "LEGAL_NAME": "GREEN APPLE CORPORATION", 
    "STATE": "IL", 
    "DOING_BUSINESS_AS_NAME": "BARRIO GRILL", 
    "POP_AT_RISK": 59410, 
    "ZIP": 60618, 
    "ADDRESS": "3749 N KIMBALL AVE", 
    "YEAR": 2013, 
    "LONGITUDE": -87.712656686, 
    "LATTITUDE": 41.949889538
  }, 
  {
    "BUSINESS_TYPE": "Food - Shared Kitchen Short-Term User", 
    "LEGAL_NAME": "MANNA CONFECTIONS INCORPORATED", 
    "STATE": "IL", 
    "DOING_BUSINESS_AS_NAME": "MANNA CONFECTIONS INCORPORATED", 
    "POP_AT_RISK": 20846, 
    "ZIP": 60628, 
    "ADDRESS": "11249 S FORRESTVILLE AVE 1 1", 
    "YEAR": 2013, 
    "LONGITUDE": -87.609409324, 
    "LATTITUDE": 41.68957424
  }, 
  {
    "BUSINESS_TYPE": "Food - Shared Kitchen Short-Term User", 
    "LEGAL_NAME": "AR-M HOLDINGS LLC", 
    "STATE": "IL", 
    "DOING_BUSINESS_AS_NAME": "SUPER SPICES", 
    "POP_AT_RISK": 56006, 
    "ZIP": 60614, 
    "ADDRESS": "2141 N SEMINARY AVE", 
    "YEAR": 2013, 
    "LONGITUDE": -87.655748415, 
    "LATTITUDE": 41.921105149
  }, 
  {
    "BUSINESS_TYPE": "Food - Shared Kitchen Short-Term User", 
    "LEGAL_NAME": "YU CONNECTION, INC.", 
    "STATE": "IL", 
    "DOING_BUSINESS_AS_NAME": "YU CREPES", 
    "POP_AT_RISK": 32178, 
    "ZIP": 60607, 
    "ADDRESS": "917 S MILLER   3R", 
    "YEAR": 2013, 
    "LONGITUDE": -87.652079025, 
    "LATTITUDE": 41.869866446
  }, 
  {
    "BUSINESS_TYPE": "Food - Shared Kitchen Short-Term User", 
    "LEGAL_NAME": "BEST OF BARS, LLC", 
    "STATE": "IL", 
    "DOING_BUSINESS_AS_NAME": "BEST OF BARS", 
    "POP_AT_RISK": 79339, 
    "ZIP": 60610, 
    "ADDRESS": "1154 N DEARBORN ST  #3", 
    "YEAR": 2013, 
    "LONGITUDE": -87.630119457, 
    "LATTITUDE": 41.90346708
  }, 
  {
    "BUSINESS_TYPE": "Food - Shared Kitchen Short-Term User", 
    "LEGAL_NAME": "FANNIE SCHMOE'S BAKERY LLC", 
    "STATE": "IL", 
    "DOING_BUSINESS_AS_NAME": "FANNIE SCHMOE' S BAKERY LLC", 
    "POP_AT_RISK": 47820, 
    "ZIP": 60641, 
    "ADDRESS": "5300 W CUYLER AVE 1ST", 
    "YEAR": 2013, 
    "LONGITUDE": -87.75976806, 
    "LATTITUDE": 41.954290277
  }, 
  {
    "BUSINESS_TYPE": "Food - Shared Kitchen Short-Term User", 
    "LEGAL_NAME": "SARAH L MCDONALD STEELE", 
    "STATE": "IL", 
    "DOING_BUSINESS_AS_NAME": "SARAH L MCDONALD STEELE", 
    "POP_AT_RISK": 58366, 
    "ZIP": 60626, 
    "ADDRESS": "7027 N PAULINA ST 3RD 3S", 
    "YEAR": 2013, 
    "LONGITUDE": -87.672121909, 
    "LATTITUDE": 42.009868533
  }, 
  {
    "BUSINESS_TYPE": "Food - Shared Kitchen Short-Term User", 
    "LEGAL_NAME": "THE CHOW BROTHERS LLC", 
    "STATE": "IL", 
    "DOING_BUSINESS_AS_NAME": "THE CHOW BROTHERS", 
    "POP_AT_RISK": 35821, 
    "ZIP": 60607, 
    "ADDRESS": "910 W MADISON ST  709", 
    "YEAR": 2013, 
    "LONGITUDE": -87.650198809, 
    "LATTITUDE": 41.881837365
  }, 
  {
    "BUSINESS_TYPE": "Food - Shared Kitchen Short-Term User", 
    "LEGAL_NAME": "BG CONSORTIUM LLC", 
    "STATE": "IL", 
    "DOING_BUSINESS_AS_NAME": "'LAINE'S BAKE SHOP", 
    "POP_AT_RISK": 28277, 
    "ZIP": 60653, 
    "ADDRESS": "3862 S LAKE PARK AVE  3N", 
    "YEAR": 2013, 
    "LONGITUDE": -87.604228997, 
    "LATTITUDE": 41.825263515
  }, 
  {
    "BUSINESS_TYPE": "Food - Shared Kitchen Short-Term User", 
    "LEGAL_NAME": "The Indus Group LLC", 
    "STATE": "IL", 
    "DOING_BUSINESS_AS_NAME": "LAFAYETTE", 
    "POP_AT_RISK": 74524, 
    "ZIP": 60101, 
    "ADDRESS": "1351 W DIVERSEY AVE", 
    "YEAR": 2013, 
    "LONGITUDE": -87.663167024, 
    "LATTITUDE": 41.932377009
  }, 
  {
    "BUSINESS_TYPE": "Food - Shared Kitchen Short-Term User", 
    "LEGAL_NAME": "DADDY SATURDAY'S RESTAURANT, INC.", 
    "STATE": "IL", 
    "DOING_BUSINESS_AS_NAME": "DADDY SATURDAY'S RESTAURANT, INC.", 
    "POP_AT_RISK": 32380, 
    "ZIP": 60619, 
    "ADDRESS": "8605 S DANTE AVE", 
    "YEAR": 2013, 
    "LONGITUDE": -87.588949735, 
    "LATTITUDE": 41.738486032
  }
]