[
  {
    "BUSINESS_TYPE": "Performing Arts Venue", 
    "LEGAL_NAME": "VIADUCT ARTS COALITION", 
    "STATE": "IL", 
    "DOING_BUSINESS_AS_NAME": "VIADUCT THEATRE", 
    "POP_AT_RISK": 56571, 
    "ZIP": 60618, 
    "ADDRESS": "3111 N WESTERN AVE # 1ST", 
    "YEAR": 2010, 
    "LONGITUDE": -87.68774498, 
    "LATTITUDE": 41.937980454
  }, 
  {
    "BUSINESS_TYPE": "Performing Arts Venue", 
    "LEGAL_NAME": "RAVEN THEATRE COMPANY", 
    "STATE": "IL", 
    "DOING_BUSINESS_AS_NAME": "RAVEN THEATRE COMPANY", 
    "POP_AT_RISK": 67467, 
    "ZIP": 60660, 
    "ADDRESS": "6157 N CLARK ST", 
    "YEAR": 2010, 
    "LONGITUDE": -87.670000075, 
    "LATTITUDE": 41.994330438
  }, 
  {
    "BUSINESS_TYPE": "Performing Arts Venue", 
    "LEGAL_NAME": "ELASTIC ARTS FOUNDATION", 
    "STATE": "IL", 
    "DOING_BUSINESS_AS_NAME": "ELASTIC", 
    "POP_AT_RISK": 71768, 
    "ZIP": 60618, 
    "ADDRESS": "2830 N MILWAUKEE AVE 2", 
    "YEAR": 2010, 
    "LONGITUDE": -87.713449177, 
    "LATTITUDE": 41.932613295
  }, 
  {
    "BUSINESS_TYPE": "Performing Arts Venue", 
    "LEGAL_NAME": "A RED ORCHID THEATRE", 
    "STATE": "IL", 
    "DOING_BUSINESS_AS_NAME": "A RED ORCHID THEATRE", 
    "POP_AT_RISK": 66796, 
    "ZIP": 60610, 
    "ADDRESS": "1531 N WELLS ST", 
    "YEAR": 2010, 
    "LONGITUDE": -87.634529769, 
    "LATTITUDE": 41.910080242
  }, 
  {
    "BUSINESS_TYPE": "Performing Arts Venue", 
    "LEGAL_NAME": "WILLIAM BERMINGHAM", 
    "STATE": "IL", 
    "DOING_BUSINESS_AS_NAME": "THE CHARNEL HOUSE", 
    "POP_AT_RISK": 81220, 
    "ZIP": 60647, 
    "ADDRESS": "3421 W FULLERTON AVE 1ST", 
    "YEAR": 2010, 
    "LONGITUDE": -87.712949629, 
    "LATTITUDE": 41.924544228
  }, 
  {
    "BUSINESS_TYPE": "Performing Arts Venue", 
    "LEGAL_NAME": "THE SIDE PROJECT", 
    "STATE": "IL", 
    "DOING_BUSINESS_AS_NAME": "THE SIDE PROJECT", 
    "POP_AT_RISK": 43751, 
    "ZIP": 60626, 
    "ADDRESS": "1439-1441 W JARVIS AVE", 
    "YEAR": 2010, 
    "LONGITUDE": -87.667679644, 
    "LATTITUDE": 42.015948689
  }, 
  {
    "BUSINESS_TYPE": "Performing Arts Venue", 
    "LEGAL_NAME": "GORILLA TANGO INCORPORATED", 
    "STATE": "IL", 
    "DOING_BUSINESS_AS_NAME": "GORILLA TANGO THEATRE", 
    "POP_AT_RISK": 64115, 
    "ZIP": 60647, 
    "ADDRESS": "1919 N MILWAUKEE AVE  1", 
    "YEAR": 2010, 
    "LONGITUDE": -87.686547149, 
    "LATTITUDE": 41.916408032
  }, 
  {
    "BUSINESS_TYPE": "Performing Arts Venue", 
    "LEGAL_NAME": "BETH-ANNE FOUNDATION", 
    "STATE": "IL", 
    "DOING_BUSINESS_AS_NAME": "BETH ANNE LIFE CENTER", 
    "POP_AT_RISK": 44882, 
    "ZIP": 60651, 
    "ADDRESS": "1130-1140 N LAMON AVE", 
    "YEAR": 2010, 
    "LONGITUDE": -87.748545838, 
    "LATTITUDE": 41.901362168
  }, 
  {
    "BUSINESS_TYPE": "Performing Arts Venue", 
    "LEGAL_NAME": "PROVISION THEATER COMPANY", 
    "STATE": "IL", 
    "DOING_BUSINESS_AS_NAME": "PROVISION THEATER COMPANY", 
    "POP_AT_RISK": 41082, 
    "ZIP": 60608, 
    "ADDRESS": "1001 W ROOSEVELT RD 1ST REAR", 
    "YEAR": 2010, 
    "LONGITUDE": -87.651081836, 
    "LATTITUDE": 41.866976966
  }, 
  {
    "BUSINESS_TYPE": "Performing Arts Venue", 
    "LEGAL_NAME": "AGUIJON THEATER COMPANY OF CHICAGO", 
    "STATE": "IL", 
    "DOING_BUSINESS_AS_NAME": "AGUIJON THEATER COMPANY", 
    "POP_AT_RISK": 73309, 
    "ZIP": 60639, 
    "ADDRESS": "2707 N LARAMIE AVE", 
    "YEAR": 2010, 
    "LONGITUDE": -87.756214062, 
    "LATTITUDE": 41.929840295
  }, 
  {
    "BUSINESS_TYPE": "Performing Arts Venue", 
    "LEGAL_NAME": "JOHN DEVENS", 
    "STATE": "IL", 
    "DOING_BUSINESS_AS_NAME": "WORLD FOLK MUSIC COMPANY", 
    "POP_AT_RISK": 21816, 
    "ZIP": 60643, 
    "ADDRESS": "1808 W 103RD ST", 
    "YEAR": 2010, 
    "LONGITUDE": -87.667500412, 
    "LATTITUDE": 41.706718632
  }, 
  {
    "BUSINESS_TYPE": "Performing Arts Venue", 
    "LEGAL_NAME": "E.T.A. CREATIVE ARTS FOUNDATION", 
    "STATE": "IL", 
    "DOING_BUSINESS_AS_NAME": "E.T.A. CREATIVE ARTS FOUNDATION", 
    "POP_AT_RISK": 38472, 
    "ZIP": 60619, 
    "ADDRESS": "7558 S SOUTH CHICAGO AVE 1", 
    "YEAR": 2010, 
    "LONGITUDE": -87.593289241, 
    "LATTITUDE": 41.756893037
  }, 
  {
    "BUSINESS_TYPE": "Performing Arts Venue", 
    "LEGAL_NAME": "THE NEO-FUTURISTS", 
    "STATE": "IL", 
    "DOING_BUSINESS_AS_NAME": "The Neo-Futurists", 
    "POP_AT_RISK": 64377, 
    "ZIP": 60640, 
    "ADDRESS": "5153 N ASHLAND AVE", 
    "YEAR": 2010, 
    "LONGITUDE": -87.669462687, 
    "LATTITUDE": 41.975935166
  }, 
  {
    "BUSINESS_TYPE": "Performing Arts Venue", 
    "LEGAL_NAME": "REDMOON THEATER", 
    "STATE": "IL", 
    "DOING_BUSINESS_AS_NAME": "REDMOON THEATER", 
    "POP_AT_RISK": 39485, 
    "ZIP": 60642, 
    "ADDRESS": "1438 W KINZIE ST", 
    "YEAR": 2010, 
    "LONGITUDE": -87.663819487, 
    "LATTITUDE": 41.888984832
  }, 
  {
    "BUSINESS_TYPE": "Performing Arts Venue", 
    "LEGAL_NAME": "THE UNIVERSITY OF CHICAGO", 
    "STATE": "IL", 
    "DOING_BUSINESS_AS_NAME": "UNIVERSITY OF CHICAGO COURT THEATRE", 
    "POP_AT_RISK": 43898, 
    "ZIP": 60637, 
    "ADDRESS": "5535 S ELLIS AVE", 
    "YEAR": 2010, 
    "LONGITUDE": -87.601213936, 
    "LATTITUDE": 41.793979809
  }, 
  {
    "BUSINESS_TYPE": "Performing Arts Venue", 
    "LEGAL_NAME": "THE GIFT THEATRE COMPANY", 
    "STATE": "IL", 
    "DOING_BUSINESS_AS_NAME": "THE GIFT THEATRE COMPANY", 
    "POP_AT_RISK": 41622, 
    "ZIP": 60630, 
    "ADDRESS": "4802 N MILWAUKEE AVE", 
    "YEAR": 2010, 
    "LONGITUDE": -87.760938108, 
    "LATTITUDE": 41.967890006
  }, 
  {
    "BUSINESS_TYPE": "Performing Arts Venue", 
    "LEGAL_NAME": "THE DEN THEATRE CHICAGO, LLC", 
    "STATE": "IL", 
    "DOING_BUSINESS_AS_NAME": "THE DEN THEATRE", 
    "POP_AT_RISK": 57211, 
    "ZIP": 60642, 
    "ADDRESS": "1333 N MILWAUKEE AVE 2 2", 
    "YEAR": 2010, 
    "LONGITUDE": -87.670646024, 
    "LATTITUDE": 41.906162866
  }
]