[
  {
    "BUSINESS_TYPE": "Board-Up Work", 
    "LEGAL_NAME": "ADVANCE GLASS SERVICE INC.", 
    "STATE": "IL", 
    "DOING_BUSINESS_AS_NAME": "ADVANCE GLASS SERVICE INC.", 
    "POP_AT_RISK": 52898, 
    "ZIP": 60641, 
    "ADDRESS": "5112 W IRVING PARK RD 1ST", 
    "YEAR": 2006, 
    "LONGITUDE": -87.755226537, 
    "LATTITUDE": 41.953432222
  }, 
  {
    "BUSINESS_TYPE": "Board-Up Work", 
    "LEGAL_NAME": "LIGHTNING BOARDUP CORPORATION", 
    "STATE": "IL", 
    "DOING_BUSINESS_AS_NAME": "LIGHTNING BOARDUP CORPORATION", 
    "POP_AT_RISK": 17056, 
    "ZIP": 60638, 
    "ADDRESS": "6201 W 65TH ST", 
    "YEAR": 2006, 
    "LONGITUDE": -87.776353701, 
    "LATTITUDE": 41.774000947
  }, 
  {
    "BUSINESS_TYPE": "Board-Up Work", 
    "LEGAL_NAME": "A EMERGENCY FIRE-BOARD UP, INC.", 
    "STATE": "IL", 
    "DOING_BUSINESS_AS_NAME": "A Emergency Services and Restoration, Inc.", 
    "POP_AT_RISK": 56571, 
    "ZIP": 60618, 
    "ADDRESS": "3101 N WESTERN AVE", 
    "YEAR": 2006, 
    "LONGITUDE": -87.687739473, 
    "LATTITUDE": 41.937689624
  }, 
  {
    "BUSINESS_TYPE": "Board-Up Work", 
    "LEGAL_NAME": "AAA ALLIED BOARD UP & GLASS INC.", 
    "STATE": "IL", 
    "DOING_BUSINESS_AS_NAME": "AAA ALLIED BD - UP & GLASS", 
    "POP_AT_RISK": 31977, 
    "ZIP": 60646, 
    "ADDRESS": "5738 N ELSTON AVE", 
    "YEAR": 2006, 
    "LONGITUDE": -87.769831773, 
    "LATTITUDE": 41.985663512
  }, 
  {
    "BUSINESS_TYPE": "Board-Up Work", 
    "LEGAL_NAME": "ROBERT A LOWE", 
    "STATE": "IL", 
    "DOING_BUSINESS_AS_NAME": "A-ROYAL GLASS AND BOARD-UP", 
    "POP_AT_RISK": 26756, 
    "ZIP": 60707, 
    "ADDRESS": "2405 N NEVA AVE", 
    "YEAR": 2006, 
    "LONGITUDE": -87.804248288, 
    "LATTITUDE": 41.923880435
  }, 
  {
    "BUSINESS_TYPE": "Board-Up Work", 
    "LEGAL_NAME": "ACE BOARD-UP COMPANY INC", 
    "STATE": "IL", 
    "DOING_BUSINESS_AS_NAME": "ACE BOARD-UP COMPANY", 
    "POP_AT_RISK": 30761, 
    "ZIP": 60630, 
    "ADDRESS": "5460 N MILWAUKEE AVE", 
    "YEAR": 2006, 
    "LONGITUDE": -87.772539486, 
    "LATTITUDE": 41.980733083
  }, 
  {
    "BUSINESS_TYPE": "Board-Up Work", 
    "LEGAL_NAME": "RESTORE BOARD-UP CO., INC.", 
    "STATE": "IL", 
    "DOING_BUSINESS_AS_NAME": "RESTORE BOARD - UP INC.", 
    "POP_AT_RISK": 60216, 
    "ZIP": 60639, 
    "ADDRESS": "4447 W CORTLAND ST 1ST", 
    "YEAR": 2006, 
    "LONGITUDE": -87.738148401, 
    "LATTITUDE": 41.915093322
  }, 
  {
    "BUSINESS_TYPE": "Board-Up Work", 
    "LEGAL_NAME": "ERS BOARD UP,INC.", 
    "STATE": "IL", 
    "DOING_BUSINESS_AS_NAME": "ERS BOARD UP INC.", 
    "POP_AT_RISK": 59030, 
    "ZIP": 60639, 
    "ADDRESS": "4910 W GRAND AVE", 
    "YEAR": 2006, 
    "LONGITUDE": -87.749617648, 
    "LATTITUDE": 41.915470756
  }, 
  {
    "BUSINESS_TYPE": "Board-Up Work", 
    "LEGAL_NAME": "HERMON TONEY JR", 
    "STATE": "IL", 
    "DOING_BUSINESS_AS_NAME": "H T 'S DISCOUNT GLASS CO", 
    "POP_AT_RISK": 47316, 
    "ZIP": 60624, 
    "ADDRESS": "4255 W KINZIE ST 1ST", 
    "YEAR": 2006, 
    "LONGITUDE": -87.732961743, 
    "LATTITUDE": 41.887587775
  }
]