[
  {
    "BUSINESS_TYPE": "Secondhand Dealer", 
    "LEGAL_NAME": "MY SISTER'S CLOSET, LTD.", 
    "STATE": "IL", 
    "DOING_BUSINESS_AS_NAME": "MY SISTER'S CLOSET", 
    "POP_AT_RISK": 17956, 
    "ZIP": 60646, 
    "ADDRESS": "5413 W DEVON AVE 1ST", 
    "YEAR": 2007, 
    "LONGITUDE": -87.764322939, 
    "LATTITUDE": 41.997218562
  }, 
  {
    "BUSINESS_TYPE": "Secondhand Dealer", 
    "LEGAL_NAME": "BLOCKBUSTER INC.", 
    "STATE": "IL", 
    "DOING_BUSINESS_AS_NAME": "BLOCKBUSTER VIDEO #17320", 
    "POP_AT_RISK": 22813, 
    "ZIP": 60638, 
    "ADDRESS": "5907 S ARCHER AVE", 
    "YEAR": 2007, 
    "LONGITUDE": -87.763123506, 
    "LATTITUDE": 41.795485521
  }, 
  {
    "BUSINESS_TYPE": "Secondhand Dealer", 
    "LEGAL_NAME": "CHICAGO COMPUTER CLUB, CORP.", 
    "STATE": "IL", 
    "DOING_BUSINESS_AS_NAME": "CHICAGO COMPUTER CLUB", 
    "POP_AT_RISK": 31326, 
    "ZIP": 60616, 
    "ADDRESS": "329 E 35TH ST 1", 
    "YEAR": 2007, 
    "LONGITUDE": -87.618075932, 
    "LATTITUDE": 41.830986703
  }, 
  {
    "BUSINESS_TYPE": "Secondhand Dealer", 
    "LEGAL_NAME": "BLOCKBUSTER INC.", 
    "STATE": "IL", 
    "DOING_BUSINESS_AS_NAME": "BLOCKBUSTER VIDEO #17046", 
    "POP_AT_RISK": 33756, 
    "ZIP": 60630, 
    "ADDRESS": "5316 N MILWAUKEE AVE", 
    "YEAR": 2007, 
    "LONGITUDE": -87.769074312, 
    "LATTITUDE": 41.976936888
  }, 
  {
    "BUSINESS_TYPE": "Secondhand Dealer", 
    "LEGAL_NAME": "ANTONIO T LEGRIER", 
    "STATE": "IL", 
    "DOING_BUSINESS_AS_NAME": "T-TOP FURNISHING", 
    "POP_AT_RISK": 44111, 
    "ZIP": 60624, 
    "ADDRESS": "347 S PULASKI RD 1ST FLOOR", 
    "YEAR": 2007, 
    "LONGITUDE": -87.725354051, 
    "LATTITUDE": 41.875757161
  }, 
  {
    "BUSINESS_TYPE": "Secondhand Dealer", 
    "LEGAL_NAME": "HOLLYWOOD ENTERTAINMENT CORPORATION", 
    "STATE": "IL", 
    "DOING_BUSINESS_AS_NAME": "HOLLYWOOD VIDEO #013-926", 
    "POP_AT_RISK": 23244, 
    "ZIP": 60707, 
    "ADDRESS": "6432 W NORTH AVE", 
    "YEAR": 2007, 
    "LONGITUDE": -87.786426616, 
    "LATTITUDE": 41.90924111
  }, 
  {
    "BUSINESS_TYPE": "Secondhand Dealer", 
    "LEGAL_NAME": "GAMESTOP, INC.", 
    "STATE": "IL", 
    "DOING_BUSINESS_AS_NAME": "GAMESTOP #1570", 
    "POP_AT_RISK": 43909, 
    "ZIP": 60649, 
    "ADDRESS": "7131 S JEFFERY BLVD", 
    "YEAR": 2007, 
    "LONGITUDE": -87.576133104, 
    "LATTITUDE": 41.765189524
  }, 
  {
    "BUSINESS_TYPE": "Secondhand Dealer", 
    "LEGAL_NAME": "REO MOVERS & VAN LINES, INC.", 
    "STATE": "IL", 
    "DOING_BUSINESS_AS_NAME": "REO MOVERS & VAN LINES", 
    "POP_AT_RISK": 35442, 
    "ZIP": 60637, 
    "ADDRESS": "7000 S SOUTH CHICAGO AVE 1ST", 
    "YEAR": 2007, 
    "LONGITUDE": -87.608573155, 
    "LATTITUDE": 41.76785686
  }, 
  {
    "BUSINESS_TYPE": "Secondhand Dealer", 
    "LEGAL_NAME": "HOLLYWOOD ENTERTAINMENT CORPORATION", 
    "STATE": "IL", 
    "DOING_BUSINESS_AS_NAME": "GAME CRAZY #113950", 
    "POP_AT_RISK": 26743, 
    "ZIP": 60628, 
    "ADDRESS": "11438 S MICHIGAN AVE  MAIN", 
    "YEAR": 2007, 
    "LONGITUDE": -87.620973181, 
    "LATTITUDE": 41.685954108
  }, 
  {
    "BUSINESS_TYPE": "Secondhand Dealer", 
    "LEGAL_NAME": "HARDWARE SOLUTIONS CORPORATION", 
    "STATE": "IL", 
    "DOING_BUSINESS_AS_NAME": "HARDWARE SOLUTIONS CORPORATION", 
    "POP_AT_RISK": 22217, 
    "ZIP": 60638, 
    "ADDRESS": "6537 W 63RD ST 1ST FLOOR", 
    "YEAR": 2007, 
    "LONGITUDE": -87.785224313, 
    "LATTITUDE": 41.777508689
  }, 
  {
    "BUSINESS_TYPE": "Secondhand Dealer", 
    "LEGAL_NAME": "BLOCKBUSTER INC.", 
    "STATE": "IL", 
    "DOING_BUSINESS_AS_NAME": "BLOCKBUSTER VIDEO #17370", 
    "POP_AT_RISK": 12033, 
    "ZIP": 60656, 
    "ADDRESS": "4626 N CUMBERLAND AVE", 
    "YEAR": 2007, 
    "LONGITUDE": -87.836838655, 
    "LATTITUDE": 41.963837023
  }, 
  {
    "BUSINESS_TYPE": "Secondhand Dealer", 
    "LEGAL_NAME": "GAMESTOP, INC.", 
    "STATE": "IL", 
    "DOING_BUSINESS_AS_NAME": "GAMESTOP #573", 
    "POP_AT_RISK": 17656, 
    "ZIP": 60652, 
    "ADDRESS": "7945 S CICERO AVE", 
    "YEAR": 2007, 
    "LONGITUDE": -87.741158465, 
    "LATTITUDE": 41.748194203
  }, 
  {
    "BUSINESS_TYPE": "Secondhand Dealer", 
    "LEGAL_NAME": "CHARLES BERG JR.", 
    "STATE": "IL", 
    "DOING_BUSINESS_AS_NAME": "STAMP KING", 
    "POP_AT_RISK": 24680, 
    "ZIP": 60656, 
    "ADDRESS": "7137-7139 W HIGGINS AVE 1", 
    "YEAR": 2007, 
    "LONGITUDE": -87.806071262, 
    "LATTITUDE": 41.980808777
  }, 
  {
    "BUSINESS_TYPE": "Secondhand Dealer", 
    "LEGAL_NAME": "WORLD COINS & ANTIQUES CORP", 
    "STATE": "IL", 
    "DOING_BUSINESS_AS_NAME": "WORLD COINS & ANTIQUES CORP", 
    "POP_AT_RISK": 44070, 
    "ZIP": 60634, 
    "ADDRESS": "6053 W IRVING PARK RD", 
    "YEAR": 2007, 
    "LONGITUDE": -87.778921414, 
    "LATTITUDE": 41.952906894
  }, 
  {
    "BUSINESS_TYPE": "Secondhand Dealer", 
    "LEGAL_NAME": "SELECT FURNITURE INC.", 
    "STATE": "IL", 
    "DOING_BUSINESS_AS_NAME": "SELECT FURNITURE INC", 
    "POP_AT_RISK": 29055, 
    "ZIP": 60620, 
    "ADDRESS": "9401 S ASHLAND AVE", 
    "YEAR": 2007, 
    "LONGITUDE": -87.662569845, 
    "LATTITUDE": 41.722943435
  }, 
  {
    "BUSINESS_TYPE": "Secondhand Dealer", 
    "LEGAL_NAME": "MARGARET A. CATO", 
    "STATE": "IL", 
    "DOING_BUSINESS_AS_NAME": "CATO'S RESALE SHOP", 
    "POP_AT_RISK": 30068, 
    "ZIP": 60643, 
    "ADDRESS": "9912 S VINCENNES AVE 1ST", 
    "YEAR": 2007, 
    "LONGITUDE": -87.653625279, 
    "LATTITUDE": 41.713667681
  }, 
  {
    "BUSINESS_TYPE": "Secondhand Dealer", 
    "LEGAL_NAME": "GAMESTOP, INC.", 
    "STATE": "IL", 
    "DOING_BUSINESS_AS_NAME": "GAMESTOP #1569", 
    "POP_AT_RISK": 22258, 
    "ZIP": 60609, 
    "ADDRESS": "5401 S WENTWORTH AVE", 
    "YEAR": 2007, 
    "LONGITUDE": -87.630404924, 
    "LATTITUDE": 41.796234875
  }, 
  {
    "BUSINESS_TYPE": "Secondhand Dealer", 
    "LEGAL_NAME": "HELIX LIMITED", 
    "STATE": "IL", 
    "DOING_BUSINESS_AS_NAME": "HELIX LIMITED-COLOR SERVICE- SPEEDOTRON CORP", 
    "POP_AT_RISK": 39868, 
    "ZIP": 60607, 
    "ADDRESS": "310 S RACINE AVE 1-4", 
    "YEAR": 2007, 
    "LONGITUDE": -87.657157985, 
    "LATTITUDE": 41.877430702
  }, 
  {
    "BUSINESS_TYPE": "Secondhand Dealer", 
    "LEGAL_NAME": "MADISON STREET GOLD EXCHANGE, INC.", 
    "STATE": "IL", 
    "DOING_BUSINESS_AS_NAME": "MADISON STREET GOLD EXCHANGE INC", 
    "POP_AT_RISK": 48029, 
    "ZIP": 60644, 
    "ADDRESS": "5134 W MADISON ST", 
    "YEAR": 2007, 
    "LONGITUDE": -87.754031383, 
    "LATTITUDE": 41.880495475
  }, 
  {
    "BUSINESS_TYPE": "Secondhand Dealer", 
    "LEGAL_NAME": "ELVIRA ROSE MAURICIO", 
    "STATE": "IL", 
    "DOING_BUSINESS_AS_NAME": "CASA MAURICIO", 
    "POP_AT_RISK": 47021, 
    "ZIP": 60608, 
    "ADDRESS": "1956 W 21ST PL 1ST", 
    "YEAR": 2007, 
    "LONGITUDE": -87.675673808, 
    "LATTITUDE": 41.853208159
  }, 
  {
    "BUSINESS_TYPE": "Secondhand Dealer", 
    "LEGAL_NAME": "NANCY ELLA SMITH", 
    "STATE": "IL", 
    "DOING_BUSINESS_AS_NAME": "THE FURNITURE EDGE", 
    "POP_AT_RISK": 37537, 
    "ZIP": 60619, 
    "ADDRESS": "449 E 79TH ST", 
    "YEAR": 2007, 
    "LONGITUDE": -87.612978895, 
    "LATTITUDE": 41.751041828
  }, 
  {
    "BUSINESS_TYPE": "Secondhand Dealer", 
    "LEGAL_NAME": "SHIRLEY MCGARY", 
    "STATE": "IL", 
    "DOING_BUSINESS_AS_NAME": "LANDMARK LIQUIDATIONS", 
    "POP_AT_RISK": 27135, 
    "ZIP": 60621, 
    "ADDRESS": "5853 S HALSTED ST", 
    "YEAR": 2007, 
    "LONGITUDE": -87.644828446, 
    "LATTITUDE": 41.787243514
  }, 
  {
    "BUSINESS_TYPE": "Secondhand Dealer", 
    "LEGAL_NAME": "BLOCKBUSTER INC.", 
    "STATE": "IL", 
    "DOING_BUSINESS_AS_NAME": "BLOCKBUSTER VIDEO #17446", 
    "POP_AT_RISK": 34675, 
    "ZIP": 60628, 
    "ADDRESS": "11107 S HALSTED ST 1ST", 
    "YEAR": 2007, 
    "LONGITUDE": -87.64222571, 
    "LATTITUDE": 41.692097716
  }, 
  {
    "BUSINESS_TYPE": "Secondhand Dealer", 
    "LEGAL_NAME": "MICRO THREAD CORPORATION", 
    "STATE": "IL", 
    "DOING_BUSINESS_AS_NAME": "FIRST DYNASTY IMPORTS", 
    "POP_AT_RISK": 23928, 
    "ZIP": 60631, 
    "ADDRESS": "6250 N NORTHWEST HWY", 
    "YEAR": 2007, 
    "LONGITUDE": -87.803838904, 
    "LATTITUDE": 41.995073611
  }, 
  {
    "BUSINESS_TYPE": "Secondhand Dealer", 
    "LEGAL_NAME": "GAMESTOP, INC.", 
    "STATE": "IL", 
    "DOING_BUSINESS_AS_NAME": "GAMESTOP #476", 
    "POP_AT_RISK": 31157, 
    "ZIP": 60607, 
    "ADDRESS": "1252 S CANAL ST", 
    "YEAR": 2007, 
    "LONGITUDE": -87.639348601, 
    "LATTITUDE": 41.865808024
  }, 
  {
    "BUSINESS_TYPE": "Secondhand Dealer", 
    "LEGAL_NAME": "TWOSTEP INCORPORATED", 
    "STATE": "IL", 
    "DOING_BUSINESS_AS_NAME": "TWOSTEP INCORPORATED", 
    "POP_AT_RISK": 38029, 
    "ZIP": 60653, 
    "ADDRESS": "1120 E 47TH ST", 
    "YEAR": 2007, 
    "LONGITUDE": -87.598391061, 
    "LATTITUDE": 41.809734083
  }, 
  {
    "BUSINESS_TYPE": "Secondhand Dealer", 
    "LEGAL_NAME": "A NICHE IN TIME, INC", 
    "STATE": "IL", 
    "DOING_BUSINESS_AS_NAME": "A NICHE IN TIME ANTIQUES & COL", 
    "POP_AT_RISK": 26137, 
    "ZIP": 60631, 
    "ADDRESS": "6052 N AVONDALE AVE 1ST", 
    "YEAR": 2007, 
    "LONGITUDE": -87.799546882, 
    "LATTITUDE": 41.991161792
  }, 
  {
    "BUSINESS_TYPE": "Secondhand Dealer", 
    "LEGAL_NAME": "SERGIO V. JEWELRY, LTD.", 
    "STATE": "IL", 
    "DOING_BUSINESS_AS_NAME": "SERGIO VAZQUEZ", 
    "POP_AT_RISK": 62644, 
    "ZIP": 60629, 
    "ADDRESS": "3143 W 63RD ST 1ST", 
    "YEAR": 2007, 
    "LONGITUDE": -87.702397905, 
    "LATTITUDE": 41.778872897
  }, 
  {
    "BUSINESS_TYPE": "Secondhand Dealer", 
    "LEGAL_NAME": "KYU CHUL CHOI", 
    "STATE": "IL", 
    "DOING_BUSINESS_AS_NAME": "TCS WIRELESS", 
    "POP_AT_RISK": 37746, 
    "ZIP": 60636, 
    "ADDRESS": "6230 S ASHLAND AVE 1ST", 
    "YEAR": 2007, 
    "LONGITUDE": -87.66438884, 
    "LATTITUDE": 41.780348801
  }, 
  {
    "BUSINESS_TYPE": "Secondhand Dealer", 
    "LEGAL_NAME": "SUZANNE LAZER", 
    "STATE": "IL", 
    "DOING_BUSINESS_AS_NAME": "THE ANTIQUE & RESALE SHOPPE", 
    "POP_AT_RISK": 13900, 
    "ZIP": 60631, 
    "ADDRESS": "7214 N HARLEM AVE 1ST", 
    "YEAR": 2007, 
    "LONGITUDE": -87.806779876, 
    "LATTITUDE": 42.012198711
  }, 
  {
    "BUSINESS_TYPE": "Secondhand Dealer", 
    "LEGAL_NAME": "RUSSELL  A.  RICOBENE", 
    "STATE": "IL", 
    "DOING_BUSINESS_AS_NAME": "RUSSELL  A. RICOBENE", 
    "POP_AT_RISK": 32959, 
    "ZIP": 60616, 
    "ADDRESS": "268 W 26TH ST 1ST", 
    "YEAR": 2007, 
    "LONGITUDE": -87.634594271, 
    "LATTITUDE": 41.845595732
  }
]