[
  {
    "BUSINESS_TYPE": "Retail Food Establishment", 
    "LEGAL_NAME": "CD CAFE, INC.", 
    "STATE": "IL", 
    "DOING_BUSINESS_AS_NAME": "AJ'S SPORT BAR & GRILL", 
    "POP_AT_RISK": 24029, 
    "ZIP": 60638, 
    "ADDRESS": "5978 S ARCHER AVE", 
    "YEAR": 1998, 
    "LONGITUDE": -87.76581798, 
    "LATTITUDE": 41.7952982
  }, 
  {
    "BUSINESS_TYPE": "Retail Food Establishment", 
    "LEGAL_NAME": "ABEL BEKKOUCHE", 
    "STATE": "IL", 
    "DOING_BUSINESS_AS_NAME": "BONJOUR BAKERY", 
    "POP_AT_RISK": 37901, 
    "ZIP": 60615, 
    "ADDRESS": "1550 E 55TH ST", 
    "YEAR": 1998, 
    "LONGITUDE": -87.587880176, 
    "LATTITUDE": 41.795297878
  }, 
  {
    "BUSINESS_TYPE": "Retail Food Establishment", 
    "LEGAL_NAME": "JANIE V CANNON", 
    "STATE": "IL", 
    "DOING_BUSINESS_AS_NAME": "JANIE'S SOUL FOOD EXPRESS", 
    "POP_AT_RISK": 36596, 
    "ZIP": 60621, 
    "ADDRESS": "7351 S HALSTED ST 1ST", 
    "YEAR": 1998, 
    "LONGITUDE": -87.64413579, 
    "LATTITUDE": 41.760063417
  }, 
  {
    "BUSINESS_TYPE": "Retail Food Establishment", 
    "LEGAL_NAME": "LEONA'S PIZZERIA, INC.", 
    "STATE": "IL", 
    "DOING_BUSINESS_AS_NAME": "LEONA'S PIZZERIA, INC.", 
    "POP_AT_RISK": 40277, 
    "ZIP": 60615, 
    "ADDRESS": "1236 E 53RD ST", 
    "YEAR": 1998, 
    "LONGITUDE": -87.595108943, 
    "LATTITUDE": 41.799582012
  }, 
  {
    "BUSINESS_TYPE": "Retail Food Establishment", 
    "LEGAL_NAME": "AHMED SYED", 
    "STATE": "IL", 
    "DOING_BUSINESS_AS_NAME": "BANDA NAWAZ RESTAURANT", 
    "POP_AT_RISK": 81489, 
    "ZIP": 60610, 
    "ADDRESS": "1156 N ORLEANS ST 1ST", 
    "YEAR": 1998, 
    "LONGITUDE": -87.637591017, 
    "LATTITUDE": 41.903702112
  }, 
  {
    "BUSINESS_TYPE": "Retail Food Establishment", 
    "LEGAL_NAME": "HUNG VU PALACE INC", 
    "STATE": "IL", 
    "DOING_BUSINESS_AS_NAME": "HUNG VVOUNG PALACE", 
    "POP_AT_RISK": 70926, 
    "ZIP": 60640, 
    "ADDRESS": "4801 N BROADWAY  1ST", 
    "YEAR": 1998, 
    "LONGITUDE": -87.659525381, 
    "LATTITUDE": 41.969088855
  }, 
  {
    "BUSINESS_TYPE": "Retail Food Establishment", 
    "LEGAL_NAME": "ZINES & BEANS INC", 
    "STATE": "IL", 
    "DOING_BUSINESS_AS_NAME": "ZINES & BEANS INC", 
    "POP_AT_RISK": 59707, 
    "ZIP": 60614, 
    "ADDRESS": "934 W WEBSTER AVE", 
    "YEAR": 1998, 
    "LONGITUDE": -87.652423053, 
    "LATTITUDE": 41.921866539
  }, 
  {
    "BUSINESS_TYPE": "Retail Food Establishment", 
    "LEGAL_NAME": "SARA AGUILERA", 
    "STATE": "IL", 
    "DOING_BUSINESS_AS_NAME": "EL BUEN GUSTO", 
    "POP_AT_RISK": 40921, 
    "ZIP": 60608, 
    "ADDRESS": "116 S SOUTH WATER MARKET  1ST", 
    "YEAR": 1998, 
    "LONGITUDE": -87.654644456, 
    "LATTITUDE": 41.862199013
  }, 
  {
    "BUSINESS_TYPE": "Retail Food Establishment", 
    "LEGAL_NAME": "RICARDO AVELAR", 
    "STATE": "IL", 
    "DOING_BUSINESS_AS_NAME": "BURRITO KING/FRIED CHICKEN", 
    "POP_AT_RISK": 46860, 
    "ZIP": 60639, 
    "ADDRESS": "6000 W GRAND AVE  1", 
    "YEAR": 1998, 
    "LONGITUDE": -87.775630269, 
    "LATTITUDE": 41.920676631
  }, 
  {
    "BUSINESS_TYPE": "Retail Food Establishment", 
    "LEGAL_NAME": "SISTERS CHICKEN 'N' PIG INN IN", 
    "STATE": "IL", 
    "DOING_BUSINESS_AS_NAME": "SISTERS CHICKEN 'N' PIG INN IN", 
    "POP_AT_RISK": 29068, 
    "ZIP": 60652, 
    "ADDRESS": "2601 W 79TH ST  1", 
    "YEAR": 1998, 
    "LONGITUDE": -87.687900202, 
    "LATTITUDE": 41.749854146
  }, 
  {
    "BUSINESS_TYPE": "Retail Food Establishment", 
    "LEGAL_NAME": "JESSE LEE DAVIS", 
    "STATE": "IL", 
    "DOING_BUSINESS_AS_NAME": "MADISON FOOD MARKET", 
    "POP_AT_RISK": 45685, 
    "ZIP": 60644, 
    "ADDRESS": "4803 W MADISON ST 1ST", 
    "YEAR": 1998, 
    "LONGITUDE": -87.745470743, 
    "LATTITUDE": 41.880385804
  }, 
  {
    "BUSINESS_TYPE": "Retail Food Establishment", 
    "LEGAL_NAME": "RISHI PHARMACY INC", 
    "STATE": "IL", 
    "DOING_BUSINESS_AS_NAME": "RISHI PHARMACY", 
    "POP_AT_RISK": 49607, 
    "ZIP": 60651, 
    "ADDRESS": "4909 W DIVISION ST", 
    "YEAR": 1998, 
    "LONGITUDE": -87.74884541, 
    "LATTITUDE": 41.902212301
  }, 
  {
    "BUSINESS_TYPE": "Retail Food Establishment", 
    "LEGAL_NAME": "PANCHALI INC", 
    "STATE": "IL", 
    "DOING_BUSINESS_AS_NAME": "EAST WEST BANGLA BAZAR", 
    "POP_AT_RISK": 68043, 
    "ZIP": 60659, 
    "ADDRESS": "2321 W DEVON AVE 1ST", 
    "YEAR": 1998, 
    "LONGITUDE": -87.688345379, 
    "LATTITUDE": 41.997645671
  }, 
  {
    "BUSINESS_TYPE": "Retail Food Establishment", 
    "LEGAL_NAME": "BRIAN BISHOP/DAVID RUFFALO", 
    "STATE": "IL", 
    "DOING_BUSINESS_AS_NAME": "BISHOLOS PIZZA", 
    "POP_AT_RISK": 36715, 
    "ZIP": 60629, 
    "ADDRESS": "6255 S KEELER AVE 1ST", 
    "YEAR": 1998, 
    "LONGITUDE": -87.727503463, 
    "LATTITUDE": 41.77875068
  }, 
  {
    "BUSINESS_TYPE": "Retail Food Establishment", 
    "LEGAL_NAME": "NEW OUTDOOR CAFE", 
    "STATE": "IL", 
    "DOING_BUSINESS_AS_NAME": "NEW OUTDOOR CAFE", 
    "POP_AT_RISK": 56081, 
    "ZIP": 60659, 
    "ADDRESS": "3257 W BRYN MAWR AVE  1ST", 
    "YEAR": 1998, 
    "LONGITUDE": -87.711152513, 
    "LATTITUDE": 41.982931134
  }, 
  {
    "BUSINESS_TYPE": "Retail Food Establishment", 
    "LEGAL_NAME": "DONGSHENG JIN", 
    "STATE": "IL", 
    "DOING_BUSINESS_AS_NAME": "PASS HEALTH FOODS", 
    "POP_AT_RISK": 54343, 
    "ZIP": 60632, 
    "ADDRESS": "3250 W 55TH ST", 
    "YEAR": 1998, 
    "LONGITUDE": -87.705552441, 
    "LATTITUDE": 41.79359401
  }, 
  {
    "BUSINESS_TYPE": "Retail Food Establishment", 
    "LEGAL_NAME": "SABA AHMED", 
    "STATE": "IL", 
    "DOING_BUSINESS_AS_NAME": "A & B DELITE-CARRY-OUTS", 
    "POP_AT_RISK": 25432, 
    "ZIP": 60628, 
    "ADDRESS": "10043 S HALSTED ST", 
    "YEAR": 1998, 
    "LONGITUDE": -87.642793683, 
    "LATTITUDE": 41.711100819
  }, 
  {
    "BUSINESS_TYPE": "Retail Food Establishment", 
    "LEGAL_NAME": "AR & IR, INC.", 
    "STATE": "IL", 
    "DOING_BUSINESS_AS_NAME": "SALSA BORRACHA / MAMBO CLUB", 
    "POP_AT_RISK": 60298, 
    "ZIP": 60641, 
    "ADDRESS": "3336-3342 N MILWAUKEE AVE 1ST", 
    "YEAR": 1998, 
    "LONGITUDE": -87.728338222, 
    "LATTITUDE": 41.941691571
  }, 
  {
    "BUSINESS_TYPE": "Retail Food Establishment", 
    "LEGAL_NAME": "HOST INTERNATIONAL, INC.", 
    "STATE": "IL", 
    "DOING_BUSINESS_AS_NAME": "AUNTIE ANNE'S", 
    "POP_AT_RISK": 4956, 
    "ZIP": 60666, 
    "ADDRESS": "11601 W TOUHY AVE  G CON", 
    "YEAR": 1998, 
    "LONGITUDE": -87.914428439, 
    "LATTITUDE": 42.008536401
  }, 
  {
    "BUSINESS_TYPE": "Retail Food Establishment", 
    "LEGAL_NAME": "T P C AQUISITION INC", 
    "STATE": "IL", 
    "DOING_BUSINESS_AS_NAME": "THE CHICAGO FISH HOUSE", 
    "POP_AT_RISK": 44233, 
    "ZIP": 60661, 
    "ADDRESS": "655-657 W FULTON MARKET", 
    "YEAR": 1998, 
    "LONGITUDE": -87.644947906, 
    "LATTITUDE": 41.886694575
  }, 
  {
    "BUSINESS_TYPE": "Retail Food Establishment", 
    "LEGAL_NAME": "JAMES THOMAS", 
    "STATE": "IL", 
    "DOING_BUSINESS_AS_NAME": "CC & XT DELI & SWEET SHOP", 
    "POP_AT_RISK": 52340, 
    "ZIP": 60623, 
    "ADDRESS": "4156 W CERMAK RD", 
    "YEAR": 1998, 
    "LONGITUDE": -87.729454013, 
    "LATTITUDE": 41.851589883
  }, 
  {
    "BUSINESS_TYPE": "Retail Food Establishment", 
    "LEGAL_NAME": "CARNICERIA TEPECOA GUERRERO, LTD.", 
    "STATE": "IL", 
    "DOING_BUSINESS_AS_NAME": "CARNICERIA TEPECOA GUERRERO", 
    "POP_AT_RISK": 47604, 
    "ZIP": 60608, 
    "ADDRESS": "1645 W 18TH ST", 
    "YEAR": 1998, 
    "LONGITUDE": -87.668042431, 
    "LATTITUDE": 41.85765499
  }, 
  {
    "BUSINESS_TYPE": "Retail Food Establishment", 
    "LEGAL_NAME": "NABIL HUSSEIN", 
    "STATE": "IL", 
    "DOING_BUSINESS_AS_NAME": "8959 FAMILY MARKET", 
    "POP_AT_RISK": 17702, 
    "ZIP": 60617, 
    "ADDRESS": "8959 S COMMERCIAL AVE", 
    "YEAR": 1998, 
    "LONGITUDE": -87.551151884, 
    "LATTITUDE": 41.731994897
  }, 
  {
    "BUSINESS_TYPE": "Retail Food Establishment", 
    "LEGAL_NAME": "ROSA G SILVA", 
    "STATE": "IL", 
    "DOING_BUSINESS_AS_NAME": "LOS AMIGOS", 
    "POP_AT_RISK": 59249, 
    "ZIP": 60629, 
    "ADDRESS": "2737 W 63RD ST 1ST", 
    "YEAR": 1998, 
    "LONGITUDE": -87.692401944, 
    "LATTITUDE": 41.779020343
  }, 
  {
    "BUSINESS_TYPE": "Retail Food Establishment", 
    "LEGAL_NAME": "JULIO'S ROTISSERIE & GRILL INC", 
    "STATE": "IL", 
    "DOING_BUSINESS_AS_NAME": "JULIO'S ROTISSERIE & GRILL", 
    "POP_AT_RISK": 6516, 
    "ZIP": 60617, 
    "ADDRESS": "10616 S TORRENCE AVE", 
    "YEAR": 1998, 
    "LONGITUDE": -87.559740711, 
    "LATTITUDE": 41.702238584
  }, 
  {
    "BUSINESS_TYPE": "Retail Food Establishment", 
    "LEGAL_NAME": "MY RAY INC", 
    "STATE": "IL", 
    "DOING_BUSINESS_AS_NAME": "MICK'S ITALIAN BEEF", 
    "POP_AT_RISK": 23286, 
    "ZIP": 60643, 
    "ADDRESS": "1767 W 95TH ST 1ST", 
    "YEAR": 1998, 
    "LONGITUDE": -87.66739768, 
    "LATTITUDE": 41.721038459
  }, 
  {
    "BUSINESS_TYPE": "Retail Food Establishment", 
    "LEGAL_NAME": "JEHAD W KHOURY", 
    "STATE": "IL", 
    "DOING_BUSINESS_AS_NAME": "TASTEE FREEZ", 
    "POP_AT_RISK": 60508, 
    "ZIP": 60618, 
    "ADDRESS": "3674 N ELSTON AVE 1ST", 
    "YEAR": 1998, 
    "LONGITUDE": -87.711101939, 
    "LATTITUDE": 41.948021436
  }, 
  {
    "BUSINESS_TYPE": "Retail Food Establishment", 
    "LEGAL_NAME": "CAFEFINO, INC", 
    "STATE": "IL", 
    "DOING_BUSINESS_AS_NAME": "FINO CAPPUCCINO & CAFE", 
    "POP_AT_RISK": 41876, 
    "ZIP": 60641, 
    "ADDRESS": "4128 N MILWAUKEE AVE", 
    "YEAR": 1998, 
    "LONGITUDE": -87.750620918, 
    "LATTITUDE": 41.955972618
  }, 
  {
    "BUSINESS_TYPE": "Retail Food Establishment", 
    "LEGAL_NAME": "PEDRO BERRUN", 
    "STATE": "IL", 
    "DOING_BUSINESS_AS_NAME": "MI LINDO PALMAR", 
    "POP_AT_RISK": 73905, 
    "ZIP": 60618, 
    "ADDRESS": "3125 W MONTROSE AVE  STORE", 
    "YEAR": 1998, 
    "LONGITUDE": -87.706804886, 
    "LATTITUDE": 41.961085496
  }, 
  {
    "BUSINESS_TYPE": "Retail Food Establishment", 
    "LEGAL_NAME": "DUNAJEC INC", 
    "STATE": "IL", 
    "DOING_BUSINESS_AS_NAME": "DUNAJEC INC", 
    "POP_AT_RISK": 39342, 
    "ZIP": 60632, 
    "ADDRESS": "5060 S ARCHER AVE", 
    "YEAR": 1998, 
    "LONGITUDE": -87.726919248, 
    "LATTITUDE": 41.801266887
  }, 
  {
    "BUSINESS_TYPE": "Retail Food Establishment", 
    "LEGAL_NAME": "DINING HERITAGE INC.", 
    "STATE": "IL", 
    "DOING_BUSINESS_AS_NAME": "CARDOZO'S PUB", 
    "POP_AT_RISK": 52635, 
    "ZIP": 60602, 
    "ADDRESS": "170 W WASHINGTON ST  BASEMENT", 
    "YEAR": 1998, 
    "LONGITUDE": -87.633024284, 
    "LATTITUDE": 41.883317261
  }, 
  {
    "BUSINESS_TYPE": "Retail Food Establishment", 
    "LEGAL_NAME": "J C LOZANO & D D LOPEZ", 
    "STATE": "IL", 
    "DOING_BUSINESS_AS_NAME": "TAQUERIA EL GALLO BRAVO", 
    "POP_AT_RISK": 71764, 
    "ZIP": 60625, 
    "ADDRESS": "4753 N WESTERN AVE", 
    "YEAR": 1998, 
    "LONGITUDE": -87.688751562, 
    "LATTITUDE": 41.968302631
  }, 
  {
    "BUSINESS_TYPE": "Retail Food Establishment", 
    "LEGAL_NAME": "JUVENTINO MONTES DE OCA", 
    "STATE": "IL", 
    "DOING_BUSINESS_AS_NAME": "EL TORITO RESTAURANT Y TAQUERI", 
    "POP_AT_RISK": 70680, 
    "ZIP": 60613, 
    "ADDRESS": "1825 W MONTROSE AVE", 
    "YEAR": 1998, 
    "LONGITUDE": -87.675476113, 
    "LATTITUDE": 41.961392151
  }, 
  {
    "BUSINESS_TYPE": "Retail Food Establishment", 
    "LEGAL_NAME": "SUAVE'", 
    "STATE": "IL", 
    "DOING_BUSINESS_AS_NAME": "SUAVE'", 
    "POP_AT_RISK": 36543, 
    "ZIP": 60629, 
    "ADDRESS": "2656 W 71ST ST", 
    "YEAR": 1998, 
    "LONGITUDE": -87.69044084, 
    "LATTITUDE": 41.764689318
  }
]