[
  {
    "BUSINESS_TYPE": "Valet Parking Operator", 
    "LEGAL_NAME": "ADMIRAL THEATRE, INC.", 
    "STATE": "IL", 
    "DOING_BUSINESS_AS_NAME": "ADMIRAL THEATRE", 
    "POP_AT_RISK": 67391, 
    "ZIP": 60625, 
    "ADDRESS": "3940 W LAWRENCE AVE 1ST", 
    "YEAR": 2011, 
    "LONGITUDE": -87.727266537, 
    "LATTITUDE": 41.968359543
  }, 
  {
    "BUSINESS_TYPE": "Valet Parking Operator", 
    "LEGAL_NAME": "CATERING CONCEPTS CORPORATION", 
    "STATE": "IL", 
    "DOING_BUSINESS_AS_NAME": "GALA BANQUETS", 
    "POP_AT_RISK": 27547, 
    "ZIP": 60646, 
    "ADDRESS": "5639 N MILWAUKEE AVE  NORTH", 
    "YEAR": 2011, 
    "LONGITUDE": -87.775172469, 
    "LATTITUDE": 41.984010866
  }, 
  {
    "BUSINESS_TYPE": "Valet Parking Operator", 
    "LEGAL_NAME": "TOWNE PARK, LLC", 
    "STATE": "IL", 
    "DOING_BUSINESS_AS_NAME": "TOWNE PARK LTD/ADVOCATE TRINITY HOSPITAL", 
    "POP_AT_RISK": 20644, 
    "ZIP": 60617, 
    "ADDRESS": "2320 E 93RD ST", 
    "YEAR": 2011, 
    "LONGITUDE": -87.567270908, 
    "LATTITUDE": 41.726329231
  }, 
  {
    "BUSINESS_TYPE": "Valet Parking Operator", 
    "LEGAL_NAME": "MIDWEST VALET, INC.", 
    "STATE": "IL", 
    "DOING_BUSINESS_AS_NAME": "MIDWEST VALET, INC./ LAZO\"S TACO RESTAURANT", 
    "POP_AT_RISK": 57961, 
    "ZIP": 60647, 
    "ADDRESS": "2009 N WESTERN AVE", 
    "YEAR": 2011, 
    "LONGITUDE": -87.687271758, 
    "LATTITUDE": 41.917883177
  }, 
  {
    "BUSINESS_TYPE": "Valet Parking Operator", 
    "LEGAL_NAME": "BLK & WHT VALET, LLC", 
    "STATE": "IL", 
    "DOING_BUSINESS_AS_NAME": "BLK & WHT VALET LLC/ TURQUIOSE", 
    "POP_AT_RISK": 57400, 
    "ZIP": 60618, 
    "ADDRESS": "2147 W ROSCOE ST", 
    "YEAR": 2011, 
    "LONGITUDE": -87.682735396, 
    "LATTITUDE": 41.943054831
  }, 
  {
    "BUSINESS_TYPE": "Valet Parking Operator", 
    "LEGAL_NAME": "ADVANTAGE VALET PARKING, INC.", 
    "STATE": "IL", 
    "DOING_BUSINESS_AS_NAME": "ADVANTAGE VALET INC/ RESURRECTION HOSPITAL", 
    "POP_AT_RISK": 21744, 
    "ZIP": 60631, 
    "ADDRESS": "7447 W TALCOTT AVE", 
    "YEAR": 2011, 
    "LONGITUDE": -87.813309051, 
    "LATTITUDE": 41.988741562
  }, 
  {
    "BUSINESS_TYPE": "Valet Parking Operator", 
    "LEGAL_NAME": "ADVANTAGE VALET PARKING, INC.", 
    "STATE": "IL", 
    "DOING_BUSINESS_AS_NAME": "ADVANTAGE VALET PARKING INC/ ADVOCATE HEALTH CENTER", 
    "POP_AT_RISK": 16885, 
    "ZIP": 60643, 
    "ADDRESS": "9831 S WESTERN AVE", 
    "YEAR": 2011, 
    "LONGITUDE": -87.681720596, 
    "LATTITUDE": 41.714554471
  }, 
  {
    "BUSINESS_TYPE": "Valet Parking Operator", 
    "LEGAL_NAME": "MILE HI VALET SERVICE INC", 
    "STATE": "IL", 
    "DOING_BUSINESS_AS_NAME": "MILE HI VALET SERVICE/  Chicago Marriott Ohare", 
    "POP_AT_RISK": 15633, 
    "ZIP": 60631, 
    "ADDRESS": "8535 W HIGGINS RD", 
    "YEAR": 2011, 
    "LONGITUDE": -87.840124173, 
    "LATTITUDE": 41.986788586
  }, 
  {
    "BUSINESS_TYPE": "Valet Parking Operator", 
    "LEGAL_NAME": "ADVANTAGE VALET PARKING, INC.", 
    "STATE": "IL", 
    "DOING_BUSINESS_AS_NAME": "ADVANTAGE VALET PARKING / RESURRECTION ST ELIZABETH HOSPITAL", 
    "POP_AT_RISK": 69479, 
    "ZIP": 60622, 
    "ADDRESS": "1431 N CLAREMONT AVE", 
    "YEAR": 2011, 
    "LONGITUDE": -87.685785759, 
    "LATTITUDE": 41.907627208
  }, 
  {
    "BUSINESS_TYPE": "Valet Parking Operator", 
    "LEGAL_NAME": "LAKE SHORE PARKING VALET SERVICES INC.", 
    "STATE": "IL", 
    "DOING_BUSINESS_AS_NAME": "LAKE SHORE PARKING VALET SERVICES INC./MI TIERRA", 
    "POP_AT_RISK": 61495, 
    "ZIP": 60623, 
    "ADDRESS": "2528 S KEDZIE AVE", 
    "YEAR": 2011, 
    "LONGITUDE": -87.705214285, 
    "LATTITUDE": 41.845451414
  }, 
  {
    "BUSINESS_TYPE": "Valet Parking Operator", 
    "LEGAL_NAME": "BWR BRIDGEPORT, LLC.", 
    "STATE": "IL", 
    "DOING_BUSINESS_AS_NAME": "BUFFALO WINGS AND RINGS", 
    "POP_AT_RISK": 39618, 
    "ZIP": 60608, 
    "ADDRESS": "3434 S HALSTED ST 1", 
    "YEAR": 2011, 
    "LONGITUDE": -87.646276392, 
    "LATTITUDE": 41.831724396
  }, 
  {
    "BUSINESS_TYPE": "Valet Parking Operator", 
    "LEGAL_NAME": "SHAY'S VALET PARKING, INC.", 
    "STATE": "IL", 
    "DOING_BUSINESS_AS_NAME": "SHAY'S VALET PARKING, INC.", 
    "POP_AT_RISK": 70926, 
    "ZIP": 60640, 
    "ADDRESS": "4810 N BROADWAY", 
    "YEAR": 2011, 
    "LONGITUDE": -87.659826569, 
    "LATTITUDE": 41.969357482
  }, 
  {
    "BUSINESS_TYPE": "Valet Parking Operator", 
    "LEGAL_NAME": "ADVANTAGE VALET PARKING, INC.", 
    "STATE": "IL", 
    "DOING_BUSINESS_AS_NAME": "ADVANTAGE VALET/ JESSE BROWN VA HOSPITAL", 
    "POP_AT_RISK": 27045, 
    "ZIP": 60612, 
    "ADDRESS": "820 S DAMEN AVE", 
    "YEAR": 2011, 
    "LONGITUDE": -87.67651265, 
    "LATTITUDE": 41.870889496
  }, 
  {
    "BUSINESS_TYPE": "Valet Parking Operator", 
    "LEGAL_NAME": "SP PLUS CORPORATION", 
    "STATE": "IL", 
    "DOING_BUSINESS_AS_NAME": "Standard Parking/Mercy Hospital", 
    "POP_AT_RISK": 43937, 
    "ZIP": 60616, 
    "ADDRESS": "2525 S MICHIGAN AVE", 
    "YEAR": 2011, 
    "LONGITUDE": -87.623369728, 
    "LATTITUDE": 41.846716957
  }, 
  {
    "BUSINESS_TYPE": "Valet Parking Operator", 
    "LEGAL_NAME": "BLK & WHT VALET, LLC", 
    "STATE": "IL", 
    "DOING_BUSINESS_AS_NAME": "BL & WHT VALET LLC/ BLUE BAYOU", 
    "POP_AT_RISK": 78865, 
    "ZIP": 60613, 
    "ADDRESS": "3734 N SOUTHPORT AVE", 
    "YEAR": 2011, 
    "LONGITUDE": -87.664243426, 
    "LATTITUDE": 41.949939203
  }, 
  {
    "BUSINESS_TYPE": "Valet Parking Operator", 
    "LEGAL_NAME": "VPS OF ILLINOIS LLC", 
    "STATE": "IL", 
    "DOING_BUSINESS_AS_NAME": "ARUN'S", 
    "POP_AT_RISK": 76310, 
    "ZIP": 60618, 
    "ADDRESS": "4156 N KEDZIE AVE", 
    "YEAR": 2011, 
    "LONGITUDE": -87.708271832, 
    "LATTITUDE": 41.957447282
  }, 
  {
    "BUSINESS_TYPE": "Valet Parking Operator", 
    "LEGAL_NAME": "ROSAL'S CUCINA, INC.", 
    "STATE": "IL", 
    "DOING_BUSINESS_AS_NAME": "ROSAL'S CUCINA", 
    "POP_AT_RISK": 44997, 
    "ZIP": 60607, 
    "ADDRESS": "1154 W TAYLOR ST 1ST AND 2ND", 
    "YEAR": 2011, 
    "LONGITUDE": -87.656429865, 
    "LATTITUDE": 41.869530715
  }
]