[
  {
    "BUSINESS_TYPE": "Caterer's Liquor License", 
    "LEGAL_NAME": "SARANECKI BROS. CATERING, INC.", 
    "STATE": "IL", 
    "DOING_BUSINESS_AS_NAME": "GARDEN MANOR", 
    "POP_AT_RISK": 64704, 
    "ZIP": 60639, 
    "ADDRESS": "4720 - 4726 W ARMITAGE AVE 1", 
    "YEAR": 2005, 
    "LONGITUDE": -87.744568256, 
    "LATTITUDE": 41.917060365
  }, 
  {
    "BUSINESS_TYPE": "Caterer's Liquor License", 
    "LEGAL_NAME": "2416 W SCHUBERT, INC.", 
    "STATE": "IL", 
    "DOING_BUSINESS_AS_NAME": "FAT WILLY'S RIB SHACK", 
    "POP_AT_RISK": 54196, 
    "ZIP": 60647, 
    "ADDRESS": "2416-2422 W SCHUBERT AVE", 
    "YEAR": 2005, 
    "LONGITUDE": -87.688580255, 
    "LATTITUDE": 41.930454015
  }, 
  {
    "BUSINESS_TYPE": "Caterer's Liquor License", 
    "LEGAL_NAME": "C'EST SI BON LTD.", 
    "STATE": "IL", 
    "DOING_BUSINESS_AS_NAME": "C'EST SI BON LTD", 
    "POP_AT_RISK": 38939, 
    "ZIP": 60615, 
    "ADDRESS": "5225 S HARPER AVE 2", 
    "YEAR": 2005, 
    "LONGITUDE": -87.588918284, 
    "LATTITUDE": 41.800186333
  }, 
  {
    "BUSINESS_TYPE": "Caterer's Liquor License", 
    "LEGAL_NAME": "LEONA'S PIZZERIA, INC.", 
    "STATE": "IL", 
    "DOING_BUSINESS_AS_NAME": "LEONAS", 
    "POP_AT_RISK": 15322, 
    "ZIP": 60617, 
    "ADDRESS": "9156 S STONY ISLAND AVE", 
    "YEAR": 2005, 
    "LONGITUDE": -87.585580361, 
    "LATTITUDE": 41.727952378
  }, 
  {
    "BUSINESS_TYPE": "Caterer's Liquor License", 
    "LEGAL_NAME": "CONNIE'S PIZZA, INC.", 
    "STATE": "IL", 
    "DOING_BUSINESS_AS_NAME": "CONNIE'S PIZZA", 
    "POP_AT_RISK": 35832, 
    "ZIP": 60616, 
    "ADDRESS": "2373 S ARCHER AVE 1ST", 
    "YEAR": 2005, 
    "LONGITUDE": -87.641058402, 
    "LATTITUDE": 41.849379215
  }, 
  {
    "BUSINESS_TYPE": "Caterer's Liquor License", 
    "LEGAL_NAME": "THE BLUE PENGUIN, LTD.", 
    "STATE": "IL", 
    "DOING_BUSINESS_AS_NAME": "CHIVE", 
    "POP_AT_RISK": 69941, 
    "ZIP": 60622, 
    "ADDRESS": "1924 W DIVISION ST  1ST", 
    "YEAR": 2005, 
    "LONGITUDE": -87.675825455, 
    "LATTITUDE": 41.90332445
  }, 
  {
    "BUSINESS_TYPE": "Caterer's Liquor License", 
    "LEGAL_NAME": "CONN'S CAFE AND CATERING INC.", 
    "STATE": "IL", 
    "DOING_BUSINESS_AS_NAME": "CONN'S CAFE & CATERING INC", 
    "POP_AT_RISK": 73420, 
    "ZIP": 60660, 
    "ADDRESS": "1535 W DEVON AVE 1ST", 
    "YEAR": 2005, 
    "LONGITUDE": -87.66910712, 
    "LATTITUDE": 41.997985219
  }, 
  {
    "BUSINESS_TYPE": "Caterer's Liquor License", 
    "LEGAL_NAME": "SARANECKI BROS. CATERING, INC.", 
    "STATE": "IL", 
    "DOING_BUSINESS_AS_NAME": "GARDEN TERRACE", 
    "POP_AT_RISK": 38072, 
    "ZIP": 60634, 
    "ADDRESS": "6328-30 W IRVING PARK RD 1", 
    "YEAR": 2005, 
    "LONGITUDE": -87.785300491, 
    "LATTITUDE": 41.953041956
  }, 
  {
    "BUSINESS_TYPE": "Caterer's Liquor License", 
    "LEGAL_NAME": "GAETANO'S, INC.", 
    "STATE": "IL", 
    "DOING_BUSINESS_AS_NAME": "MANZO'S RISTORANTE", 
    "POP_AT_RISK": 70243, 
    "ZIP": 60618, 
    "ADDRESS": "3210 W IRVING PARK RD", 
    "YEAR": 2005, 
    "LONGITUDE": -87.708471176, 
    "LATTITUDE": 41.954026285
  }, 
  {
    "BUSINESS_TYPE": "Caterer's Liquor License", 
    "LEGAL_NAME": "SUPAROSSA ON WESTERN INC.", 
    "STATE": "IL", 
    "DOING_BUSINESS_AS_NAME": "PETE'S PIZZA", 
    "POP_AT_RISK": 65249, 
    "ZIP": 60618, 
    "ADDRESS": "3737 N WESTERN AVE", 
    "YEAR": 2005, 
    "LONGITUDE": -87.688192141, 
    "LATTITUDE": 41.949664551
  }, 
  {
    "BUSINESS_TYPE": "Caterer's Liquor License", 
    "LEGAL_NAME": "BRIDGEPORT U.S.A. CORPORATION", 
    "STATE": "IL", 
    "DOING_BUSINESS_AS_NAME": "POLO CAFE AND CATERING BRIDGEPORT U.S.A.", 
    "POP_AT_RISK": 40251, 
    "ZIP": 60608, 
    "ADDRESS": "3322 S MORGAN ST", 
    "YEAR": 2005, 
    "LONGITUDE": -87.651182688, 
    "LATTITUDE": 41.833618869
  }, 
  {
    "BUSINESS_TYPE": "Caterer's Liquor License", 
    "LEGAL_NAME": "LAGO VENTURES INCORPORATED", 
    "STATE": "IL", 
    "DOING_BUSINESS_AS_NAME": "LAGO BANQUETS", 
    "POP_AT_RISK": 55898, 
    "ZIP": 60639, 
    "ADDRESS": "6121 W DIVERSEY AVE # 1ST", 
    "YEAR": 2005, 
    "LONGITUDE": -87.779234714, 
    "LATTITUDE": 41.93098196
  }, 
  {
    "BUSINESS_TYPE": "Caterer's Liquor License", 
    "LEGAL_NAME": "PRIME FOOD CATERERS, INCORPORATED", 
    "STATE": "IL", 
    "DOING_BUSINESS_AS_NAME": "PRIME FOOD CATERERS, INCORPORATED", 
    "POP_AT_RISK": 49690, 
    "ZIP": 60639, 
    "ADDRESS": "5643 W NORTH AVE 1", 
    "YEAR": 2005, 
    "LONGITUDE": -87.767516565, 
    "LATTITUDE": 41.909241879
  }, 
  {
    "BUSINESS_TYPE": "Caterer's Liquor License", 
    "LEGAL_NAME": "UPGRADE INC.", 
    "STATE": "IL", 
    "DOING_BUSINESS_AS_NAME": "BISTRO 90", 
    "POP_AT_RISK": 24478, 
    "ZIP": 60631, 
    "ADDRESS": "8201 W HIGGINS RD", 
    "YEAR": 2005, 
    "LONGITUDE": -87.832152076, 
    "LATTITUDE": 41.985651578
  }, 
  {
    "BUSINESS_TYPE": "Caterer's Liquor License", 
    "LEGAL_NAME": "ROME'S JOY CATERING, INC.", 
    "STATE": "IL", 
    "DOING_BUSINESS_AS_NAME": "ROME'S JOY CATERING INC.", 
    "POP_AT_RISK": 34836, 
    "ZIP": 60653, 
    "ADDRESS": "4455 S DR MARTIN LUTHER KING JR DR 1", 
    "YEAR": 2005, 
    "LONGITUDE": -87.616549207, 
    "LATTITUDE": 41.813215318
  }, 
  {
    "BUSINESS_TYPE": "Caterer's Liquor License", 
    "LEGAL_NAME": "M & W CATERERS CORP.", 
    "STATE": "IL", 
    "DOING_BUSINESS_AS_NAME": "MASTER CATERING", 
    "POP_AT_RISK": 43486, 
    "ZIP": 60612, 
    "ADDRESS": "2100 W GRAND AVE 1ST", 
    "YEAR": 2005, 
    "LONGITUDE": -87.679477443, 
    "LATTITUDE": 41.890891771
  }, 
  {
    "BUSINESS_TYPE": "Caterer's Liquor License", 
    "LEGAL_NAME": "GABI CABRERA, INC.", 
    "STATE": "IL", 
    "DOING_BUSINESS_AS_NAME": "LALO'S MEXICAN RESTAURANT", 
    "POP_AT_RISK": 38248, 
    "ZIP": 60607, 
    "ADDRESS": "733 W MAXWELL ST", 
    "YEAR": 2005, 
    "LONGITUDE": -87.646365856, 
    "LATTITUDE": 41.864681242
  }, 
  {
    "BUSINESS_TYPE": "Caterer's Liquor License", 
    "LEGAL_NAME": "HANNAH'S RESTAURANT INC.", 
    "STATE": "IL", 
    "DOING_BUSINESS_AS_NAME": "DEBBIE'S CATERING CHICAGO", 
    "POP_AT_RISK": 61704, 
    "ZIP": 60640, 
    "ADDRESS": "5207 N CLARK ST  1", 
    "YEAR": 2005, 
    "LONGITUDE": -87.668269791, 
    "LATTITUDE": 41.97643833
  }, 
  {
    "BUSINESS_TYPE": "Caterer's Liquor License", 
    "LEGAL_NAME": "420 1/2 CORPORATION", 
    "STATE": "IL", 
    "DOING_BUSINESS_AS_NAME": "DUFFY'S TAVERN & GRILLE", 
    "POP_AT_RISK": 72951, 
    "ZIP": 60614, 
    "ADDRESS": "420 1/2 W DIVERSEY PKWY", 
    "YEAR": 2005, 
    "LONGITUDE": -87.640186291, 
    "LATTITUDE": 41.9330041
  }, 
  {
    "BUSINESS_TYPE": "Caterer's Liquor License", 
    "LEGAL_NAME": "THE SPOKEN WORD CORPORATION", 
    "STATE": "IL", 
    "DOING_BUSINESS_AS_NAME": "SPOKEN WORD CAFE", 
    "POP_AT_RISK": 36969, 
    "ZIP": 60653, 
    "ADDRESS": "4655 S DR MARTIN LUTHER KING JR DR", 
    "YEAR": 2005, 
    "LONGITUDE": -87.616446776, 
    "LATTITUDE": 41.809567038
  }, 
  {
    "BUSINESS_TYPE": "Caterer's Liquor License", 
    "LEGAL_NAME": "TAILGATORS ON NORTHWEST HIGHWAY, INC.", 
    "STATE": "IL", 
    "DOING_BUSINESS_AS_NAME": "TAILGATORS", 
    "POP_AT_RISK": 18918, 
    "ZIP": 60631, 
    "ADDRESS": "6726 N NORTHWEST HWY", 
    "YEAR": 2005, 
    "LONGITUDE": -87.817158397, 
    "LATTITUDE": 42.003270634
  }
]