[
{"STATE":"IL","ZIP":60646,"LATTITUDE":42.011897249984614,"ADDRESS":"6145 W TOUHY AVE 1ST ","YEAR":2014,"DOING_BUSINESS_AS_NAME":"4 HERMANOS TOO","POP_AT_RISK":10753,"BUSINESS_TYPE":"Retail Food Establishment","LEGAL_NAME":"ERIC ESCOBAR","LONGITUDE":-87.78101877448346},
{"STATE":"IL","ZIP":60655,"LATTITUDE":41.69867524086993,"ADDRESS":"10657 S PULASKI RD 1ST ","YEAR":2014,"DOING_BUSINESS_AS_NAME":"OPEN PANTRY","POP_AT_RISK":26751,"BUSINESS_TYPE":"Retail Food Establishment","LEGAL_NAME":"FAMILY PANTRY INC","LONGITUDE":-87.72049485543255},
{"STATE":"IL","ZIP":60638,"LATTITUDE":41.77415695093783,"ADDRESS":"6316-6318 W 65TH ST 1ST ","YEAR":2014,"DOING_BUSINESS_AS_NAME":"LAST CALL LOUNGE","POP_AT_RISK":22742,"BUSINESS_TYPE":"Retail Food Establishment","LEGAL_NAME":"LAST CALL LOUNGE INC","LONGITUDE":-87.77940788571328},
{"STATE":"IL","ZIP":60652,"LATTITUDE":41.73524227693795,"ADDRESS":"8639 S CICERO AVE  ","YEAR":2014,"DOING_BUSINESS_AS_NAME":"CVS\/PHARMACY #2846","POP_AT_RISK":23923,"BUSINESS_TYPE":"Retail Food Establishment","LEGAL_NAME":"HIGHLAND PARK CVS, L.L.C.","LONGITUDE":-87.74084401681829},
{"STATE":"IL","ZIP":60656,"LATTITUDE":41.973400958457454,"ADDRESS":"9440 W FOSTER AVE  ","YEAR":2014,"DOING_BUSINESS_AS_NAME":"MARIA'S MEXICAN RESTURANT","POP_AT_RISK":28998,"BUSINESS_TYPE":"Retail Food Establishment","LEGAL_NAME":"LUNA RESTAURANT CORPORATION","LONGITUDE":-87.86302998092812},
{"STATE":"IL","ZIP":60655,"LATTITUDE":41.68399181564351,"ADDRESS":"4200 W 115TH ST  ","YEAR":2014,"DOING_BUSINESS_AS_NAME":"QUEST FOOD MANAGEMENT SERVICE","POP_AT_RISK":12920,"BUSINESS_TYPE":"Retail Food Establishment","LEGAL_NAME":"QUEST FOOD MANAGEMENT SERVICES, INC.","LONGITUDE":-87.72501727575752},
{}]