[
  {
    "BUSINESS_TYPE": "Motor Vehicle Services License", 
    "LEGAL_NAME": "THOMAS PAUL JONES", 
    "STATE": "IL", 
    "DOING_BUSINESS_AS_NAME": "PAUL JONES TIRE REPAIR", 
    "POP_AT_RISK": 39686, 
    "ZIP": 60653, 
    "ADDRESS": "636 E 43RD ST 1ST", 
    "YEAR": 2014, 
    "LONGITUDE": -87.610264146, 
    "LATTITUDE": 41.816863888
  }, 
  {
    "BUSINESS_TYPE": "Motor Vehicle Services License", 
    "LEGAL_NAME": "CENTRAL AND CALDWELL SERVICE", 
    "STATE": "IL", 
    "DOING_BUSINESS_AS_NAME": "CENTRAL AND CALDWELL SERVICE", 
    "POP_AT_RISK": 17956, 
    "ZIP": 60646, 
    "ADDRESS": "6301 N CENTRAL AVE", 
    "YEAR": 2014, 
    "LONGITUDE": -87.764049237, 
    "LATTITUDE": 41.996166548
  }, 
  {
    "BUSINESS_TYPE": "Motor Vehicle Services License", 
    "LEGAL_NAME": "LINDSAY ENTERPRISES, INC.", 
    "STATE": "IL", 
    "DOING_BUSINESS_AS_NAME": "BRONZEVILLE AUTO REPAIR", 
    "POP_AT_RISK": 31681, 
    "ZIP": 60616, 
    "ADDRESS": "460 E 35TH ST 1", 
    "YEAR": 2014, 
    "LONGITUDE": -87.614614185, 
    "LATTITUDE": 41.831303367
  }, 
  {
    "BUSINESS_TYPE": "Motor Vehicle Services License", 
    "LEGAL_NAME": "ESHA KHOSHABA KENDO", 
    "STATE": "IL", 
    "DOING_BUSINESS_AS_NAME": "DOWNTOWN AUTO & TIRE SERVICE", 
    "POP_AT_RISK": 42798, 
    "ZIP": 60605, 
    "ADDRESS": "700 S CLARK ST 1ST", 
    "YEAR": 2014, 
    "LONGITUDE": -87.630787816, 
    "LATTITUDE": 41.873310733
  }, 
  {
    "BUSINESS_TYPE": "Motor Vehicle Services License", 
    "LEGAL_NAME": "SNAPPY CAR WASH, INC.", 
    "STATE": "IL", 
    "DOING_BUSINESS_AS_NAME": "SNAPPY CAR WASH, INC.", 
    "POP_AT_RISK": 17974, 
    "ZIP": 60646, 
    "ADDRESS": "6152 N PULASKI RD", 
    "YEAR": 2014, 
    "LONGITUDE": -87.729030335, 
    "LATTITUDE": 41.993437462
  }, 
  {
    "BUSINESS_TYPE": "Motor Vehicle Services License", 
    "LEGAL_NAME": "MGS CAR REPAIR & BODY WORK INC.", 
    "STATE": "IL", 
    "DOING_BUSINESS_AS_NAME": "MGS CAR REPAIR & BODY WORK INC.", 
    "POP_AT_RISK": 8263, 
    "ZIP": 60656, 
    "ADDRESS": "5200-5202 N WESLEY TER 1ST", 
    "YEAR": 2014, 
    "LONGITUDE": -87.864215489, 
    "LATTITUDE": 41.973290116
  }, 
  {
    "BUSINESS_TYPE": "Motor Vehicle Services License", 
    "LEGAL_NAME": "BEST BUY STORES, L.P.", 
    "STATE": "IL", 
    "DOING_BUSINESS_AS_NAME": "BEST BUY", 
    "POP_AT_RISK": 83837, 
    "ZIP": 60614, 
    "ADDRESS": "2650 N CLARK ST", 
    "YEAR": 2014, 
    "LONGITUDE": -87.644135436, 
    "LATTITUDE": 41.930833014
  }, 
  {
    "BUSINESS_TYPE": "Motor Vehicle Services License", 
    "LEGAL_NAME": "GUS KATSENIS", 
    "STATE": "IL", 
    "DOING_BUSINESS_AS_NAME": "TRIANGLE SERVICE", 
    "POP_AT_RISK": 3373, 
    "ZIP": 60827, 
    "ADDRESS": "13701 S INDIANA AVE 1ST", 
    "YEAR": 2014, 
    "LONGITUDE": -87.617083427, 
    "LATTITUDE": 41.646616135
  }, 
  {
    "BUSINESS_TYPE": "Motor Vehicle Services License", 
    "LEGAL_NAME": "AUTOPOL CAR CARE INC", 
    "STATE": "IL", 
    "DOING_BUSINESS_AS_NAME": "AUTOPOL CAR CARE, INC.", 
    "POP_AT_RISK": 24680, 
    "ZIP": 60656, 
    "ADDRESS": "7045 W HIGGINS AVE 1ST", 
    "YEAR": 2014, 
    "LONGITUDE": -87.804123351, 
    "LATTITUDE": 41.980383035
  }
]