[
  {
    "BUSINESS_TYPE": "Tobacco Vending, Individual", 
    "LEGAL_NAME": "SABATINOS INC", 
    "STATE": "IL", 
    "DOING_BUSINESS_AS_NAME": "SABATINOS INC", 
    "POP_AT_RISK": 50642, 
    "ZIP": 60641, 
    "ADDRESS": "4441-4443 W IRVING PARK RD", 
    "YEAR": 2001, 
    "LONGITUDE": -87.739602226, 
    "LATTITUDE": 41.953402857
  }, 
  {
    "BUSINESS_TYPE": "Tobacco Vending, Individual", 
    "LEGAL_NAME": "ANTONINO SCIANNA", 
    "STATE": "IL", 
    "DOING_BUSINESS_AS_NAME": "FULLERTON CALIFORNIA", 
    "POP_AT_RISK": 67708, 
    "ZIP": 60647, 
    "ADDRESS": "2811 W FULLERTON AVE 1ST", 
    "YEAR": 2001, 
    "LONGITUDE": -87.69786462, 
    "LATTITUDE": 41.924692767
  }, 
  {
    "BUSINESS_TYPE": "Tobacco Vending, Individual", 
    "LEGAL_NAME": "MAO INC.", 
    "STATE": "IL", 
    "DOING_BUSINESS_AS_NAME": "WABASH TAP", 
    "POP_AT_RISK": 39491, 
    "ZIP": 60605, 
    "ADDRESS": "1233 S WABASH AVE 1ST", 
    "YEAR": 2001, 
    "LONGITUDE": -87.625663198, 
    "LATTITUDE": 41.866520396
  }, 
  {
    "BUSINESS_TYPE": "Tobacco Vending, Individual", 
    "LEGAL_NAME": "2356 CLUB INC", 
    "STATE": "IL", 
    "DOING_BUSINESS_AS_NAME": "SABRINA'S CLUB", 
    "POP_AT_RISK": 43141, 
    "ZIP": 60608, 
    "ADDRESS": "2356 S DAMEN AVE", 
    "YEAR": 2001, 
    "LONGITUDE": -87.675897599, 
    "LATTITUDE": 41.848647892
  }, 
  {
    "BUSINESS_TYPE": "Tobacco Vending, Individual", 
    "LEGAL_NAME": "THE PEEK INN INC", 
    "STATE": "IL", 
    "DOING_BUSINESS_AS_NAME": "THE PEEK INN", 
    "POP_AT_RISK": 68998, 
    "ZIP": 60618, 
    "ADDRESS": "2825 W IRVING PARK RD", 
    "YEAR": 2001, 
    "LONGITUDE": -87.699316732, 
    "LATTITUDE": 41.953858398
  }, 
  {
    "BUSINESS_TYPE": "Tobacco Vending, Individual", 
    "LEGAL_NAME": "GAMA INC", 
    "STATE": "IL", 
    "DOING_BUSINESS_AS_NAME": "ROSEBUD CAFE", 
    "POP_AT_RISK": 40177, 
    "ZIP": 60607, 
    "ADDRESS": "1500 W TAYLOR ST 1ST", 
    "YEAR": 2001, 
    "LONGITUDE": -87.66419709, 
    "LATTITUDE": 41.869409054
  }
]