[
  {
    "BUSINESS_TYPE": "Street Performer", 
    "LEGAL_NAME": "ELTON RAJIV OROZCO", 
    "STATE": "IL", 
    "DOING_BUSINESS_AS_NAME": "ELTON RAJIV OROZCO", 
    "POP_AT_RISK": 66927, 
    "ZIP": 60641, 
    "ADDRESS": "2923 N LUNA AVE", 
    "YEAR": 2014, 
    "LONGITUDE": -87.764958744, 
    "LATTITUDE": 41.933835112
  }, 
  {
    "BUSINESS_TYPE": "Street Performer", 
    "LEGAL_NAME": "PIERRE H JONES", 
    "STATE": "IL", 
    "DOING_BUSINESS_AS_NAME": "PIERRE H JONES", 
    "POP_AT_RISK": 31286, 
    "ZIP": 60621, 
    "ADDRESS": "1016 W 57TH ST", 
    "YEAR": 2014, 
    "LONGITUDE": -87.650715542, 
    "LATTITUDE": 41.790695278
  }, 
  {
    "BUSINESS_TYPE": "Street Performer", 
    "LEGAL_NAME": "JAMES MICHAEL FARLEY", 
    "STATE": "IL", 
    "DOING_BUSINESS_AS_NAME": "JAMES MICHAEL FARLEY", 
    "POP_AT_RISK": 29673, 
    "ZIP": 60643, 
    "ADDRESS": "1104 W 103RD PL", 
    "YEAR": 2014, 
    "LONGITUDE": -87.650373061, 
    "LATTITUDE": 41.706049857
  }, 
  {
    "BUSINESS_TYPE": "Street Performer", 
    "LEGAL_NAME": "JINSUK KIM", 
    "STATE": "IL", 
    "DOING_BUSINESS_AS_NAME": "JINSUK KIM", 
    "POP_AT_RISK": 32629, 
    "ZIP": 61801, 
    "ADDRESS": "901 W COLLEGE CT 11TH 1106 A", 
    "YEAR": 2014, 
    "LONGITUDE": -87.64885738, 
    "LATTITUDE": 41.86132148
  }, 
  {
    "BUSINESS_TYPE": "Street Performer", 
    "LEGAL_NAME": "WENDY A PLACEK", 
    "STATE": "IL", 
    "DOING_BUSINESS_AS_NAME": "WENDY A PLACEK", 
    "POP_AT_RISK": 47820, 
    "ZIP": 60641, 
    "ADDRESS": "5334 W BELLE PLAINE AVE", 
    "YEAR": 2014, 
    "LONGITUDE": -87.761098051, 
    "LATTITUDE": 41.955185987
  }, 
  {
    "BUSINESS_TYPE": "Street Performer", 
    "LEGAL_NAME": "JOSHUA CHAS MCCOOL", 
    "STATE": "IL", 
    "DOING_BUSINESS_AS_NAME": "JOSHUA CHAS MCCOOL", 
    "POP_AT_RISK": 29611, 
    "ZIP": 60649, 
    "ADDRESS": "7617 S SOUTH SHORE DR", 
    "YEAR": 2014, 
    "LONGITUDE": -87.554864645, 
    "LATTITUDE": 41.758499345
  }, 
  {
    "BUSINESS_TYPE": "Street Performer", 
    "LEGAL_NAME": "KEVIN A. MARTIN", 
    "STATE": "IL", 
    "DOING_BUSINESS_AS_NAME": "KEVIN A. MARTIN", 
    "POP_AT_RISK": 33801, 
    "ZIP": 60624, 
    "ADDRESS": "3834 W WEST END AVE", 
    "YEAR": 2014, 
    "LONGITUDE": -87.722115975, 
    "LATTITUDE": 41.883091494
  }, 
  {
    "BUSINESS_TYPE": "Street Performer", 
    "LEGAL_NAME": "DAVID SHAWN WILLIAMSON", 
    "STATE": "IL", 
    "DOING_BUSINESS_AS_NAME": "DAVID SHAWN WILLAIMSON", 
    "POP_AT_RISK": 23635, 
    "ZIP": 60621, 
    "ADDRESS": "7435 S WENTWORTH AVE", 
    "YEAR": 2014, 
    "LONGITUDE": -87.62948099, 
    "LATTITUDE": 41.758923082
  }, 
  {
    "BUSINESS_TYPE": "Street Performer", 
    "LEGAL_NAME": "EDGAR OMAR GUALOTO", 
    "STATE": "IL", 
    "DOING_BUSINESS_AS_NAME": "EDGAR OMAR GUALOTO", 
    "POP_AT_RISK": 35253, 
    "ZIP": 60619, 
    "ADDRESS": "7164 S SOUTH CHICAGO AVE", 
    "YEAR": 2014, 
    "LONGITUDE": -87.603861591, 
    "LATTITUDE": 41.764495782
  }, 
  {
    "BUSINESS_TYPE": "Street Performer", 
    "LEGAL_NAME": "GABRIELLA T WILLIAMS", 
    "STATE": "IL", 
    "DOING_BUSINESS_AS_NAME": "GABRIELLA T WILLIAMS", 
    "POP_AT_RISK": 48453, 
    "ZIP": 60624, 
    "ADDRESS": "3710 W POLK ST", 
    "YEAR": 2014, 
    "LONGITUDE": -87.718508758, 
    "LATTITUDE": 41.870935312
  }, 
  {
    "BUSINESS_TYPE": "Street Performer", 
    "LEGAL_NAME": "BELINDA K FULLER", 
    "STATE": "IL", 
    "DOING_BUSINESS_AS_NAME": "BELINDA K FULLER", 
    "POP_AT_RISK": 17960, 
    "ZIP": 60628, 
    "ADDRESS": "11118 S CHAMPLAIN AVE", 
    "YEAR": 2014, 
    "LONGITUDE": -87.607342324, 
    "LATTITUDE": 41.692308771
  }, 
  {
    "BUSINESS_TYPE": "Street Performer", 
    "LEGAL_NAME": "ABIMBOLA ADEMOSU", 
    "STATE": "IL", 
    "DOING_BUSINESS_AS_NAME": "ABIMBOLA ADEMOSU", 
    "POP_AT_RISK": 17702, 
    "ZIP": 60617, 
    "ADDRESS": "9177 S SOUTH CHICAGO AVE", 
    "YEAR": 2014, 
    "LONGITUDE": -87.553602648, 
    "LATTITUDE": 41.728633958
  }, 
  {
    "BUSINESS_TYPE": "Street Performer", 
    "LEGAL_NAME": "DIANE MARIE NORTH", 
    "STATE": "IL", 
    "DOING_BUSINESS_AS_NAME": "DIANE MARIE NORTH", 
    "POP_AT_RISK": 77598, 
    "ZIP": 60625, 
    "ADDRESS": "3723 W EASTWOOD AVE  1E", 
    "YEAR": 2014, 
    "LONGITUDE": -87.721692252, 
    "LATTITUDE": 41.965468882
  }, 
  {
    "BUSINESS_TYPE": "Street Performer", 
    "LEGAL_NAME": "DAVID FRANCIS VERWIEL", 
    "STATE": "IL", 
    "DOING_BUSINESS_AS_NAME": "DAVID FRANCIS VERWIEL", 
    "POP_AT_RISK": 32387, 
    "ZIP": 60612, 
    "ADDRESS": "2715 W HARRISON ST", 
    "YEAR": 2014, 
    "LONGITUDE": -87.69432297, 
    "LATTITUDE": 41.873699001
  }, 
  {
    "BUSINESS_TYPE": "Street Performer", 
    "LEGAL_NAME": "CAT M RABIN", 
    "STATE": "IL", 
    "DOING_BUSINESS_AS_NAME": "CAT M RABIN", 
    "POP_AT_RISK": 52751, 
    "ZIP": 60645, 
    "ADDRESS": "2541 W COYLE AVE BSMT", 
    "YEAR": 2014, 
    "LONGITUDE": -87.694163626, 
    "LATTITUDE": 42.007558261
  }, 
  {
    "BUSINESS_TYPE": "Street Performer", 
    "LEGAL_NAME": "JEROME IMHOTEP CROSWELL", 
    "STATE": "IL", 
    "DOING_BUSINESS_AS_NAME": "JEROME IMHOTEP CROSWELL", 
    "POP_AT_RISK": 41882, 
    "ZIP": 60615, 
    "ADDRESS": "5435 S KENWOOD AVE", 
    "YEAR": 2014, 
    "LONGITUDE": -87.593285946, 
    "LATTITUDE": 41.796958632
  }, 
  {
    "BUSINESS_TYPE": "Street Performer", 
    "LEGAL_NAME": "JORDAN M. MOORE", 
    "STATE": "IL", 
    "DOING_BUSINESS_AS_NAME": "JORDAN M MOORE", 
    "POP_AT_RISK": 44578, 
    "ZIP": 60620, 
    "ADDRESS": "1335 W 81ST ST", 
    "YEAR": 2014, 
    "LONGITUDE": -87.657421617, 
    "LATTITUDE": 41.746690916
  }, 
  {
    "BUSINESS_TYPE": "Street Performer", 
    "LEGAL_NAME": "CHARLES E HARRIS", 
    "STATE": "IL", 
    "DOING_BUSINESS_AS_NAME": "CHARLES E HARRIS", 
    "POP_AT_RISK": 39132, 
    "ZIP": 60645, 
    "ADDRESS": "2856 W LUNT AVE", 
    "YEAR": 2014, 
    "LONGITUDE": -87.701961441, 
    "LATTITUDE": 42.008525171
  }, 
  {
    "BUSINESS_TYPE": "Street Performer", 
    "LEGAL_NAME": "ANTONIO TORRES", 
    "STATE": "IL", 
    "DOING_BUSINESS_AS_NAME": "ANTONIO TORRES", 
    "POP_AT_RISK": 58944, 
    "ZIP": 60629, 
    "ADDRESS": "5537 S RICHMOND ST", 
    "YEAR": 2014, 
    "LONGITUDE": -87.697280637, 
    "LATTITUDE": 41.792520717
  }, 
  {
    "BUSINESS_TYPE": "Street Performer", 
    "LEGAL_NAME": "LOUIS S SIERRA II", 
    "STATE": "IL", 
    "DOING_BUSINESS_AS_NAME": "LOUIS S SIERRA II", 
    "POP_AT_RISK": 57732, 
    "ZIP": 60623, 
    "ADDRESS": "2835 W 22ND PL", 
    "YEAR": 2014, 
    "LONGITUDE": -87.696762895, 
    "LATTITUDE": 41.85085889
  }, 
  {
    "BUSINESS_TYPE": "Street Performer", 
    "LEGAL_NAME": "LANCE DAVID SKELTON", 
    "STATE": "IL", 
    "DOING_BUSINESS_AS_NAME": "LANCE DAVID SKELTON", 
    "POP_AT_RISK": 42037, 
    "ZIP": 60608, 
    "ADDRESS": "3222 S MORGAN ST", 
    "YEAR": 2014, 
    "LONGITUDE": -87.651226229, 
    "LATTITUDE": 41.835483631
  }, 
  {
    "BUSINESS_TYPE": "Street Performer", 
    "LEGAL_NAME": "MARIO SANDERS", 
    "STATE": "IL", 
    "DOING_BUSINESS_AS_NAME": "MARIO SANDERS", 
    "POP_AT_RISK": 27650, 
    "ZIP": 60628, 
    "ADDRESS": "34 E 100TH PL", 
    "YEAR": 2014, 
    "LONGITUDE": -87.622289877, 
    "LATTITUDE": 41.71184706
  }, 
  {
    "BUSINESS_TYPE": "Street Performer", 
    "LEGAL_NAME": "FREDERICK RILEY", 
    "STATE": "IL", 
    "DOING_BUSINESS_AS_NAME": "FREDERICK RILEY", 
    "POP_AT_RISK": 43671, 
    "ZIP": 60649, 
    "ADDRESS": "2818 E 78TH ST 2ND", 
    "YEAR": 2014, 
    "LONGITUDE": -87.556281693, 
    "LATTITUDE": 41.753787188
  }, 
  {
    "BUSINESS_TYPE": "Street Performer", 
    "LEGAL_NAME": "ISAIAH JOHNSON JR.", 
    "STATE": "IL", 
    "DOING_BUSINESS_AS_NAME": "ISAIAH JOHNSON JR.", 
    "POP_AT_RISK": 27408, 
    "ZIP": 60653, 
    "ADDRESS": "4236 S WABASH AVE  2N", 
    "YEAR": 2014, 
    "LONGITUDE": -87.624819965, 
    "LATTITUDE": 41.817220095
  }, 
  {
    "BUSINESS_TYPE": "Street Performer", 
    "LEGAL_NAME": "NOEL LOPEZ", 
    "STATE": "IL", 
    "DOING_BUSINESS_AS_NAME": "NOEL LOPEZ", 
    "POP_AT_RISK": 66083, 
    "ZIP": 60639, 
    "ADDRESS": "1851 N KARLOV AVE", 
    "YEAR": 2014, 
    "LONGITUDE": -87.728788614, 
    "LATTITUDE": 41.91500899
  }, 
  {
    "BUSINESS_TYPE": "Street Performer", 
    "LEGAL_NAME": "LONNIE STURDIVANT", 
    "STATE": "IL", 
    "DOING_BUSINESS_AS_NAME": "LONNIE STURDIVANT", 
    "POP_AT_RISK": 30997, 
    "ZIP": 60620, 
    "ADDRESS": "7520 S MORGAN ST", 
    "YEAR": 2014, 
    "LONGITUDE": -87.649206467, 
    "LATTITUDE": 41.757074994
  }, 
  {
    "BUSINESS_TYPE": "Street Performer", 
    "LEGAL_NAME": "ALAN GEIERMAN", 
    "STATE": "IL", 
    "DOING_BUSINESS_AS_NAME": "ALAN GEIERMAN", 
    "POP_AT_RISK": 46565, 
    "ZIP": 60629, 
    "ADDRESS": "3938 W 66TH PL 1 1", 
    "YEAR": 2014, 
    "LONGITUDE": -87.721717703, 
    "LATTITUDE": 41.772408585
  }, 
  {
    "BUSINESS_TYPE": "Street Performer", 
    "LEGAL_NAME": "KASUMI STEVENSON KATO", 
    "STATE": "IL", 
    "DOING_BUSINESS_AS_NAME": "KASUMI S. KATO", 
    "POP_AT_RISK": 35164, 
    "ZIP": 60607, 
    "ADDRESS": "1137 W FULTON MARKET", 
    "YEAR": 2014, 
    "LONGITUDE": -87.655909199, 
    "LATTITUDE": 41.886578453
  }, 
  {
    "BUSINESS_TYPE": "Street Performer", 
    "LEGAL_NAME": "ROBERT SPENCER WILLIAMS", 
    "STATE": "IL", 
    "DOING_BUSINESS_AS_NAME": "ROBERT SPENCER WILLIAMS", 
    "POP_AT_RISK": 36428, 
    "ZIP": 60620, 
    "ADDRESS": "8034 S EMERALD AVE", 
    "YEAR": 2014, 
    "LONGITUDE": -87.64288559, 
    "LATTITUDE": 41.747782972
  }, 
  {
    "BUSINESS_TYPE": "Street Performer", 
    "LEGAL_NAME": "JORGE URIBE", 
    "STATE": "IL", 
    "DOING_BUSINESS_AS_NAME": "JORGE URIBE", 
    "POP_AT_RISK": 54952, 
    "ZIP": 60629, 
    "ADDRESS": "6331 S KARLOV AVE", 
    "YEAR": 2014, 
    "LONGITUDE": -87.725028999, 
    "LATTITUDE": 41.777624425
  }, 
  {
    "BUSINESS_TYPE": "Street Performer", 
    "LEGAL_NAME": "DOUGLAS EDWARD BRAMMER", 
    "STATE": "IL", 
    "DOING_BUSINESS_AS_NAME": "DOUGLAS EDWARD BRAMMER", 
    "POP_AT_RISK": 20938, 
    "ZIP": 60634, 
    "ADDRESS": "3231 N ORIOLE AVE", 
    "YEAR": 2014, 
    "LONGITUDE": -87.816403911, 
    "LATTITUDE": 41.938865624
  }, 
  {
    "BUSINESS_TYPE": "Street Performer", 
    "LEGAL_NAME": "DAVID BOYKIN", 
    "STATE": "IL", 
    "DOING_BUSINESS_AS_NAME": "DAVID BOYKIN", 
    "POP_AT_RISK": 38146, 
    "ZIP": 60619, 
    "ADDRESS": "7534 S EBERHART AVE", 
    "YEAR": 2014, 
    "LONGITUDE": -87.612796349, 
    "LATTITUDE": 41.757395663
  }, 
  {
    "BUSINESS_TYPE": "Street Performer", 
    "LEGAL_NAME": "CORDERO TIERRE JOHNSON", 
    "STATE": "IL", 
    "DOING_BUSINESS_AS_NAME": "CORDERO TIERRE JOHNSON", 
    "POP_AT_RISK": 11876, 
    "ZIP": 60617, 
    "ADDRESS": "10218 S CRANDON AVE", 
    "YEAR": 2014, 
    "LONGITUDE": -87.567090725, 
    "LATTITUDE": 41.709267761
  }, 
  {
    "BUSINESS_TYPE": "Street Performer", 
    "LEGAL_NAME": "LAURENCE T. INKATHA", 
    "STATE": "IL", 
    "DOING_BUSINESS_AS_NAME": "LAURENCE T. INKATHA", 
    "POP_AT_RISK": 28236, 
    "ZIP": 60637, 
    "ADDRESS": "329 E 57TH ST 1 1", 
    "YEAR": 2014, 
    "LONGITUDE": -87.617842466, 
    "LATTITUDE": 41.791031616
  }, 
  {
    "BUSINESS_TYPE": "Street Performer", 
    "LEGAL_NAME": "JAMES ROBERT CRAVEN", 
    "STATE": "IL", 
    "DOING_BUSINESS_AS_NAME": "JAMES ROBERT CRAVEN", 
    "POP_AT_RISK": 19607, 
    "ZIP": 60643, 
    "ADDRESS": "11121 S LONGWOOD DR", 
    "YEAR": 2014, 
    "LONGITUDE": -87.671929901, 
    "LATTITUDE": 41.691227114
  }, 
  {
    "BUSINESS_TYPE": "Street Performer", 
    "LEGAL_NAME": "SHERRI HOUMADI", 
    "STATE": "IL", 
    "DOING_BUSINESS_AS_NAME": "SHERRI HOUMADI", 
    "POP_AT_RISK": 45907, 
    "ZIP": 60608, 
    "ADDRESS": "1731 W 17TH ST 1ST 6", 
    "YEAR": 2014, 
    "LONGITUDE": -87.67002198, 
    "LATTITUDE": 41.858541173
  }, 
  {
    "BUSINESS_TYPE": "Street Performer", 
    "LEGAL_NAME": "STUART D. FRANK", 
    "STATE": "IL", 
    "DOING_BUSINESS_AS_NAME": "STUART D. FRANK", 
    "POP_AT_RISK": 24342, 
    "ZIP": 60646, 
    "ADDRESS": "6037 N ELSTON AVE  B", 
    "YEAR": 2014, 
    "LONGITUDE": -87.779538444, 
    "LATTITUDE": 41.990945727
  }
]