[
  {
    "BUSINESS_TYPE": "Peddler, non-food, special", 
    "LEGAL_NAME": "ARTURO ALMEIDA", 
    "STATE": "IL", 
    "DOING_BUSINESS_AS_NAME": "ARTURO ALMEIDA", 
    "POP_AT_RISK": 44465, 
    "ZIP": 60632, 
    "ADDRESS": "4347 S ROCKWELL ST 1ST", 
    "YEAR": 2003, 
    "LONGITUDE": -87.689340768, 
    "LATTITUDE": 41.814235952
  }, 
  {
    "BUSINESS_TYPE": "Peddler, non-food, special", 
    "LEGAL_NAME": "ARMANDO JIMENEZ", 
    "STATE": "IL", 
    "DOING_BUSINESS_AS_NAME": "ARMANDO JIMENEZ", 
    "POP_AT_RISK": 51596, 
    "ZIP": 60659, 
    "ADDRESS": "5644 N MAPLEWOOD AVE 1ST", 
    "YEAR": 2003, 
    "LONGITUDE": -87.693275368, 
    "LATTITUDE": 41.984440405
  }, 
  {
    "BUSINESS_TYPE": "Peddler, non-food, special", 
    "LEGAL_NAME": "RAYMOND MACKEY", 
    "STATE": "IL", 
    "DOING_BUSINESS_AS_NAME": "RAYMOND MACKEY", 
    "POP_AT_RISK": 25486, 
    "ZIP": 60619, 
    "ADDRESS": "9404 S VERNON AVE", 
    "YEAR": 2003, 
    "LONGITUDE": -87.613122408, 
    "LATTITUDE": 41.723531239
  }, 
  {
    "BUSINESS_TYPE": "Peddler, non-food, special", 
    "LEGAL_NAME": "LEX LOWE ANDERSON", 
    "STATE": "IL", 
    "DOING_BUSINESS_AS_NAME": "GOOD SCENTS", 
    "POP_AT_RISK": 63881, 
    "ZIP": 60640, 
    "ADDRESS": "5033 N CLARK ST", 
    "YEAR": 2003, 
    "LONGITUDE": -87.667947157, 
    "LATTITUDE": 41.973477635
  }, 
  {
    "BUSINESS_TYPE": "Peddler, non-food, special", 
    "LEGAL_NAME": "ISAIAH M HUDSON", 
    "STATE": "IL", 
    "DOING_BUSINESS_AS_NAME": "ISAIAH M HUDSON", 
    "POP_AT_RISK": 28234, 
    "ZIP": 60616, 
    "ADDRESS": "243 E 32ND ST  222", 
    "YEAR": 2003, 
    "LONGITUDE": -87.620153819, 
    "LATTITUDE": 41.836450023
  }, 
  {
    "BUSINESS_TYPE": "Peddler, non-food, special", 
    "LEGAL_NAME": "WANDA POLSAKIEWICZ", 
    "STATE": "IL", 
    "DOING_BUSINESS_AS_NAME": "WANDA POLSAKIEWICZ", 
    "POP_AT_RISK": 21514, 
    "ZIP": 60646, 
    "ADDRESS": "6307 N MELVINA AVE", 
    "YEAR": 2003, 
    "LONGITUDE": -87.782722159, 
    "LATTITUDE": 41.995306274
  }, 
  {
    "BUSINESS_TYPE": "Peddler, non-food, special", 
    "LEGAL_NAME": "AVDYL AVDYLI", 
    "STATE": "IL", 
    "DOING_BUSINESS_AS_NAME": "AUDYL AVDYLI", 
    "POP_AT_RISK": 32608, 
    "ZIP": 60634, 
    "ADDRESS": "3700 N NEVA AVE", 
    "YEAR": 2003, 
    "LONGITUDE": -87.805996679, 
    "LATTITUDE": 41.947190966
  }, 
  {
    "BUSINESS_TYPE": "Peddler, non-food, special", 
    "LEGAL_NAME": "DARNELL ROBINSON", 
    "STATE": "IL", 
    "DOING_BUSINESS_AS_NAME": "DARNELL ROBINSON", 
    "POP_AT_RISK": 23425, 
    "ZIP": 60652, 
    "ADDRESS": "8142 S RICHMOND ST", 
    "YEAR": 2003, 
    "LONGITUDE": -87.696305651, 
    "LATTITUDE": 41.744967341
  }, 
  {
    "BUSINESS_TYPE": "Peddler, non-food, special", 
    "LEGAL_NAME": "GAJA LUKIN", 
    "STATE": "IL", 
    "DOING_BUSINESS_AS_NAME": "GAJA LUKIN", 
    "POP_AT_RISK": 69800, 
    "ZIP": 60618, 
    "ADDRESS": "4148 N KIMBALL AVE 1ST", 
    "YEAR": 2003, 
    "LONGITUDE": -87.713162282, 
    "LATTITUDE": 41.957152082
  }, 
  {
    "BUSINESS_TYPE": "Peddler, non-food, special", 
    "LEGAL_NAME": "HERMAN MILTON", 
    "STATE": "IL", 
    "DOING_BUSINESS_AS_NAME": "HERMAN MILTON", 
    "POP_AT_RISK": 73811, 
    "ZIP": 60622, 
    "ADDRESS": "2043 W PIERCE AVE 1ST", 
    "YEAR": 2003, 
    "LONGITUDE": -87.679143914, 
    "LATTITUDE": 41.909229824
  }, 
  {
    "BUSINESS_TYPE": "Peddler, non-food, special", 
    "LEGAL_NAME": "LARRY W. CASON", 
    "STATE": "IL", 
    "DOING_BUSINESS_AS_NAME": "LARRY W. CASON", 
    "POP_AT_RISK": 50850, 
    "ZIP": 60632, 
    "ADDRESS": "4526 S TROY ST", 
    "YEAR": 2003, 
    "LONGITUDE": -87.702993987, 
    "LATTITUDE": 41.810949774
  }, 
  {
    "BUSINESS_TYPE": "Peddler, non-food, special", 
    "LEGAL_NAME": "LORETTA M MATHEIS", 
    "STATE": "IL", 
    "DOING_BUSINESS_AS_NAME": "LORETTA M MATHEIS", 
    "POP_AT_RISK": 47607, 
    "ZIP": 60630, 
    "ADDRESS": "4455 N LINDER AVE 2ND", 
    "YEAR": 2003, 
    "LONGITUDE": -87.764690693, 
    "LATTITUDE": 41.962217944
  }, 
  {
    "BUSINESS_TYPE": "Peddler, non-food, special", 
    "LEGAL_NAME": "JAMES P. ENRIQUEZ JR.", 
    "STATE": "IL", 
    "DOING_BUSINESS_AS_NAME": "JAMES P. ENRIQUEZ JR.", 
    "POP_AT_RISK": 72336, 
    "ZIP": 60639, 
    "ADDRESS": "2450 N CENTRAL AVE  415-2", 
    "YEAR": 2003, 
    "LONGITUDE": -87.766191036, 
    "LATTITUDE": 41.925484189
  }, 
  {
    "BUSINESS_TYPE": "Peddler, non-food, special", 
    "LEGAL_NAME": "LAFAYETTE J HARRIS III", 
    "STATE": "IL", 
    "DOING_BUSINESS_AS_NAME": "LAYFAYETTE J HARRIS", 
    "POP_AT_RISK": 25782, 
    "ZIP": 60620, 
    "ADDRESS": "1729 W 91ST ST  HOME", 
    "YEAR": 2003, 
    "LONGITUDE": -87.666334592, 
    "LATTITUDE": 41.7283047
  }, 
  {
    "BUSINESS_TYPE": "Peddler, non-food, special", 
    "LEGAL_NAME": "RASHAD A AMRO", 
    "STATE": "IL", 
    "DOING_BUSINESS_AS_NAME": "RASHAD A AMRO", 
    "POP_AT_RISK": 12734, 
    "ZIP": 60634, 
    "ADDRESS": "3522 N PITTSBURGH AVE 1ST", 
    "YEAR": 2003, 
    "LONGITUDE": -87.832826522, 
    "LATTITUDE": 41.943662005
  }, 
  {
    "BUSINESS_TYPE": "Peddler, non-food, special", 
    "LEGAL_NAME": "DELORES M PATTEN", 
    "STATE": "IL", 
    "DOING_BUSINESS_AS_NAME": "RED LANTERN II", 
    "POP_AT_RISK": 23708, 
    "ZIP": 60643, 
    "ADDRESS": "1341 W 112TH PL  3", 
    "YEAR": 2003, 
    "LONGITUDE": -87.656122435, 
    "LATTITUDE": 41.689238335
  }, 
  {
    "BUSINESS_TYPE": "Peddler, non-food, special", 
    "LEGAL_NAME": "THELMA  H DAVIS", 
    "STATE": "IL", 
    "DOING_BUSINESS_AS_NAME": "THELMA", 
    "POP_AT_RISK": 35081, 
    "ZIP": 60617, 
    "ADDRESS": "8527 S MARQUETTE AVE", 
    "YEAR": 2003, 
    "LONGITUDE": -87.558616086, 
    "LATTITUDE": 41.740101117
  }, 
  {
    "BUSINESS_TYPE": "Peddler, non-food, special", 
    "LEGAL_NAME": "BERL F. CATTELL", 
    "STATE": "IL", 
    "DOING_BUSINESS_AS_NAME": "BERL F. CATTELL", 
    "POP_AT_RISK": 49146, 
    "ZIP": 60626, 
    "ADDRESS": "7014 N SHERIDAN RD # 1A", 
    "YEAR": 2003, 
    "LONGITUDE": -87.662375999, 
    "LATTITUDE": 42.009601898
  }, 
  {
    "BUSINESS_TYPE": "Peddler, non-food, special", 
    "LEGAL_NAME": "JOSE ROMAN SR.", 
    "STATE": "IL", 
    "DOING_BUSINESS_AS_NAME": "JOSE   ROMAN SR.", 
    "POP_AT_RISK": 53211, 
    "ZIP": 60608, 
    "ADDRESS": "2316 S CALIFORNIA AVE  1", 
    "YEAR": 2003, 
    "LONGITUDE": -87.695526104, 
    "LATTITUDE": 41.849488238
  }, 
  {
    "BUSINESS_TYPE": "Peddler, non-food, special", 
    "LEGAL_NAME": "CARLISLE R MOORE", 
    "STATE": "IL", 
    "DOING_BUSINESS_AS_NAME": "CARLISLE R MOORE", 
    "POP_AT_RISK": 38827, 
    "ZIP": 60609, 
    "ADDRESS": "1443 W 51ST ST", 
    "YEAR": 2003, 
    "LONGITUDE": -87.661555733, 
    "LATTITUDE": 41.801252425
  }, 
  {
    "BUSINESS_TYPE": "Peddler, non-food, special", 
    "LEGAL_NAME": "JAMES P ENRIQUEZ", 
    "STATE": "IL", 
    "DOING_BUSINESS_AS_NAME": "JAMES P. ENRIQUEZ SR.", 
    "POP_AT_RISK": 72797, 
    "ZIP": 60640, 
    "ADDRESS": "4709 N BEACON ST  1D", 
    "YEAR": 2003, 
    "LONGITUDE": -87.664024712, 
    "LATTITUDE": 41.967460764
  }, 
  {
    "BUSINESS_TYPE": "Peddler, non-food, special", 
    "LEGAL_NAME": "ALEX WHITE JR", 
    "STATE": "IL", 
    "DOING_BUSINESS_AS_NAME": "ALEX WHITE JR", 
    "POP_AT_RISK": 19789, 
    "ZIP": 60628, 
    "ADDRESS": "12345 S EMERALD AVE 1ST", 
    "YEAR": 2003, 
    "LONGITUDE": -87.640274816, 
    "LATTITUDE": 41.669219084
  }, 
  {
    "BUSINESS_TYPE": "Peddler, non-food, special", 
    "LEGAL_NAME": "MELVIN O. TOWSEND", 
    "STATE": "IL", 
    "DOING_BUSINESS_AS_NAME": "MELVIN O TOWSEND", 
    "POP_AT_RISK": 54559, 
    "ZIP": 60644, 
    "ADDRESS": "4743 W FULTON ST", 
    "YEAR": 2003, 
    "LONGITUDE": -87.744721114, 
    "LATTITUDE": 41.885255544
  }, 
  {
    "BUSINESS_TYPE": "Peddler, non-food, special", 
    "LEGAL_NAME": "VERA GUTTMANN", 
    "STATE": "IL", 
    "DOING_BUSINESS_AS_NAME": "VERA GUTTMANN", 
    "POP_AT_RISK": 74900, 
    "ZIP": 60613, 
    "ADDRESS": "3600 N LAKE SHORE DR  1812", 
    "YEAR": 2003, 
    "LONGITUDE": -87.643649759, 
    "LATTITUDE": 41.948683674
  }, 
  {
    "BUSINESS_TYPE": "Peddler, non-food, special", 
    "LEGAL_NAME": "RAYMOND L. PAIGE", 
    "STATE": "IL", 
    "DOING_BUSINESS_AS_NAME": "RAYMOND L. PAIGE", 
    "POP_AT_RISK": 43361, 
    "ZIP": 60608, 
    "ADDRESS": "1017 W 19TH ST", 
    "YEAR": 2003, 
    "LONGITUDE": -87.652224401, 
    "LATTITUDE": 41.856545722
  }, 
  {
    "BUSINESS_TYPE": "Peddler, non-food, special", 
    "LEGAL_NAME": "FLORRIE M SHELTON", 
    "STATE": "IL", 
    "DOING_BUSINESS_AS_NAME": "FLORRIE M SHELTON", 
    "POP_AT_RISK": 29477, 
    "ZIP": 60643, 
    "ADDRESS": "1505 W 103RD ST 1ST", 
    "YEAR": 2003, 
    "LONGITUDE": -87.660580728, 
    "LATTITUDE": 41.706608652
  }, 
  {
    "BUSINESS_TYPE": "Peddler, non-food, special", 
    "LEGAL_NAME": "CYNTHIA CAIN", 
    "STATE": "IL", 
    "DOING_BUSINESS_AS_NAME": "CYNTHIA CAIN", 
    "POP_AT_RISK": 40278, 
    "ZIP": 60629, 
    "ADDRESS": "7023 S TALMAN AVE", 
    "YEAR": 2003, 
    "LONGITUDE": -87.689243727, 
    "LATTITUDE": 41.765706759
  }, 
  {
    "BUSINESS_TYPE": "Peddler, non-food, special", 
    "LEGAL_NAME": "WAVEL S. FUTRELL", 
    "STATE": "IL", 
    "DOING_BUSINESS_AS_NAME": "WAVEL S. FUTRELL", 
    "POP_AT_RISK": 64704, 
    "ZIP": 60639, 
    "ADDRESS": "4629 W ARMITAGE AVE", 
    "YEAR": 2003, 
    "LONGITUDE": -87.742599083, 
    "LATTITUDE": 41.916864141
  }, 
  {
    "BUSINESS_TYPE": "Peddler, non-food, special", 
    "LEGAL_NAME": "BOBBY LOUIS HOLIDAY", 
    "STATE": "IL", 
    "DOING_BUSINESS_AS_NAME": "BOBBY LOUIS HOLIDAY", 
    "POP_AT_RISK": 20967, 
    "ZIP": 60617, 
    "ADDRESS": "3649 E 106TH ST", 
    "YEAR": 2003, 
    "LONGITUDE": -87.534558556, 
    "LATTITUDE": 41.702620756
  }, 
  {
    "BUSINESS_TYPE": "Peddler, non-food, special", 
    "LEGAL_NAME": "DANIEL ANTHONY MARQUEZ", 
    "STATE": "IL", 
    "DOING_BUSINESS_AS_NAME": "DAN SLAX", 
    "POP_AT_RISK": 52151, 
    "ZIP": 60634, 
    "ADDRESS": "2905 N MOODY AVE", 
    "YEAR": 2003, 
    "LONGITUDE": -87.779532281, 
    "LATTITUDE": 41.93312281
  }, 
  {
    "BUSINESS_TYPE": "Peddler, non-food, special", 
    "LEGAL_NAME": "ROGER W WILLIS III", 
    "STATE": "IL", 
    "DOING_BUSINESS_AS_NAME": "ROGER W WILLIS III", 
    "POP_AT_RISK": 68979, 
    "ZIP": 60629, 
    "ADDRESS": "3115 W 61ST ST 2ND", 
    "YEAR": 2003, 
    "LONGITUDE": -87.70150285, 
    "LATTITUDE": 41.782524221
  }, 
  {
    "BUSINESS_TYPE": "Peddler, non-food, special", 
    "LEGAL_NAME": "TIMOTEO DIAZ", 
    "STATE": "IL", 
    "DOING_BUSINESS_AS_NAME": "TIMOTEO DIAZ", 
    "POP_AT_RISK": 61407, 
    "ZIP": 60625, 
    "ADDRESS": "4927 N LAWNDALE AVE", 
    "YEAR": 2003, 
    "LONGITUDE": -87.720622265, 
    "LATTITUDE": 41.970972321
  }, 
  {
    "BUSINESS_TYPE": "Peddler, non-food, special", 
    "LEGAL_NAME": "RAMON CORONEL", 
    "STATE": "IL", 
    "DOING_BUSINESS_AS_NAME": "RAMON  CORONEL", 
    "POP_AT_RISK": 68852, 
    "ZIP": 60647, 
    "ADDRESS": "1842 N SPRINGFIELD AVE  1", 
    "YEAR": 2003, 
    "LONGITUDE": -87.724190229, 
    "LATTITUDE": 41.914872525
  }, 
  {
    "BUSINESS_TYPE": "Peddler, non-food, special", 
    "LEGAL_NAME": "BERNICE JOHNSON", 
    "STATE": "IL", 
    "DOING_BUSINESS_AS_NAME": "BERNICE  JOHNSON", 
    "POP_AT_RISK": 22945, 
    "ZIP": 60612, 
    "ADDRESS": "2045 W JACKSON BLVD  312", 
    "YEAR": 2003, 
    "LONGITUDE": -87.678433483, 
    "LATTITUDE": 41.87735669
  }, 
  {
    "BUSINESS_TYPE": "Peddler, non-food, special", 
    "LEGAL_NAME": "SAMHAN ALI", 
    "STATE": "IL", 
    "DOING_BUSINESS_AS_NAME": "SAM S ALI", 
    "POP_AT_RISK": 42373, 
    "ZIP": 60632, 
    "ADDRESS": "4069 S SACRAMENTO AVE 1ST", 
    "YEAR": 2003, 
    "LONGITUDE": -87.699323618, 
    "LATTITUDE": 41.819126825
  }, 
  {
    "BUSINESS_TYPE": "Peddler, non-food, special", 
    "LEGAL_NAME": "THOMAS RAYMOND CARMODY", 
    "STATE": "IL", 
    "DOING_BUSINESS_AS_NAME": "THOMAS RAYMOND CARMODY", 
    "POP_AT_RISK": 21072, 
    "ZIP": 60638, 
    "ADDRESS": "5301 S NARRAGANSETT AVE 1", 
    "YEAR": 2003, 
    "LONGITUDE": -87.781771579, 
    "LATTITUDE": 41.795955606
  }, 
  {
    "BUSINESS_TYPE": "Peddler, non-food, special", 
    "LEGAL_NAME": "ANTOINETTE JOHNSON", 
    "STATE": "IL", 
    "DOING_BUSINESS_AS_NAME": "ANTOINETTE JOHNSON", 
    "POP_AT_RISK": 17428, 
    "ZIP": 60617, 
    "ADDRESS": "9816 S MERRION AVE # 1ST", 
    "YEAR": 2003, 
    "LONGITUDE": -87.569692743, 
    "LATTITUDE": 41.71590186
  }, 
  {
    "BUSINESS_TYPE": "Peddler, non-food, special", 
    "LEGAL_NAME": "JUAN TORRES", 
    "STATE": "IL", 
    "DOING_BUSINESS_AS_NAME": "JUAN TORRES", 
    "POP_AT_RISK": 67930, 
    "ZIP": 60647, 
    "ADDRESS": "2809 W WABANSIA AVE", 
    "YEAR": 2003, 
    "LONGITUDE": -87.69746784, 
    "LATTITUDE": 41.912247663
  }, 
  {
    "BUSINESS_TYPE": "Peddler, non-food, special", 
    "LEGAL_NAME": "Cruz D. Martinez", 
    "STATE": "IL", 
    "DOING_BUSINESS_AS_NAME": "Cruz D. Martinez", 
    "POP_AT_RISK": 54183, 
    "ZIP": 60618, 
    "ADDRESS": "3311 N BELL AVE # 2", 
    "YEAR": 2003, 
    "LONGITUDE": -87.684324417, 
    "LATTITUDE": 41.94169556
  }, 
  {
    "BUSINESS_TYPE": "Peddler, non-food, special", 
    "LEGAL_NAME": "STEVEN M KRASLEN", 
    "STATE": "IL", 
    "DOING_BUSINESS_AS_NAME": "STEVEN M KRASLEN", 
    "POP_AT_RISK": 18350, 
    "ZIP": 60645, 
    "ADDRESS": "7537 N MAPLEWOOD AVE  C", 
    "YEAR": 2003, 
    "LONGITUDE": -87.693143157, 
    "LATTITUDE": 42.01884174
  }, 
  {
    "BUSINESS_TYPE": "Peddler, non-food, special", 
    "LEGAL_NAME": "ROGER BUCKNER", 
    "STATE": "IL", 
    "DOING_BUSINESS_AS_NAME": "ROGER BUCKNER", 
    "POP_AT_RISK": 62036, 
    "ZIP": 60645, 
    "ADDRESS": "6606 N SEELEY AVE 1ST", 
    "YEAR": 2003, 
    "LONGITUDE": -87.68161062, 
    "LATTITUDE": 42.001811662
  }, 
  {
    "BUSINESS_TYPE": "Peddler, non-food, special", 
    "LEGAL_NAME": "THOMAS WILSON  JR", 
    "STATE": "IL", 
    "DOING_BUSINESS_AS_NAME": "THOMAS WILSON", 
    "POP_AT_RISK": 45119, 
    "ZIP": 60636, 
    "ADDRESS": "7213 S PAULINA ST", 
    "YEAR": 2003, 
    "LONGITUDE": -87.66603817, 
    "LATTITUDE": 41.762635519
  }, 
  {
    "BUSINESS_TYPE": "Peddler, non-food, special", 
    "LEGAL_NAME": "NIEDRAH Y LOGAN-DYE", 
    "STATE": "IL", 
    "DOING_BUSINESS_AS_NAME": "NEDRA YIRAEL LOGAN-DYE", 
    "POP_AT_RISK": 37789, 
    "ZIP": 60636, 
    "ADDRESS": "1840 W 58TH ST # 2", 
    "YEAR": 2003, 
    "LONGITUDE": -87.670906608, 
    "LATTITUDE": 41.788598857
  }, 
  {
    "BUSINESS_TYPE": "Peddler, non-food, special", 
    "LEGAL_NAME": "HARRYETTA   MORGAN", 
    "STATE": "IL", 
    "DOING_BUSINESS_AS_NAME": "HARRYETTA  MORGAN", 
    "POP_AT_RISK": 51088, 
    "ZIP": 60661, 
    "ADDRESS": "575 W MADISON ST  902", 
    "YEAR": 2003, 
    "LONGITUDE": -87.642585602, 
    "LATTITUDE": 41.881728569
  }, 
  {
    "BUSINESS_TYPE": "Peddler, non-food, special", 
    "LEGAL_NAME": "YOUSEF MUHYEDDN", 
    "STATE": "IL", 
    "DOING_BUSINESS_AS_NAME": "YOUSEF MUHYEDDN", 
    "POP_AT_RISK": 27493, 
    "ZIP": 60652, 
    "ADDRESS": "4137 W 82ND PL", 
    "YEAR": 2003, 
    "LONGITUDE": -87.725551713, 
    "LATTITUDE": 41.742736659
  }, 
  {
    "BUSINESS_TYPE": "Peddler, non-food, special", 
    "LEGAL_NAME": "BYRON YABLON", 
    "STATE": "IL", 
    "DOING_BUSINESS_AS_NAME": "BYRON YABLON", 
    "POP_AT_RISK": 67312, 
    "ZIP": 60618, 
    "ADDRESS": "3812 N ST LOUIS AVE", 
    "YEAR": 2003, 
    "LONGITUDE": -87.715419755, 
    "LATTITUDE": 41.950579235
  }, 
  {
    "BUSINESS_TYPE": "Peddler, non-food, special", 
    "LEGAL_NAME": "GUADALUPE KOLASKI", 
    "STATE": "IL", 
    "DOING_BUSINESS_AS_NAME": "GUADALUPE KOLASKI", 
    "POP_AT_RISK": 50298, 
    "ZIP": 60641, 
    "ADDRESS": "4815 W BELLE PLAINE AVE A-7", 
    "YEAR": 2003, 
    "LONGITUDE": -87.748022717, 
    "LATTITUDE": 41.955127655
  }, 
  {
    "BUSINESS_TYPE": "Peddler, non-food, special", 
    "LEGAL_NAME": "WALTER L. NELSON", 
    "STATE": "IL", 
    "DOING_BUSINESS_AS_NAME": "WALTER L. NELSON", 
    "POP_AT_RISK": 30026, 
    "ZIP": 60612, 
    "ADDRESS": "1112 S CALIFORNIA AVE", 
    "YEAR": 2003, 
    "LONGITUDE": -87.696087785, 
    "LATTITUDE": 41.867887214
  }, 
  {
    "BUSINESS_TYPE": "Peddler, non-food, special", 
    "LEGAL_NAME": "RICARDO JOHNSON", 
    "STATE": "IL", 
    "DOING_BUSINESS_AS_NAME": "RICARDO JOHNSON", 
    "POP_AT_RISK": 20309, 
    "ZIP": 60628, 
    "ADDRESS": "10523 S CORLISS AVE", 
    "YEAR": 2003, 
    "LONGITUDE": -87.603740309, 
    "LATTITUDE": 41.70316141
  }, 
  {
    "BUSINESS_TYPE": "Peddler, non-food, special", 
    "LEGAL_NAME": "STEFAN J. MITREGA", 
    "STATE": "IL", 
    "DOING_BUSINESS_AS_NAME": "STEFAN J. MITREGA", 
    "POP_AT_RISK": 46623, 
    "ZIP": 60642, 
    "ADDRESS": "1529 W HURON ST", 
    "YEAR": 2003, 
    "LONGITUDE": -87.666826396, 
    "LATTITUDE": 41.894154587
  }, 
  {
    "BUSINESS_TYPE": "Peddler, non-food, special", 
    "LEGAL_NAME": "RAMONA A MURA", 
    "STATE": "IL", 
    "DOING_BUSINESS_AS_NAME": "RAMONA A MURA", 
    "POP_AT_RISK": 70249, 
    "ZIP": 60613, 
    "ADDRESS": "3801 N PINE GROVE AVE 4TH 409", 
    "YEAR": 2003, 
    "LONGITUDE": -87.647716783, 
    "LATTITUDE": 41.95170802
  }, 
  {
    "BUSINESS_TYPE": "Peddler, non-food, special", 
    "LEGAL_NAME": "Jose Vega Figueroa", 
    "STATE": "IL", 
    "DOING_BUSINESS_AS_NAME": "Jose Vega Figueroa", 
    "POP_AT_RISK": 71641, 
    "ZIP": 60647, 
    "ADDRESS": "3524 W NORTH AVE", 
    "YEAR": 2003, 
    "LONGITUDE": -87.715106816, 
    "LATTITUDE": 41.91012144
  }, 
  {
    "BUSINESS_TYPE": "Peddler, non-food, special", 
    "LEGAL_NAME": "JUAN R. TREVINO", 
    "STATE": "IL", 
    "DOING_BUSINESS_AS_NAME": "JUAN R. TREVINO", 
    "POP_AT_RISK": 44016, 
    "ZIP": 60608, 
    "ADDRESS": "2243 W 18TH ST", 
    "YEAR": 2003, 
    "LONGITUDE": -87.682609934, 
    "LATTITUDE": 41.85747575
  }, 
  {
    "BUSINESS_TYPE": "Peddler, non-food, special", 
    "LEGAL_NAME": "INEZ IRBY", 
    "STATE": "IL", 
    "DOING_BUSINESS_AS_NAME": "INEZ IRBY", 
    "POP_AT_RISK": 30488, 
    "ZIP": 60624, 
    "ADDRESS": "3942 W JACKSON BLVD", 
    "YEAR": 2003, 
    "LONGITUDE": -87.724820802, 
    "LATTITUDE": 41.877206967
  }, 
  {
    "BUSINESS_TYPE": "Peddler, non-food, special", 
    "LEGAL_NAME": "STEVE MARK WILLIAMS", 
    "STATE": "IL", 
    "DOING_BUSINESS_AS_NAME": "STEVE MARK WILLIAMS", 
    "POP_AT_RISK": 81122, 
    "ZIP": 60610, 
    "ADDRESS": "111 W DIVISION ST", 
    "YEAR": 2003, 
    "LONGITUDE": -87.631990572, 
    "LATTITUDE": 41.903781671
  }, 
  {
    "BUSINESS_TYPE": "Peddler, non-food, special", 
    "LEGAL_NAME": "OLA MAE EVANS", 
    "STATE": "IL", 
    "DOING_BUSINESS_AS_NAME": "OLA MAE EVANS", 
    "POP_AT_RISK": 40398, 
    "ZIP": 60623, 
    "ADDRESS": "4214 W 16TH ST 1ST", 
    "YEAR": 2003, 
    "LONGITUDE": -87.730546803, 
    "LATTITUDE": 41.858899454
  }
]