[
{"STATE":"IL","ZIP":60638,"LATTITUDE":41.798345349894625,"ADDRESS":"5435 S ARCHER AVE  ","YEAR":2013,"DOING_BUSINESS_AS_NAME":"SKYLARK MOTEL","POP_AT_RISK":262512,"BUSINESS_TYPE":"Hotel","LEGAL_NAME":"VMM INC","LONGITUDE":-87.744316941091},
{"STATE":"IL","ZIP":60617,"LATTITUDE":41.727766453943474,"ADDRESS":"9201 S STONY ISLAND AVE  ","YEAR":2013,"DOING_BUSINESS_AS_NAME":"STONY ISLAND MOTEL","POP_AT_RISK":20682,"BUSINESS_TYPE":"Hotel","LEGAL_NAME":"KTKY, INC.","LONGITUDE":-87.58487781980263},
{"STATE":"IL","ZIP":60646,"LATTITUDE":42.01188197218486,"ADDRESS":"6401 W TOUHY AVE 1 & 2 ","YEAR":2013,"DOING_BUSINESS_AS_NAME":"EDGEBROOK MOTEL","POP_AT_RISK":16258,"BUSINESS_TYPE":"Hotel","LEGAL_NAME":"S O C, LLC","LONGITUDE":-87.78682592114689},
{"STATE":"IL","ZIP":60631,"LATTITUDE":41.98531807250436,"ADDRESS":"8101 W HIGGINS RD  ","YEAR":2013,"DOING_BUSINESS_AS_NAME":"SPRINGHILL SUITES BY MARRIOTT","POP_AT_RISK":20257,"BUSINESS_TYPE":"Hotel","LEGAL_NAME":"HRH, L.L.C.","LONGITUDE":-87.82981837555997},
{"STATE":"IL","ZIP":60626,"LATTITUDE":42.01395777668061,"ADDRESS":"7300 N SHERIDAN RD 1ST ","YEAR":2013,"DOING_BUSINESS_AS_NAME":"SUPER 8","POP_AT_RISK":778531,"BUSINESS_TYPE":"Hotel","LEGAL_NAME":"NATWAR PATEL","LONGITUDE":-87.66424323639788},
{"STATE":"IL","ZIP":60653,"LATTITUDE":41.82364931821311,"ADDRESS":"3901 S MICHIGAN AVE  ","YEAR":2013,"DOING_BUSINESS_AS_NAME":"AMBER INN INC.","POP_AT_RISK":496304,"BUSINESS_TYPE":"Hotel","LEGAL_NAME":"AMBER INN INC","LONGITUDE":-87.62302379163799},
{"STATE":"IL","ZIP":60666,"LATTITUDE":42.008536400868735,"ADDRESS":"11601 W TOUHY AVE  ","YEAR":2013,"DOING_BUSINESS_AS_NAME":"HILTON O'HARE","POP_AT_RISK":4956,"BUSINESS_TYPE":"Hotel","LEGAL_NAME":"HLT O'HARE LLC","LONGITUDE":-87.91442843927047},
{"STATE":"IL","ZIP":60616,"LATTITUDE":41.852075574499366,"ADDRESS":"2233 S DR MARTIN LUTHER KING JR DR  ","YEAR":2013,"DOING_BUSINESS_AS_NAME":"HYATT REGENCY MCCORMICK PLACE HOTEL","POP_AT_RISK":35622,"BUSINESS_TYPE":"Hotel","LEGAL_NAME":"HYATT CORPORATION","LONGITUDE":-87.61885080391755},
{"STATE":"IL","ZIP":60610,"LATTITUDE":41.90521531399701,"ADDRESS":"1244 N DEARBORN ST  ","YEAR":2013,"DOING_BUSINESS_AS_NAME":"HOTEL INIDGO CHICAGO GOLD COAST","POP_AT_RISK":79215,"BUSINESS_TYPE":"Hotel","LEGAL_NAME":"1244 DEARBORN, LLC","LONGITUDE":-87.63016995157534},
{"STATE":"IL","ZIP":60638,"LATTITUDE":41.79211115838849,"ADDRESS":"7050 W ARCHER AVE  ","YEAR":2013,"DOING_BUSINESS_AS_NAME":"RAINBOW MOTEL","POP_AT_RISK":122490,"BUSINESS_TYPE":"Hotel","LEGAL_NAME":"BPG HOSPITALITY, INC.","LONGITUDE":-87.79858448298387},
{"STATE":"IL","ZIP":60607,"LATTITUDE":41.87343456580039,"ADDRESS":"625 S ASHLAND AVE  ","YEAR":2013,"DOING_BUSINESS_AS_NAME":"MARIOTT CHICAGO at MEDICAL DISTRICT\/ UIC","POP_AT_RISK":368038,"BUSINESS_TYPE":"Hotel","LEGAL_NAME":"DAVIDSON HOTEL COMPANY","LONGITUDE":-87.66643368144297},
{"STATE":"IL","ZIP":60620,"LATTITUDE":41.73187237047607,"ADDRESS":"8903 S ASHLAND AVE  ","YEAR":2013,"DOING_BUSINESS_AS_NAME":"NEW BUDGET HOTEL","POP_AT_RISK":263313,"BUSINESS_TYPE":"Hotel","LEGAL_NAME":"KIKI ENTERPRISES, LTD.","LONGITUDE":-87.66280426094097},
{"STATE":"IL","ZIP":60659,"LATTITUDE":41.98325610030791,"ADDRESS":"2600 W BRYN MAWR AVE  ","YEAR":2013,"DOING_BUSINESS_AS_NAME":"GUEST HOUSE MOTEL","POP_AT_RISK":386631,"BUSINESS_TYPE":"Hotel","LEGAL_NAME":"2600 WEST BRYN MAWR INC","LONGITUDE":-87.69434482957838},
{"STATE":"IL","ZIP":60619,"LATTITUDE":41.75610212472902,"ADDRESS":"7621 S COTTAGE GROVE AVE  ","YEAR":2013,"DOING_BUSINESS_AS_NAME":"BARBARA ANNS MOTEL 2","POP_AT_RISK":293208,"BUSINESS_TYPE":"Hotel","LEGAL_NAME":"BARBARA ANN'S MOTEL, INC.","LONGITUDE":-87.60517997942154},
{"STATE":"IL","ZIP":60615,"LATTITUDE":41.806170387632804,"ADDRESS":"4900 S CHICAGO BEACH DR  ","YEAR":2013,"DOING_BUSINESS_AS_NAME":"RAMADA LAKE SHORE INN","POP_AT_RISK":456274,"BUSINESS_TYPE":"Hotel","LEGAL_NAME":"LAKE SHORE HOSPITALITY INC","LONGITUDE":-87.58579957251453},
{"STATE":"IL","ZIP":60619,"LATTITUDE":41.728992256001696,"ADDRESS":"9110 - 9126 S COTTAGE GROVE AVE 1 1","YEAR":2013,"DOING_BUSINESS_AS_NAME":"ADMIRAL MOTEL","POP_AT_RISK":175756,"BUSINESS_TYPE":"Hotel","LEGAL_NAME":"ADMIRAL MOTEL & SUITES, INC.","LONGITUDE":-87.60478405997884},
{"STATE":"IL","ZIP":60616,"LATTITUDE":41.84546816154614,"ADDRESS":"11 W 26TH ST 1-5 ","YEAR":2013,"DOING_BUSINESS_AS_NAME":"CHICAGO SOUTH LOOP HOTEL, LLC","POP_AT_RISK":82146,"BUSINESS_TYPE":"Hotel","LEGAL_NAME":"CHICAGO SOUTH LOOP HOTEL, LLC","LONGITUDE":-87.6274529904341},
{"STATE":"IL","ZIP":60654,"LATTITUDE":41.888741038131876,"ADDRESS":"350 N ORLEANS ST 1 #","YEAR":2013,"DOING_BUSINESS_AS_NAME":"HOLIDAY INN MART PLAZA","POP_AT_RISK":65951,"BUSINESS_TYPE":"Hotel","LEGAL_NAME":"MART PLAZA CATERING CORPORATION","LONGITUDE":-87.63708054058772},
{"STATE":"IL","ZIP":60617,"LATTITUDE":41.747758854371085,"ADDRESS":"8101 S STONY ISLAND AVE  ","YEAR":2013,"DOING_BUSINESS_AS_NAME":"SOUTH SHORE MOTEL & SUTIES, INC.","POP_AT_RISK":151500,"BUSINESS_TYPE":"Hotel","LEGAL_NAME":"SOUTH SHORE MOTEL & SUITES, INC.","LONGITUDE":-87.58530023551424},
{"STATE":"IL","ZIP":60614,"LATTITUDE":41.91524998684686,"ADDRESS":"1816 N CLARK ST 1-13 ","YEAR":2013,"DOING_BUSINESS_AS_NAME":"HOTEL LINCOLN","POP_AT_RISK":394401,"BUSINESS_TYPE":"Hotel","LEGAL_NAME":"CP\/AJ HOTEL LINCOLN PARK MANAGER, LLC","LONGITUDE":-87.63429326814013},
{}]