[
  {
    "BUSINESS_TYPE": "Wholesale Food Establishment", 
    "LEGAL_NAME": "BIONDILLO'S BAKERY, LLC", 
    "STATE": "IL", 
    "DOING_BUSINESS_AS_NAME": "BIONDILLO'S BAKERY", 
    "POP_AT_RISK": 53177, 
    "ZIP": 60651, 
    "ADDRESS": "4900 W DIVISION ST 1ST", 
    "YEAR": 2013, 
    "LONGITUDE": -87.748544872, 
    "LATTITUDE": 41.902434922
  }, 
  {
    "BUSINESS_TYPE": "Wholesale Food Establishment", 
    "LEGAL_NAME": "BIG APPLE FINER FOODS INC", 
    "STATE": "IL", 
    "DOING_BUSINESS_AS_NAME": "BIG APPLE FINER FOODS INC", 
    "POP_AT_RISK": 58363, 
    "ZIP": 60614, 
    "ADDRESS": "2345 N CLARK ST", 
    "YEAR": 2013, 
    "LONGITUDE": -87.639926019, 
    "LATTITUDE": 41.924966179
  }, 
  {
    "BUSINESS_TYPE": "Wholesale Food Establishment", 
    "LEGAL_NAME": "CHICAGO & ILLINOIS  RIVER MARKETING,  LLC", 
    "STATE": "IL", 
    "DOING_BUSINESS_AS_NAME": "CHICAGO & ILLINOIS RIVER MARKETING,  LLC", 
    "POP_AT_RISK": 3233, 
    "ZIP": 60617, 
    "ADDRESS": "11700 S TORRENCE AVE", 
    "YEAR": 2013, 
    "LONGITUDE": -87.559501385, 
    "LATTITUDE": 41.682696265
  }, 
  {
    "BUSINESS_TYPE": "Wholesale Food Establishment", 
    "LEGAL_NAME": "VIET HOA PLAZA INC", 
    "STATE": "IL", 
    "DOING_BUSINESS_AS_NAME": "VIET HOA", 
    "POP_AT_RISK": 57485, 
    "ZIP": 60660, 
    "ADDRESS": "5845 N BROADWAY   1ST", 
    "YEAR": 2013, 
    "LONGITUDE": -87.660063461, 
    "LATTITUDE": 41.988242882
  }, 
  {
    "BUSINESS_TYPE": "Wholesale Food Establishment", 
    "LEGAL_NAME": "UNION FISHERIES CORP", 
    "STATE": "IL", 
    "DOING_BUSINESS_AS_NAME": "UNION FISHERIES CORP", 
    "POP_AT_RISK": 23928, 
    "ZIP": 60631, 
    "ADDRESS": "6186 N NORTHWEST HWY 1ST", 
    "YEAR": 2013, 
    "LONGITUDE": -87.802262011, 
    "LATTITUDE": 41.994129359
  }, 
  {
    "BUSINESS_TYPE": "Wholesale Food Establishment", 
    "LEGAL_NAME": "DANIELSON FOOD PROD INC", 
    "STATE": "IL", 
    "DOING_BUSINESS_AS_NAME": "DANIELSON FOOD PROD INC", 
    "POP_AT_RISK": 20991, 
    "ZIP": 60609, 
    "ADDRESS": "215 W ROOT ST", 
    "YEAR": 2013, 
    "LONGITUDE": -87.631848636, 
    "LATTITUDE": 41.819012643
  }, 
  {
    "BUSINESS_TYPE": "Wholesale Food Establishment", 
    "LEGAL_NAME": "FLYING FOOD FARE MIDWAY, L.L.C.", 
    "STATE": "IL", 
    "DOING_BUSINESS_AS_NAME": "FLYING FOOD FARE MIDWAY L.L.C.", 
    "POP_AT_RISK": 31922, 
    "ZIP": 60638, 
    "ADDRESS": "5370 S CICERO AVE 1ST", 
    "YEAR": 2013, 
    "LONGITUDE": -87.742921085, 
    "LATTITUDE": 41.794681544
  }, 
  {
    "BUSINESS_TYPE": "Wholesale Food Establishment", 
    "LEGAL_NAME": "CORNELUIS RYAN", 
    "STATE": "IL", 
    "DOING_BUSINESS_AS_NAME": "CORNELUIS RYAN", 
    "POP_AT_RISK": 33142, 
    "ZIP": 60637, 
    "ADDRESS": "6717 S STATE ST 1ST", 
    "YEAR": 2013, 
    "LONGITUDE": -87.624968105, 
    "LATTITUDE": 41.7722037
  }, 
  {
    "BUSINESS_TYPE": "Wholesale Food Establishment", 
    "LEGAL_NAME": "ANICHINI BROTHERS INC", 
    "STATE": "IL", 
    "DOING_BUSINESS_AS_NAME": "ANICHINI BROS INC", 
    "POP_AT_RISK": 77328, 
    "ZIP": 60610, 
    "ADDRESS": "545 N WELLS ST # 1ST", 
    "YEAR": 2013, 
    "LONGITUDE": -87.633932947, 
    "LATTITUDE": 41.892133479
  }, 
  {
    "BUSINESS_TYPE": "Wholesale Food Establishment", 
    "LEGAL_NAME": "TEKLA INC", 
    "STATE": "IL", 
    "DOING_BUSINESS_AS_NAME": "TEKLA INC", 
    "POP_AT_RISK": 53240, 
    "ZIP": 60642, 
    "ADDRESS": "1456 N DAYTON ST 1ST", 
    "YEAR": 2013, 
    "LONGITUDE": -87.649578464, 
    "LATTITUDE": 41.908032372
  }, 
  {
    "BUSINESS_TYPE": "Wholesale Food Establishment", 
    "LEGAL_NAME": "LANG ICE COMPANY", 
    "STATE": "IL", 
    "DOING_BUSINESS_AS_NAME": "LANG ICE COMPANY", 
    "POP_AT_RISK": 69163, 
    "ZIP": 60629, 
    "ADDRESS": "3600 W 59TH ST  1", 
    "YEAR": 2013, 
    "LONGITUDE": -87.713489422, 
    "LATTITUDE": 41.786196545
  }, 
  {
    "BUSINESS_TYPE": "Wholesale Food Establishment", 
    "LEGAL_NAME": "AMERICAN SUGAR REFINING, INC.", 
    "STATE": "IL", 
    "DOING_BUSINESS_AS_NAME": "American Sugar Refining, Inc.", 
    "POP_AT_RISK": 2798, 
    "ZIP": 60633, 
    "ADDRESS": "2400 E 130TH ST", 
    "YEAR": 2013, 
    "LONGITUDE": -87.565517863, 
    "LATTITUDE": 41.659286039
  }, 
  {
    "BUSINESS_TYPE": "Wholesale Food Establishment", 
    "LEGAL_NAME": "RONALD G MULHOLLAND", 
    "STATE": "IL", 
    "DOING_BUSINESS_AS_NAME": "RONALD G MULHOLLAND", 
    "POP_AT_RISK": 74885, 
    "ZIP": 60018, 
    "ADDRESS": "1769  PRATT AVE 1ST", 
    "YEAR": 2013, 
    "LONGITUDE": -87.675448234, 
    "LATTITUDE": 42.005190557
  }, 
  {
    "BUSINESS_TYPE": "Wholesale Food Establishment", 
    "LEGAL_NAME": "BERNARD SILVER", 
    "STATE": "IL", 
    "DOING_BUSINESS_AS_NAME": "CHAR CRUST COMPANY", 
    "POP_AT_RISK": 79148, 
    "ZIP": 60657, 
    "ADDRESS": "3017 N LINCOLN AVE  303", 
    "YEAR": 2013, 
    "LONGITUDE": -87.664171149, 
    "LATTITUDE": 41.936610078
  }, 
  {
    "BUSINESS_TYPE": "Wholesale Food Establishment", 
    "LEGAL_NAME": "FOOD & PAPER SUPPLY CO.", 
    "STATE": "IL", 
    "DOING_BUSINESS_AS_NAME": "FOOD & PAPER SUPPLY CO.", 
    "POP_AT_RISK": 20546, 
    "ZIP": 60619, 
    "ADDRESS": "945 E 93RD ST", 
    "YEAR": 2013, 
    "LONGITUDE": -87.600791521, 
    "LATTITUDE": 41.725651845
  }, 
  {
    "BUSINESS_TYPE": "Wholesale Food Establishment", 
    "LEGAL_NAME": "CHICAGO ORIENTAL WHOLESALE MARKET, INC.", 
    "STATE": "IL", 
    "DOING_BUSINESS_AS_NAME": "Chicago Oriental Wholesale Market", 
    "POP_AT_RISK": 39535, 
    "ZIP": 60616, 
    "ADDRESS": "15-19 E 23RD ST 1", 
    "YEAR": 2013, 
    "LONGITUDE": -87.626317318, 
    "LATTITUDE": 41.850967221
  }, 
  {
    "BUSINESS_TYPE": "Wholesale Food Establishment", 
    "LEGAL_NAME": "ALL UNITED IMPORTS, INC.", 
    "STATE": "IL", 
    "DOING_BUSINESS_AS_NAME": "ALL UNITED IMPORTS", 
    "POP_AT_RISK": 18429, 
    "ZIP": 60617, 
    "ADDRESS": "9332 S ANTHONY AVE", 
    "YEAR": 2013, 
    "LONGITUDE": -87.552876069, 
    "LATTITUDE": 41.725522765
  }, 
  {
    "BUSINESS_TYPE": "Wholesale Food Establishment", 
    "LEGAL_NAME": "MICHAEL CIAMPANELLI", 
    "STATE": "IL", 
    "DOING_BUSINESS_AS_NAME": "MICHAELANGELO'S FOODS", 
    "POP_AT_RISK": 22939, 
    "ZIP": 60707, 
    "ADDRESS": "2701 N HARLEM AVE 1ST", 
    "YEAR": 2013, 
    "LONGITUDE": -87.806282804, 
    "LATTITUDE": 41.928962604
  }, 
  {
    "BUSINESS_TYPE": "Wholesale Food Establishment", 
    "LEGAL_NAME": "LANG ICE COMPANY", 
    "STATE": "IL", 
    "DOING_BUSINESS_AS_NAME": "LANG ICE CO", 
    "POP_AT_RISK": 27084, 
    "ZIP": 60621, 
    "ADDRESS": "101 W 60TH ST 1ST", 
    "YEAR": 2013, 
    "LONGITUDE": -87.627628296, 
    "LATTITUDE": 41.78539649
  }, 
  {
    "BUSINESS_TYPE": "Wholesale Food Establishment", 
    "LEGAL_NAME": "DEARBORN WHOLESALE GROCERS LP", 
    "STATE": "IL", 
    "DOING_BUSINESS_AS_NAME": "DEARBORN WHOLESALE GROCER LP", 
    "POP_AT_RISK": 29702, 
    "ZIP": 60620, 
    "ADDRESS": "1841 W 79TH ST 1 #", 
    "YEAR": 2013, 
    "LONGITUDE": -87.669889517, 
    "LATTITUDE": 41.750161677
  }, 
  {
    "BUSINESS_TYPE": "Wholesale Food Establishment", 
    "LEGAL_NAME": "CHEESECAKES BY JR, INC.", 
    "STATE": "IL", 
    "DOING_BUSINESS_AS_NAME": "JR DESSERT BAKERY", 
    "POP_AT_RISK": 17465, 
    "ZIP": 60645, 
    "ADDRESS": "2841 W HOWARD ST", 
    "YEAR": 2013, 
    "LONGITUDE": -87.701164442, 
    "LATTITUDE": 42.019181973
  }, 
  {
    "BUSINESS_TYPE": "Wholesale Food Establishment", 
    "LEGAL_NAME": "FOOD & PAPER SUPPLY CO.", 
    "STATE": "IL", 
    "DOING_BUSINESS_AS_NAME": "FOOD & PAPER SUPPLY CO.", 
    "POP_AT_RISK": 28528, 
    "ZIP": 60619, 
    "ADDRESS": "7247-7249 S SOUTH CHICAGO AVE  1ST", 
    "YEAR": 2013, 
    "LONGITUDE": -87.602081193, 
    "LATTITUDE": 41.763518738
  }, 
  {
    "BUSINESS_TYPE": "Wholesale Food Establishment", 
    "LEGAL_NAME": "THE MEAT FACTORY INC", 
    "STATE": "IL", 
    "DOING_BUSINESS_AS_NAME": "THE MEAT FACTORY INC", 
    "POP_AT_RISK": 7012, 
    "ZIP": 60628, 
    "ADDRESS": "12847 S HALSTED ST  1ST", 
    "YEAR": 2013, 
    "LONGITUDE": -87.641168832, 
    "LATTITUDE": 41.660086339
  }, 
  {
    "BUSINESS_TYPE": "Wholesale Food Establishment", 
    "LEGAL_NAME": "CHARLES E CHANDLER", 
    "STATE": "IL", 
    "DOING_BUSINESS_AS_NAME": "MAJOR PRODUCTS DISTRIBUTOR", 
    "POP_AT_RISK": 36596, 
    "ZIP": 60621, 
    "ADDRESS": "7335 S HALSTED ST", 
    "YEAR": 2013, 
    "LONGITUDE": -87.644147323, 
    "LATTITUDE": 41.760515024
  }, 
  {
    "BUSINESS_TYPE": "Wholesale Food Establishment", 
    "LEGAL_NAME": "INNOPHOS INC.", 
    "STATE": "IL", 
    "DOING_BUSINESS_AS_NAME": "INNOPHOS INC.", 
    "POP_AT_RISK": 3373, 
    "ZIP": 60827, 
    "ADDRESS": "612 E 138TH ST", 
    "YEAR": 2013, 
    "LONGITUDE": -87.606793308, 
    "LATTITUDE": 41.644716519
  }, 
  {
    "BUSINESS_TYPE": "Wholesale Food Establishment", 
    "LEGAL_NAME": "Salad Oils International Corp.", 
    "STATE": "IL", 
    "DOING_BUSINESS_AS_NAME": "Salad Oils International Corp.", 
    "POP_AT_RISK": 31111, 
    "ZIP": 60644, 
    "ADDRESS": "5070 W HARRISON ST", 
    "YEAR": 2013, 
    "LONGITUDE": -87.752012369, 
    "LATTITUDE": 41.873092477
  }, 
  {
    "BUSINESS_TYPE": "Wholesale Food Establishment", 
    "LEGAL_NAME": "MARIGOLD, INC.", 
    "STATE": "IL", 
    "DOING_BUSINESS_AS_NAME": "MARIGOLD, INC.", 
    "POP_AT_RISK": 29069, 
    "ZIP": 60619, 
    "ADDRESS": "8815 S DOBSON AVE", 
    "YEAR": 2013, 
    "LONGITUDE": -87.59893838, 
    "LATTITUDE": 41.73441096
  }, 
  {
    "BUSINESS_TYPE": "Wholesale Food Establishment", 
    "LEGAL_NAME": "DEARBORN WHOLESALE GROCERS LP", 
    "STATE": "IL", 
    "DOING_BUSINESS_AS_NAME": "DEARBORN WHOLESALE GROCERS INC", 
    "POP_AT_RISK": 74302, 
    "ZIP": 60613, 
    "ADDRESS": "918 W MONTROSE AVE 1ST #", 
    "YEAR": 2013, 
    "LONGITUDE": -87.653127379, 
    "LATTITUDE": 41.961909845
  }, 
  {
    "BUSINESS_TYPE": "Wholesale Food Establishment", 
    "LEGAL_NAME": "ARTOS LIMITED", 
    "STATE": "IL", 
    "DOING_BUSINESS_AS_NAME": "ARTOPOLIS BAKERY, CAFE & A GORA", 
    "POP_AT_RISK": 25032, 
    "ZIP": 60609, 
    "ADDRESS": "125 W 46TH PL", 
    "YEAR": 2013, 
    "LONGITUDE": -87.629450321, 
    "LATTITUDE": 41.810644406
  }, 
  {
    "BUSINESS_TYPE": "Wholesale Food Establishment", 
    "LEGAL_NAME": "TOOTSIE ROLL INDUSTRIES, LLC", 
    "STATE": "IL", 
    "DOING_BUSINESS_AS_NAME": "TOOTSIE ROLL INDUSTRIES, LLC", 
    "POP_AT_RISK": 11030, 
    "ZIP": 60629, 
    "ADDRESS": "7401 S CICERO AVE", 
    "YEAR": 2013, 
    "LONGITUDE": -87.741535662, 
    "LATTITUDE": 41.758727998
  }, 
  {
    "BUSINESS_TYPE": "Wholesale Food Establishment", 
    "LEGAL_NAME": "PAKET CORPORATION", 
    "STATE": "IL", 
    "DOING_BUSINESS_AS_NAME": "PAKET CORPORATION", 
    "POP_AT_RISK": 15190, 
    "ZIP": 60617, 
    "ADDRESS": "9165 S HARBOR AVE", 
    "YEAR": 2013, 
    "LONGITUDE": -87.542122592, 
    "LATTITUDE": 41.728978368
  }, 
  {
    "BUSINESS_TYPE": "Wholesale Food Establishment", 
    "LEGAL_NAME": "OLYMPIA FOOD INDUSTRIES INC", 
    "STATE": "IL", 
    "DOING_BUSINESS_AS_NAME": "OLYMPIA FOOD INDUSTRIES INC", 
    "POP_AT_RISK": 31097, 
    "ZIP": 60638, 
    "ADDRESS": "5757 W 59TH ST 1ST", 
    "YEAR": 2013, 
    "LONGITUDE": -87.766753432, 
    "LATTITUDE": 41.785192674
  }, 
  {
    "BUSINESS_TYPE": "Wholesale Food Establishment", 
    "LEGAL_NAME": "GOOD FOODS GROUP, INC.", 
    "STATE": "IL", 
    "DOING_BUSINESS_AS_NAME": "CHEF EARL'S", 
    "POP_AT_RISK": 26135, 
    "ZIP": 60634, 
    "ADDRESS": "6851 W IRVING PARK RD 1ST FL", 
    "YEAR": 2013, 
    "LONGITUDE": -87.798306311, 
    "LATTITUDE": 41.952632794
  }, 
  {
    "BUSINESS_TYPE": "Wholesale Food Establishment", 
    "LEGAL_NAME": "DANISH MAID BUTTER CO INC", 
    "STATE": "IL", 
    "DOING_BUSINESS_AS_NAME": "DANISH MAID BUTTER CO IN", 
    "POP_AT_RISK": 32160, 
    "ZIP": 60617, 
    "ADDRESS": "8508  -08512 S COMMERCIAL AVE  1", 
    "YEAR": 2013, 
    "LONGITUDE": -87.551637795, 
    "LATTITUDE": 41.740700862
  }, 
  {
    "BUSINESS_TYPE": "Wholesale Food Establishment", 
    "LEGAL_NAME": "DEL MONTE FRESH PRODUCE N.A., INC.", 
    "STATE": "IL", 
    "DOING_BUSINESS_AS_NAME": "DEL MONTE FRESH PRODUCE N A IN", 
    "POP_AT_RISK": 13388, 
    "ZIP": 60628, 
    "ADDRESS": "9880 S DORCHESTER AVE  11", 
    "YEAR": 2013, 
    "LONGITUDE": -87.590561621, 
    "LATTITUDE": 41.715083039
  }, 
  {
    "BUSINESS_TYPE": "Wholesale Food Establishment", 
    "LEGAL_NAME": "NADER WHOLESALE GROCERS INC", 
    "STATE": "IL", 
    "DOING_BUSINESS_AS_NAME": "NADER WHOLESALE GROCERS INC", 
    "POP_AT_RISK": 27493, 
    "ZIP": 60652, 
    "ADDRESS": "3636 W 83RD PL", 
    "YEAR": 2013, 
    "LONGITUDE": -87.71354242, 
    "LATTITUDE": 41.741506927
  }, 
  {
    "BUSINESS_TYPE": "Wholesale Food Establishment", 
    "LEGAL_NAME": "NUTS ON CLARK INC", 
    "STATE": "IL", 
    "DOING_BUSINESS_AS_NAME": "NUTS ON CLARK INC", 
    "POP_AT_RISK": 88382, 
    "ZIP": 60613, 
    "ADDRESS": "3830 N CLARK ST", 
    "YEAR": 2013, 
    "LONGITUDE": -87.66038146, 
    "LATTITUDE": 41.951806344
  }
]