[
  {
    "BUSINESS_TYPE": "Peddler, food (fruits and vegtables only)", 
    "LEGAL_NAME": "VILLEGIS ALFONSO", 
    "STATE": "IL", 
    "DOING_BUSINESS_AS_NAME": "VILLEGIS ALFONSO", 
    "POP_AT_RISK": 51138, 
    "ZIP": 60645, 
    "ADDRESS": "7409 N DAMEN AVE", 
    "YEAR": 2003, 
    "LONGITUDE": -87.680323398, 
    "LATTITUDE": 42.016948641
  }, 
  {
    "BUSINESS_TYPE": "Peddler, food (fruits and vegtables only)", 
    "LEGAL_NAME": "ALMA ROSA MARTINEZ", 
    "STATE": "IL", 
    "DOING_BUSINESS_AS_NAME": "ALMA ROSA MARTINEZ", 
    "POP_AT_RISK": 20478, 
    "ZIP": 60632, 
    "ADDRESS": "4510 S KEATING AVE", 
    "YEAR": 2003, 
    "LONGITUDE": -87.742173235, 
    "LATTITUDE": 41.810917411
  }, 
  {
    "BUSINESS_TYPE": "Peddler, food (fruits and vegtables only)", 
    "LEGAL_NAME": "JESUS CERRATO", 
    "STATE": "IL", 
    "DOING_BUSINESS_AS_NAME": "JESUS CERRATO", 
    "POP_AT_RISK": 22104, 
    "ZIP": 60628, 
    "ADDRESS": "318 E 116TH ST 1ST", 
    "YEAR": 2003, 
    "LONGITUDE": -87.615929074, 
    "LATTITUDE": 41.682701581
  }, 
  {
    "BUSINESS_TYPE": "Peddler, food (fruits and vegtables only)", 
    "LEGAL_NAME": "AGUSTINA QUINTERO", 
    "STATE": "IL", 
    "DOING_BUSINESS_AS_NAME": "AGUSTINA QUINTERO", 
    "POP_AT_RISK": 62348, 
    "ZIP": 60622, 
    "ADDRESS": "1623 N WOOD ST", 
    "YEAR": 2003, 
    "LONGITUDE": -87.672447784, 
    "LATTITUDE": 41.911276209
  }, 
  {
    "BUSINESS_TYPE": "Peddler, food (fruits and vegtables only)", 
    "LEGAL_NAME": "THOMAS G. HARGROVE", 
    "STATE": "IL", 
    "DOING_BUSINESS_AS_NAME": "THOMAS G. HARGROVE", 
    "POP_AT_RISK": 74628, 
    "ZIP": 60614, 
    "ADDRESS": "2616 N HAMPDEN CT 210 #", 
    "YEAR": 2003, 
    "LONGITUDE": -87.64106065, 
    "LATTITUDE": 41.929694399
  }, 
  {
    "BUSINESS_TYPE": "Peddler, food (fruits and vegtables only)", 
    "LEGAL_NAME": "ALBERTO ARIAS HERNANDEZ", 
    "STATE": "IL", 
    "DOING_BUSINESS_AS_NAME": "ALBERTO ARIAS HERNANDEZ", 
    "POP_AT_RISK": 58074, 
    "ZIP": 60626, 
    "ADDRESS": "1755 W ALBION AVE  2B", 
    "YEAR": 2003, 
    "LONGITUDE": -87.674491588, 
    "LATTITUDE": 42.001547992
  }, 
  {
    "BUSINESS_TYPE": "Peddler, food (fruits and vegtables only)", 
    "LEGAL_NAME": "CARMEN MORALES", 
    "STATE": "IL", 
    "DOING_BUSINESS_AS_NAME": "CARMEN MORALES", 
    "POP_AT_RISK": 46248, 
    "ZIP": 60608, 
    "ADDRESS": "3049 S FARRELL ST", 
    "YEAR": 2003, 
    "LONGITUDE": -87.650887433, 
    "LATTITUDE": 41.838473608
  }, 
  {
    "BUSINESS_TYPE": "Peddler, food (fruits and vegtables only)", 
    "LEGAL_NAME": "MARIA G. MANZANO", 
    "STATE": "IL", 
    "DOING_BUSINESS_AS_NAME": "MARIA G. MANZANO", 
    "POP_AT_RISK": 29424, 
    "ZIP": 60652, 
    "ADDRESS": "3925 W 78TH ST", 
    "YEAR": 2003, 
    "LONGITUDE": -87.721462439, 
    "LATTITUDE": 41.751257278
  }, 
  {
    "BUSINESS_TYPE": "Peddler, food (fruits and vegtables only)", 
    "LEGAL_NAME": "ANGELICA A  CONTRERAS", 
    "STATE": "IL", 
    "DOING_BUSINESS_AS_NAME": "ANGELICA A CONTRERAS", 
    "POP_AT_RISK": 64123, 
    "ZIP": 60618, 
    "ADDRESS": "2865 N CLYBOURN AVE", 
    "YEAR": 2003, 
    "LONGITUDE": -87.679993469, 
    "LATTITUDE": 41.933783396
  }, 
  {
    "BUSINESS_TYPE": "Peddler, food (fruits and vegtables only)", 
    "LEGAL_NAME": "GENTLE P JOHNSON", 
    "STATE": "IL", 
    "DOING_BUSINESS_AS_NAME": "GENTLE P JOHNSON", 
    "POP_AT_RISK": 11356, 
    "ZIP": 60827, 
    "ADDRESS": "236 E 131ST PL", 
    "YEAR": 2003, 
    "LONGITUDE": -87.615576366, 
    "LATTITUDE": 41.656585738
  }, 
  {
    "BUSINESS_TYPE": "Peddler, food (fruits and vegtables only)", 
    "LEGAL_NAME": "ANDREW RENFRO/BERNICE WILLIAMS", 
    "STATE": "IL", 
    "DOING_BUSINESS_AS_NAME": "BERNICE WILLIAMS", 
    "POP_AT_RISK": 28900, 
    "ZIP": 60653, 
    "ADDRESS": "64 E 37TH ST", 
    "YEAR": 2003, 
    "LONGITUDE": -87.623982857, 
    "LATTITUDE": 41.827496511
  }, 
  {
    "BUSINESS_TYPE": "Peddler, food (fruits and vegtables only)", 
    "LEGAL_NAME": "LUIGI ADDANTE", 
    "STATE": "IL", 
    "DOING_BUSINESS_AS_NAME": "LUIGI ADDANTE", 
    "POP_AT_RISK": 30226, 
    "ZIP": 60707, 
    "ADDRESS": "2725 N NEVA AVE", 
    "YEAR": 2003, 
    "LONGITUDE": -87.805087815, 
    "LATTITUDE": 41.929723241
  }, 
  {
    "BUSINESS_TYPE": "Peddler, food (fruits and vegtables only)", 
    "LEGAL_NAME": "HILDA NEGRETE", 
    "STATE": "IL", 
    "DOING_BUSINESS_AS_NAME": "HILDA NEGRETE", 
    "POP_AT_RISK": 20389, 
    "ZIP": 60652, 
    "ADDRESS": "8101 S CHRISTIANA AVE", 
    "YEAR": 2003, 
    "LONGITUDE": -87.705804157, 
    "LATTITUDE": 41.746004783
  }, 
  {
    "BUSINESS_TYPE": "Peddler, food (fruits and vegtables only)", 
    "LEGAL_NAME": "Richard F. Sickowski", 
    "STATE": "IL", 
    "DOING_BUSINESS_AS_NAME": "Richard F. Sickowski", 
    "POP_AT_RISK": 74543, 
    "ZIP": 60657, 
    "ADDRESS": "3333 N MARSHFIELD AVE # 409", 
    "YEAR": 2003, 
    "LONGITUDE": -87.669812637, 
    "LATTITUDE": 41.942501894
  }, 
  {
    "BUSINESS_TYPE": "Peddler, food (fruits and vegtables only)", 
    "LEGAL_NAME": "MARIA SANCHEZ", 
    "STATE": "IL", 
    "DOING_BUSINESS_AS_NAME": "MARIA SANCHEZ", 
    "POP_AT_RISK": 48415, 
    "ZIP": 60634, 
    "ADDRESS": "3353 N NARRAGANSETT AVE", 
    "YEAR": 2003, 
    "LONGITUDE": -87.786054109, 
    "LATTITUDE": 41.941772464
  }, 
  {
    "BUSINESS_TYPE": "Peddler, food (fruits and vegtables only)", 
    "LEGAL_NAME": "MARCUS LYONS", 
    "STATE": "IL", 
    "DOING_BUSINESS_AS_NAME": "MARCUS LYONS", 
    "POP_AT_RISK": 37309, 
    "ZIP": 60621, 
    "ADDRESS": "258 W MARQUETTE RD", 
    "YEAR": 2003, 
    "LONGITUDE": -87.63226993, 
    "LATTITUDE": 41.772785904
  }, 
  {
    "BUSINESS_TYPE": "Peddler, food (fruits and vegtables only)", 
    "LEGAL_NAME": "REMBERTO FLORES", 
    "STATE": "IL", 
    "DOING_BUSINESS_AS_NAME": "REMBERTO FLORES", 
    "POP_AT_RISK": 39198, 
    "ZIP": 60632, 
    "ADDRESS": "5355 S TRIPP AVE", 
    "YEAR": 2003, 
    "LONGITUDE": -87.729197291, 
    "LATTITUDE": 41.795195519
  }, 
  {
    "BUSINESS_TYPE": "Peddler, food (fruits and vegtables only)", 
    "LEGAL_NAME": "EVANGELINA AVILES", 
    "STATE": "IL", 
    "DOING_BUSINESS_AS_NAME": "EVANGELINA AVILES", 
    "POP_AT_RISK": 57211, 
    "ZIP": 60622, 
    "ADDRESS": "1224 N CLEAVER ST", 
    "YEAR": 2003, 
    "LONGITUDE": -87.663999478, 
    "LATTITUDE": 41.904171517
  }, 
  {
    "BUSINESS_TYPE": "Peddler, food (fruits and vegtables only)", 
    "LEGAL_NAME": "FELICITAS URIOSTEGUI", 
    "STATE": "IL", 
    "DOING_BUSINESS_AS_NAME": "FELICITAS URIOSTEGUI", 
    "POP_AT_RISK": 35983, 
    "ZIP": 60612, 
    "ADDRESS": "2418 W FILLMORE ST", 
    "YEAR": 2003, 
    "LONGITUDE": -87.686891158, 
    "LATTITUDE": 41.868531798
  }, 
  {
    "BUSINESS_TYPE": "Peddler, food (fruits and vegtables only)", 
    "LEGAL_NAME": "CHARLEY CARROLL", 
    "STATE": "IL", 
    "DOING_BUSINESS_AS_NAME": "CHARLEY CARROLL", 
    "POP_AT_RISK": 34051, 
    "ZIP": 60617, 
    "ADDRESS": "8013 S PHILLIPS AVE 1ST", 
    "YEAR": 2003, 
    "LONGITUDE": -87.56483593, 
    "LATTITUDE": 41.749422563
  }, 
  {
    "BUSINESS_TYPE": "Peddler, food (fruits and vegtables only)", 
    "LEGAL_NAME": "ROBERT L. JOHNSON, JR", 
    "STATE": "IL", 
    "DOING_BUSINESS_AS_NAME": "ROBERT L. JOHNSON JR.", 
    "POP_AT_RISK": 12432, 
    "ZIP": 60643, 
    "ADDRESS": "12056 S JUSTINE ST", 
    "YEAR": 2003, 
    "LONGITUDE": -87.660205703, 
    "LATTITUDE": 41.674052619
  }, 
  {
    "BUSINESS_TYPE": "Peddler, food (fruits and vegtables only)", 
    "LEGAL_NAME": "EMPERATRIZ M. MALDONADO", 
    "STATE": "IL", 
    "DOING_BUSINESS_AS_NAME": "EMPERATRIZ FRUIT", 
    "POP_AT_RISK": 51499, 
    "ZIP": 60634, 
    "ADDRESS": "5632 W PENSACOLA AVE", 
    "YEAR": 2003, 
    "LONGITUDE": -87.768552045, 
    "LATTITUDE": 41.959663478
  }, 
  {
    "BUSINESS_TYPE": "Peddler, food (fruits and vegtables only)", 
    "LEGAL_NAME": "KATHLEEN A. EVERS", 
    "STATE": "IL", 
    "DOING_BUSINESS_AS_NAME": "KATHLEEN A. EVERS", 
    "POP_AT_RISK": 33545, 
    "ZIP": 60624, 
    "ADDRESS": "3219 W MAYPOLE AVE", 
    "YEAR": 2003, 
    "LONGITUDE": -87.706974625, 
    "LATTITUDE": 41.883501662
  }, 
  {
    "BUSINESS_TYPE": "Peddler, food (fruits and vegtables only)", 
    "LEGAL_NAME": "LEROY L. MELTON", 
    "STATE": "IL", 
    "DOING_BUSINESS_AS_NAME": "LEROY L MELTON", 
    "POP_AT_RISK": 26522, 
    "ZIP": 60628, 
    "ADDRESS": "145 E 111TH ST", 
    "YEAR": 2003, 
    "LONGITUDE": -87.61917329, 
    "LATTITUDE": 41.692527074
  }, 
  {
    "BUSINESS_TYPE": "Peddler, food (fruits and vegtables only)", 
    "LEGAL_NAME": "FRED HUNTER", 
    "STATE": "IL", 
    "DOING_BUSINESS_AS_NAME": "FRED HUNTER", 
    "POP_AT_RISK": 26727, 
    "ZIP": 60637, 
    "ADDRESS": "6605 S ELLIS AVE 1ST", 
    "YEAR": 2003, 
    "LONGITUDE": -87.600788954, 
    "LATTITUDE": 41.774809365
  }, 
  {
    "BUSINESS_TYPE": "Peddler, food (fruits and vegtables only)", 
    "LEGAL_NAME": "WARREN LP HOUSTON", 
    "STATE": "IL", 
    "DOING_BUSINESS_AS_NAME": "WARREN LP HOUSTON", 
    "POP_AT_RISK": 49796, 
    "ZIP": 60629, 
    "ADDRESS": "6541 S ARTESIAN AVE", 
    "YEAR": 2003, 
    "LONGITUDE": -87.68458348, 
    "LATTITUDE": 41.774380416
  }, 
  {
    "BUSINESS_TYPE": "Peddler, food (fruits and vegtables only)", 
    "LEGAL_NAME": "EDWARD JONES", 
    "STATE": "IL", 
    "DOING_BUSINESS_AS_NAME": "EDWARD JONES", 
    "POP_AT_RISK": 43246, 
    "ZIP": 60623, 
    "ADDRESS": "1325 S KOMENSKY AVE", 
    "YEAR": 2003, 
    "LONGITUDE": -87.726168857, 
    "LATTITUDE": 41.863558794
  }, 
  {
    "BUSINESS_TYPE": "Peddler, food (fruits and vegtables only)", 
    "LEGAL_NAME": "PRETA SANCHEZ", 
    "STATE": "IL", 
    "DOING_BUSINESS_AS_NAME": "PRETA B SANCHEZ", 
    "POP_AT_RISK": 66902, 
    "ZIP": 60626, 
    "ADDRESS": "6522 N ASHLAND AVE 1ST", 
    "YEAR": 2003, 
    "LONGITUDE": -87.670607784, 
    "LATTITUDE": 42.000629834
  }, 
  {
    "BUSINESS_TYPE": "Peddler, food (fruits and vegtables only)", 
    "LEGAL_NAME": "ROBERTA HOGAN", 
    "STATE": "IL", 
    "DOING_BUSINESS_AS_NAME": "HOGAN", 
    "POP_AT_RISK": 41523, 
    "ZIP": 60619, 
    "ADDRESS": "7612 S EBERHART AVE", 
    "YEAR": 2003, 
    "LONGITUDE": -87.612769968, 
    "LATTITUDE": 41.756194578
  }, 
  {
    "BUSINESS_TYPE": "Peddler, food (fruits and vegtables only)", 
    "LEGAL_NAME": "SALVADOR SALAS", 
    "STATE": "IL", 
    "DOING_BUSINESS_AS_NAME": "SALVADOR SALAS", 
    "POP_AT_RISK": 33884, 
    "ZIP": 60609, 
    "ADDRESS": "5040 S ABERDEEN ST", 
    "YEAR": 2003, 
    "LONGITUDE": -87.652794281, 
    "LATTITUDE": 41.802082367
  }, 
  {
    "BUSINESS_TYPE": "Peddler, food (fruits and vegtables only)", 
    "LEGAL_NAME": "BARBARA ANN MUHAMMAD", 
    "STATE": "IL", 
    "DOING_BUSINESS_AS_NAME": "BARBARA ANN MUHAMMAD", 
    "POP_AT_RISK": 33831, 
    "ZIP": 60619, 
    "ADDRESS": "1408 E 72ND PL 1ST", 
    "YEAR": 2003, 
    "LONGITUDE": -87.590491988, 
    "LATTITUDE": 41.763398112
  }, 
  {
    "BUSINESS_TYPE": "Peddler, food (fruits and vegtables only)", 
    "LEGAL_NAME": "JOHN  WELCH JR", 
    "STATE": "IL", 
    "DOING_BUSINESS_AS_NAME": "JOHN WELCH JR", 
    "POP_AT_RISK": 23770, 
    "ZIP": 60609, 
    "ADDRESS": "4444 S SHIELDS AVE 1 1", 
    "YEAR": 2003, 
    "LONGITUDE": -87.634768738, 
    "LATTITUDE": 41.813179979
  }, 
  {
    "BUSINESS_TYPE": "Peddler, food (fruits and vegtables only)", 
    "LEGAL_NAME": "ANDRE G RINCON", 
    "STATE": "IL", 
    "DOING_BUSINESS_AS_NAME": "ANDRE G RINCON", 
    "POP_AT_RISK": 19727, 
    "ZIP": 60617, 
    "ADDRESS": "9947 S AVENUE J", 
    "YEAR": 2003, 
    "LONGITUDE": -87.533923344, 
    "LATTITUDE": 41.714587359
  }, 
  {
    "BUSINESS_TYPE": "Peddler, food (fruits and vegtables only)", 
    "LEGAL_NAME": "MARCELO APARICIO", 
    "STATE": "IL", 
    "DOING_BUSINESS_AS_NAME": "MARCELO APARICIO", 
    "POP_AT_RISK": 34612, 
    "ZIP": 60644, 
    "ADDRESS": "4647 W HURON ST  1", 
    "YEAR": 2003, 
    "LONGITUDE": -87.743050276, 
    "LATTITUDE": 41.893099017
  }, 
  {
    "BUSINESS_TYPE": "Peddler, food (fruits and vegtables only)", 
    "LEGAL_NAME": "AGUILAR ROJAS MAGDALENO", 
    "STATE": "IL", 
    "DOING_BUSINESS_AS_NAME": "AGUILAR ROJAS MAGDALENO", 
    "POP_AT_RISK": 63352, 
    "ZIP": 60640, 
    "ADDRESS": "4608Q N BEACON ST", 
    "YEAR": 2003, 
    "LONGITUDE": -87.664035112, 
    "LATTITUDE": 41.965614225
  }, 
  {
    "BUSINESS_TYPE": "Peddler, food (fruits and vegtables only)", 
    "LEGAL_NAME": "ELIZABETH TIMS", 
    "STATE": "IL", 
    "DOING_BUSINESS_AS_NAME": "ELIZABETH TIMS", 
    "POP_AT_RISK": 28497, 
    "ZIP": 60649, 
    "ADDRESS": "7244 S COLES AVE", 
    "YEAR": 2003, 
    "LONGITUDE": -87.562865796, 
    "LATTITUDE": 41.764172794
  }
]