[
  {
    "BUSINESS_TYPE": "Special Event Food", 
    "LEGAL_NAME": "ST NICHOLAS OF TOLENTINE", 
    "STATE": "IL", 
    "DOING_BUSINESS_AS_NAME": "ST. NICHOLAS OF TOLENTINE KERMES", 
    "POP_AT_RISK": 57957, 
    "ZIP": 60629, 
    "ADDRESS": "3721 W 62ND ST", 
    "YEAR": 2017, 
    "LONGITUDE": -87.716332912, 
    "LATTITUDE": 41.780471718
  }, 
  {
    "BUSINESS_TYPE": "Special Event Food", 
    "LEGAL_NAME": "ST JEROMES CATHOLIC CHURCH", 
    "STATE": "IL", 
    "DOING_BUSINESS_AS_NAME": "ST JEROME CHURCH", 
    "POP_AT_RISK": 37989, 
    "ZIP": 60636, 
    "ADDRESS": "6940 S PAULINA ST", 
    "YEAR": 2017, 
    "LONGITUDE": -87.666459488, 
    "LATTITUDE": 41.767301256
  }, 
  {
    "BUSINESS_TYPE": "Special Event Food", 
    "LEGAL_NAME": "THE CORNER FARMACY, LLC", 
    "STATE": "IL", 
    "DOING_BUSINESS_AS_NAME": "The Corner Farmacy", 
    "POP_AT_RISK": 21085, 
    "ZIP": 60612, 
    "ADDRESS": "324 S LEAVITT ST", 
    "YEAR": 2017, 
    "LONGITUDE": -87.681566956, 
    "LATTITUDE": 41.876818724
  }, 
  {
    "BUSINESS_TYPE": "Special Event Food", 
    "LEGAL_NAME": "CATERING OUT THE BOX", 
    "STATE": "IL", 
    "DOING_BUSINESS_AS_NAME": "Catering Out the Box", 
    "POP_AT_RISK": 38232, 
    "ZIP": 60615, 
    "ADDRESS": "4930 S COTTAGE GROVE AVE", 
    "YEAR": 2017, 
    "LONGITUDE": -87.606614467, 
    "LATTITUDE": 41.80495747
  }, 
  {
    "BUSINESS_TYPE": "Special Event Food", 
    "LEGAL_NAME": "DIANE  WALFORD", 
    "STATE": "IL", 
    "DOING_BUSINESS_AS_NAME": "C & W SNOWIE VENTURES", 
    "POP_AT_RISK": 17150, 
    "ZIP": 60617, 
    "ADDRESS": "3570 E 112TH ST", 
    "YEAR": 2017, 
    "LONGITUDE": -87.536550173, 
    "LATTITUDE": 41.691957817
  }, 
  {
    "BUSINESS_TYPE": "Special Event Food", 
    "LEGAL_NAME": "SOCIEDAD AZUAY INC.", 
    "STATE": "IL", 
    "DOING_BUSINESS_AS_NAME": "ASOCIACION SOCIAL DEL AZUAY", 
    "POP_AT_RISK": 63177, 
    "ZIP": 60618, 
    "ADDRESS": "3751 W MONTROSE AVE", 
    "YEAR": 2017, 
    "LONGITUDE": -87.7225499, 
    "LATTITUDE": 41.960904335
  }, 
  {
    "BUSINESS_TYPE": "Special Event Food", 
    "LEGAL_NAME": "CHICAGO KOREAN-AMERICAN CHAMBER OF COMMERCE", 
    "STATE": "IL", 
    "DOING_BUSINESS_AS_NAME": "CKACC", 
    "POP_AT_RISK": 51736, 
    "ZIP": 60659, 
    "ADDRESS": "3200 W BRYN MAWR AVE", 
    "YEAR": 2017, 
    "LONGITUDE": -87.708939432, 
    "LATTITUDE": 41.983176457
  }, 
  {
    "BUSINESS_TYPE": "Special Event Food", 
    "LEGAL_NAME": "LAPDOG, INC.", 
    "STATE": "IL", 
    "DOING_BUSINESS_AS_NAME": "R PUBLIC HOUSE", 
    "POP_AT_RISK": 43751, 
    "ZIP": 60626, 
    "ADDRESS": "1508 W JARVIS AVE", 
    "YEAR": 2017, 
    "LONGITUDE": -87.668564043, 
    "LATTITUDE": 42.01615267
  }, 
  {
    "BUSINESS_TYPE": "Special Event Food", 
    "LEGAL_NAME": "C.J.'S BBQ CRUISER, L.L.C.", 
    "STATE": "IL", 
    "DOING_BUSINESS_AS_NAME": "CJ'S BBQ CRUISER", 
    "POP_AT_RISK": 31737, 
    "ZIP": 60632, 
    "ADDRESS": "4839 S HARDING AVE", 
    "YEAR": 2017, 
    "LONGITUDE": -87.722125225, 
    "LATTITUDE": 41.804886261
  }, 
  {
    "BUSINESS_TYPE": "Special Event Food", 
    "LEGAL_NAME": "ST JEROME HOLY NAME SOCIETY", 
    "STATE": "IL", 
    "DOING_BUSINESS_AS_NAME": "ST JEROME CHURCH", 
    "POP_AT_RISK": 36167, 
    "ZIP": 60616, 
    "ADDRESS": "2801 S PRINCETON AVE", 
    "YEAR": 2017, 
    "LONGITUDE": -87.634065294, 
    "LATTITUDE": 41.842515372
  }, 
  {
    "BUSINESS_TYPE": "Special Event Food", 
    "LEGAL_NAME": "CHURCH OF THE ANNUNCIATA", 
    "STATE": "IL", 
    "DOING_BUSINESS_AS_NAME": "CHURCH OF THE ANNUNCIATA", 
    "POP_AT_RISK": 10503, 
    "ZIP": 60628, 
    "ADDRESS": "750 E 112TH ST", 
    "YEAR": 2017, 
    "LONGITUDE": -87.603016819, 
    "LATTITUDE": 41.691404838
  }, 
  {
    "BUSINESS_TYPE": "Special Event Food", 
    "LEGAL_NAME": "FREDDIE'S INC.", 
    "STATE": "IL", 
    "DOING_BUSINESS_AS_NAME": "FREDDIE'S INC", 
    "POP_AT_RISK": 28539, 
    "ZIP": 60609, 
    "ADDRESS": "3700 S LOWE AVE", 
    "YEAR": 2017, 
    "LONGITUDE": -87.64250381, 
    "LATTITUDE": 41.82705615
  }, 
  {
    "BUSINESS_TYPE": "Special Event Food", 
    "LEGAL_NAME": "SFC FOODS CHICAGO INC.", 
    "STATE": "IL", 
    "DOING_BUSINESS_AS_NAME": "SEAFOOD CITY", 
    "POP_AT_RISK": 48083, 
    "ZIP": 60630, 
    "ADDRESS": "4346 W LAWRENCE AVE", 
    "YEAR": 2017, 
    "LONGITUDE": -87.737365421, 
    "LATTITUDE": 41.968248903
  }, 
  {
    "BUSINESS_TYPE": "Special Event Food", 
    "LEGAL_NAME": "MISERICORDIA/HEART OF MERCY", 
    "STATE": "IL", 
    "DOING_BUSINESS_AS_NAME": "MISERICORDIA HOME FAMILY FEST", 
    "POP_AT_RISK": 63819, 
    "ZIP": 60660, 
    "ADDRESS": "6300 N RIDGE AVE", 
    "YEAR": 2017, 
    "LONGITUDE": -87.675876884, 
    "LATTITUDE": 41.995579197
  }, 
  {
    "BUSINESS_TYPE": "Special Event Food", 
    "LEGAL_NAME": "THE CAJUN CONNOISSEUR LLC", 
    "STATE": "IL", 
    "DOING_BUSINESS_AS_NAME": "THE CAJUN CONNOISSEUR", 
    "POP_AT_RISK": 40116, 
    "ZIP": 60653, 
    "ADDRESS": "4317 S COTTAGE GROVE AVE", 
    "YEAR": 2017, 
    "LONGITUDE": -87.606552261, 
    "LATTITUDE": 41.816272525
  }, 
  {
    "BUSINESS_TYPE": "Special Event Food", 
    "LEGAL_NAME": "ST MARY STAR OF THE SEA", 
    "STATE": "IL", 
    "DOING_BUSINESS_AS_NAME": "ST MARY STAR OF THE SEA", 
    "POP_AT_RISK": 39094, 
    "ZIP": 60629, 
    "ADDRESS": "6435 S KILBOURN AVE", 
    "YEAR": 2017, 
    "LONGITUDE": -87.734734883, 
    "LATTITUDE": 41.775577366
  }, 
  {
    "BUSINESS_TYPE": "Special Event Food", 
    "LEGAL_NAME": "JS MARTINEZ CORPORATION", 
    "STATE": "IL", 
    "DOING_BUSINESS_AS_NAME": "La Barca El Taconazo", 
    "POP_AT_RISK": 56049, 
    "ZIP": 60639, 
    "ADDRESS": "4124 W NORTH AVE", 
    "YEAR": 2017, 
    "LONGITUDE": -87.729950371, 
    "LATTITUDE": 41.90994655
  }, 
  {
    "BUSINESS_TYPE": "Special Event Food", 
    "LEGAL_NAME": "BANTU ENTERTAINMENT", 
    "STATE": "IL", 
    "DOING_BUSINESS_AS_NAME": "Bantu Entertainment", 
    "POP_AT_RISK": 39129, 
    "ZIP": 60637, 
    "ADDRESS": "1200 E MIDWAY PLAISANCE", 
    "YEAR": 2017, 
    "LONGITUDE": -87.596279853, 
    "LATTITUDE": 41.78734527
  }, 
  {
    "BUSINESS_TYPE": "Special Event Food", 
    "LEGAL_NAME": "PIZZA YOU CAN'T REFUSE INC.", 
    "STATE": "IL", 
    "DOING_BUSINESS_AS_NAME": "Caponies", 
    "POP_AT_RISK": 22432, 
    "ZIP": 60634, 
    "ADDRESS": "7419 W IRVING PARK RD", 
    "YEAR": 2017, 
    "LONGITUDE": -87.813033239, 
    "LATTITUDE": 41.952524165
  }, 
  {
    "BUSINESS_TYPE": "Special Event Food", 
    "LEGAL_NAME": "CARNITAS,CHELAS AND CHICAS COMPANY #11", 
    "STATE": "IL", 
    "DOING_BUSINESS_AS_NAME": "LA MEXICANA", 
    "POP_AT_RISK": 42373, 
    "ZIP": 60632, 
    "ADDRESS": "4171 S ARCHER AVE", 
    "YEAR": 2017, 
    "LONGITUDE": -87.698257748, 
    "LATTITUDE": 41.817617589
  }, 
  {
    "BUSINESS_TYPE": "Special Event Food", 
    "LEGAL_NAME": "BLESSED SACRAMENT PARISH", 
    "STATE": "IL", 
    "DOING_BUSINESS_AS_NAME": "BLESSED SACRAMENT PARISH", 
    "POP_AT_RISK": 31840, 
    "ZIP": 60609, 
    "ADDRESS": "3525 S HERMITAGE AVE", 
    "YEAR": 2017, 
    "LONGITUDE": -87.669011428, 
    "LATTITUDE": 41.829690211
  }, 
  {
    "BUSINESS_TYPE": "Special Event Food", 
    "LEGAL_NAME": "TAQUERIA LOS PATRONCITOS CO.", 
    "STATE": "IL", 
    "DOING_BUSINESS_AS_NAME": "6/10/17 - 6/11/17 Pilsen Food Truck Social", 
    "POP_AT_RISK": 32927, 
    "ZIP": 60609, 
    "ADDRESS": "1200 W 47TH ST", 
    "YEAR": 2017, 
    "LONGITUDE": -87.655304595, 
    "LATTITUDE": 41.808842938
  }, 
  {
    "BUSINESS_TYPE": "Special Event Food", 
    "LEGAL_NAME": "ST MARY'S ROMANIAN ORTHODOX CHURCH", 
    "STATE": "IL", 
    "DOING_BUSINESS_AS_NAME": "ST MARY'S ROMANIAN ORTHODOX", 
    "POP_AT_RISK": 52427, 
    "ZIP": 60634, 
    "ADDRESS": "4225 N CENTRAL AVE", 
    "YEAR": 2017, 
    "LONGITUDE": -87.767001472, 
    "LATTITUDE": 41.957639396
  }, 
  {
    "BUSINESS_TYPE": "Special Event Food", 
    "LEGAL_NAME": "CATHOLIC BISHOP OF CHICAGO,A CORPORATIONSOLE", 
    "STATE": "IL", 
    "DOING_BUSINESS_AS_NAME": "ST. RITA OF CASCIA PARISH", 
    "POP_AT_RISK": 59249, 
    "ZIP": 60629, 
    "ADDRESS": "6243 S FAIRFIELD AVE", 
    "YEAR": 2017, 
    "LONGITUDE": -87.69204552, 
    "LATTITUDE": 41.779680706
  }, 
  {
    "BUSINESS_TYPE": "Special Event Food", 
    "LEGAL_NAME": "THE CATHOLIC BISHOP OF CHICAGO", 
    "STATE": "IL", 
    "DOING_BUSINESS_AS_NAME": "OUR LADY OF TEPEYAC PARIS", 
    "POP_AT_RISK": 59846, 
    "ZIP": 60623, 
    "ADDRESS": "2212 S ALBANY AVE", 
    "YEAR": 2017, 
    "LONGITUDE": -87.702938286, 
    "LATTITUDE": 41.851367898
  }, 
  {
    "BUSINESS_TYPE": "Special Event Food", 
    "LEGAL_NAME": "HOLLY RESURRECTION SERBIAN ORTHODOX CATHEDRAL", 
    "STATE": "IL", 
    "DOING_BUSINESS_AS_NAME": "HOLY RESURRECTION SERBIAN ORTHODOX CATHEDRAL", 
    "POP_AT_RISK": 27999, 
    "ZIP": 60631, 
    "ADDRESS": "5701 N REDWOOD DR", 
    "YEAR": 2017, 
    "LONGITUDE": -87.828004151, 
    "LATTITUDE": 41.983044674
  }, 
  {
    "BUSINESS_TYPE": "Special Event Food", 
    "LEGAL_NAME": "St. Ferdinand Church", 
    "STATE": "IL", 
    "DOING_BUSINESS_AS_NAME": "St. Ferdinand", 
    "POP_AT_RISK": 54111, 
    "ZIP": 60634, 
    "ADDRESS": "3141 N MASON AVE", 
    "YEAR": 2017, 
    "LONGITUDE": -87.77483259, 
    "LATTITUDE": 41.937865517
  }, 
  {
    "BUSINESS_TYPE": "Special Event Food", 
    "LEGAL_NAME": "PIEROGI WAGON, LLC", 
    "STATE": "IL", 
    "DOING_BUSINESS_AS_NAME": "Pierogi Wagon", 
    "POP_AT_RISK": 49133, 
    "ZIP": 60622, 
    "ADDRESS": "1043 N CALIFORNIA AVE", 
    "YEAR": 2017, 
    "LONGITUDE": -87.696677983, 
    "LATTITUDE": 41.900639564
  }, 
  {
    "BUSINESS_TYPE": "Special Event Food", 
    "LEGAL_NAME": "ST. FRANCIS BORGIA CHURCH", 
    "STATE": "IL", 
    "DOING_BUSINESS_AS_NAME": "ST. FRANCIS BORGIA", 
    "POP_AT_RISK": 18049, 
    "ZIP": 60634, 
    "ADDRESS": "3535 N PANAMA AVE", 
    "YEAR": 2017, 
    "LONGITUDE": -87.828884298, 
    "LATTITUDE": 41.944087673
  }
]