[
  {
    "BUSINESS_TYPE": "Retail Computing Center", 
    "LEGAL_NAME": "CHICAGO COMPUTER CLUB, CORP.", 
    "STATE": "IL", 
    "DOING_BUSINESS_AS_NAME": "CHICAGO COMPUTER CLUB", 
    "POP_AT_RISK": 31326, 
    "ZIP": 60616, 
    "ADDRESS": "329 E 35TH ST 1", 
    "YEAR": 2010, 
    "LONGITUDE": -87.618075932, 
    "LATTITUDE": 41.830986703
  }, 
  {
    "BUSINESS_TYPE": "Retail Computing Center", 
    "LEGAL_NAME": "NH CHICAGO, LLC", 
    "STATE": "IL", 
    "DOING_BUSINESS_AS_NAME": "NH CHICAGO LLC", 
    "POP_AT_RISK": 19154, 
    "ZIP": 60631, 
    "ADDRESS": "8550 W BRYN MAWR AVE 400", 
    "YEAR": 2010, 
    "LONGITUDE": -87.841087375, 
    "LATTITUDE": 41.981143964
  }, 
  {
    "BUSINESS_TYPE": "Retail Computing Center", 
    "LEGAL_NAME": "DCW TECH MECHS LLC", 
    "STATE": "IL", 
    "DOING_BUSINESS_AS_NAME": "DCW TECHNICAL MECHANICS", 
    "POP_AT_RISK": 21672, 
    "ZIP": 60643, 
    "ADDRESS": "10931 S WESTERN AVE 1ST", 
    "YEAR": 2010, 
    "LONGITUDE": -87.681094947, 
    "LATTITUDE": 41.694458543
  }, 
  {
    "BUSINESS_TYPE": "Retail Computing Center", 
    "LEGAL_NAME": "BITS N BYTEZ, LTD.", 
    "STATE": "IL", 
    "DOING_BUSINESS_AS_NAME": "BITS N BYTEZ, LTD.", 
    "POP_AT_RISK": 33821, 
    "ZIP": 60632, 
    "ADDRESS": "5078 S ARCHER AVE 1ST", 
    "YEAR": 2010, 
    "LONGITUDE": -87.727920134, 
    "LATTITUDE": 41.801114148
  }, 
  {
    "BUSINESS_TYPE": "Retail Computing Center", 
    "LEGAL_NAME": "GEORGINA SERRANO", 
    "STATE": "IL", 
    "DOING_BUSINESS_AS_NAME": "GEORGINA'S  ENTERPRISE", 
    "POP_AT_RISK": 49523, 
    "ZIP": 60639, 
    "ADDRESS": "6303 - 6305 W GRAND AVE", 
    "YEAR": 2010, 
    "LONGITUDE": -87.783137058, 
    "LATTITUDE": 41.921832356
  }, 
  {
    "BUSINESS_TYPE": "Retail Computing Center", 
    "LEGAL_NAME": "FEDEX OFFICE AND PRINT SERVICES, INC.", 
    "STATE": "IL", 
    "DOING_BUSINESS_AS_NAME": "FEDEX OFFICE AND PRINT SVCS, INC.", 
    "POP_AT_RISK": 48612, 
    "ZIP": 60661, 
    "ADDRESS": "608 W LAKE ST", 
    "YEAR": 2010, 
    "LONGITUDE": -87.643199942, 
    "LATTITUDE": 41.885814492
  }, 
  {
    "BUSINESS_TYPE": "Retail Computing Center", 
    "LEGAL_NAME": "ADEL NASSAR", 
    "STATE": "IL", 
    "DOING_BUSINESS_AS_NAME": "COMP-NET SOLUTIONS", 
    "POP_AT_RISK": 30396, 
    "ZIP": 60609, 
    "ADDRESS": "3543 S ARCHER AVE 1", 
    "YEAR": 2010, 
    "LONGITUDE": -87.678768812, 
    "LATTITUDE": 41.82956111
  }, 
  {
    "BUSINESS_TYPE": "Retail Computing Center", 
    "LEGAL_NAME": "CAFE INTERNET LATINO INC.", 
    "STATE": "IL", 
    "DOING_BUSINESS_AS_NAME": "CAFE INTERNET LATINO INC.", 
    "POP_AT_RISK": 65442, 
    "ZIP": 60639, 
    "ADDRESS": "4101 W ARMITAGE AVE 1 1", 
    "YEAR": 2010, 
    "LONGITUDE": -87.729058851, 
    "LATTITUDE": 41.917024471
  }, 
  {
    "BUSINESS_TYPE": "Retail Computing Center", 
    "LEGAL_NAME": "MATHER LIFEWAYS COMMUNITY INITIATIVES", 
    "STATE": "IL", 
    "DOING_BUSINESS_AS_NAME": "MATHER'S MORE THAN A CAFE", 
    "POP_AT_RISK": 28988, 
    "ZIP": 60619, 
    "ADDRESS": "33 E 83RD ST 1ST", 
    "YEAR": 2010, 
    "LONGITUDE": -87.622955366, 
    "LATTITUDE": 41.74356768
  }, 
  {
    "BUSINESS_TYPE": "Retail Computing Center", 
    "LEGAL_NAME": "SAVANNA HINTON", 
    "STATE": "IL", 
    "DOING_BUSINESS_AS_NAME": "PEACE AND POSH", 
    "POP_AT_RISK": 10859, 
    "ZIP": 60628, 
    "ADDRESS": "580 E 115TH ST 1", 
    "YEAR": 2010, 
    "LONGITUDE": -87.608327914, 
    "LATTITUDE": 41.685580146
  }, 
  {
    "BUSINESS_TYPE": "Retail Computing Center", 
    "LEGAL_NAME": "DENISE A. IVANOVA", 
    "STATE": "IL", 
    "DOING_BUSINESS_AS_NAME": "OROZCO DESIGN", 
    "POP_AT_RISK": 37859, 
    "ZIP": 60609, 
    "ADDRESS": "4622 S MARSHFIELD AVE", 
    "YEAR": 2010, 
    "LONGITUDE": -87.666355803, 
    "LATTITUDE": 41.809692947
  }, 
  {
    "BUSINESS_TYPE": "Retail Computing Center", 
    "LEGAL_NAME": "MICHAEL R. INGLIMO", 
    "STATE": "IL", 
    "DOING_BUSINESS_AS_NAME": "PC HERE", 
    "POP_AT_RISK": 50298, 
    "ZIP": 60641, 
    "ADDRESS": "4055 N MILWAUKEE AVE 1", 
    "YEAR": 2010, 
    "LONGITUDE": -87.748924901, 
    "LATTITUDE": 41.954529074
  }, 
  {
    "BUSINESS_TYPE": "Retail Computing Center", 
    "LEGAL_NAME": "CYBERK COMPUTEK INC.", 
    "STATE": "IL", 
    "DOING_BUSINESS_AS_NAME": "CYBERK COMPUTEK INC.", 
    "POP_AT_RISK": 53653, 
    "ZIP": 60632, 
    "ADDRESS": "3982 S ARCHER AVE 1", 
    "YEAR": 2010, 
    "LONGITUDE": -87.692649685, 
    "LATTITUDE": 41.821344318
  }, 
  {
    "BUSINESS_TYPE": "Retail Computing Center", 
    "LEGAL_NAME": "CHILDREN AND FAMILY MATTERS FOUNDATION CORPORATION", 
    "STATE": "IL", 
    "DOING_BUSINESS_AS_NAME": "JOYFUL NOISE", 
    "POP_AT_RISK": 63864, 
    "ZIP": 60639, 
    "ADDRESS": "4243 W NORTH AVE 2ND", 
    "YEAR": 2010, 
    "LONGITUDE": -87.733024031, 
    "LATTITUDE": 41.909687089
  }, 
  {
    "BUSINESS_TYPE": "Retail Computing Center", 
    "LEGAL_NAME": "MATHER LIFEWAYS COMMUNITY INITIATIVES", 
    "STATE": "IL", 
    "DOING_BUSINESS_AS_NAME": "MATHER'S MORE THAN A CAFE", 
    "POP_AT_RISK": 24680, 
    "ZIP": 60656, 
    "ADDRESS": "7134 W HIGGINS AVE 1ST", 
    "YEAR": 2010, 
    "LONGITUDE": -87.805905466, 
    "LATTITUDE": 41.981000342
  }, 
  {
    "BUSINESS_TYPE": "Retail Computing Center", 
    "LEGAL_NAME": "JEONG S KIM", 
    "STATE": "IL", 
    "DOING_BUSINESS_AS_NAME": "COPY MAX", 
    "POP_AT_RISK": 53529, 
    "ZIP": 60622, 
    "ADDRESS": "1321 N MILWAUKEE AVE 1ST", 
    "YEAR": 2010, 
    "LONGITUDE": -87.67014703, 
    "LATTITUDE": 41.905843325
  }, 
  {
    "BUSINESS_TYPE": "Retail Computing Center", 
    "LEGAL_NAME": "FEDEX OFFICE AND PRINT SERVICES, INC.", 
    "STATE": "IL", 
    "DOING_BUSINESS_AS_NAME": "FEDEX OFFICE AND PRINT SVCS, INC.", 
    "POP_AT_RISK": 74829, 
    "ZIP": 60610, 
    "ADDRESS": "1201 N DEARBORN ST  1", 
    "YEAR": 2010, 
    "LONGITUDE": -87.629841921, 
    "LATTITUDE": 41.904019547
  }, 
  {
    "BUSINESS_TYPE": "Retail Computing Center", 
    "LEGAL_NAME": "KHALIF ALI ADEN", 
    "STATE": "IL", 
    "DOING_BUSINESS_AS_NAME": "GOGOL CO", 
    "POP_AT_RISK": 79728, 
    "ZIP": 60610, 
    "ADDRESS": "858 N ORLEANS ST 1ST A21", 
    "YEAR": 2010, 
    "LONGITUDE": -87.637380154, 
    "LATTITUDE": 41.898198097
  }, 
  {
    "BUSINESS_TYPE": "Retail Computing Center", 
    "LEGAL_NAME": "FEDEX OFFICE AND PRINT SERVICES, INC.", 
    "STATE": "IL", 
    "DOING_BUSINESS_AS_NAME": "FEDEX OFFICE AND PRINT SVCS, INC.", 
    "POP_AT_RISK": 14129, 
    "ZIP": 60643, 
    "ADDRESS": "2311 W 95TH ST 1ST", 
    "YEAR": 2010, 
    "LONGITUDE": -87.680137011, 
    "LATTITUDE": 41.720858478
  }, 
  {
    "BUSINESS_TYPE": "Retail Computing Center", 
    "LEGAL_NAME": "BRONZEVILLE CORPORATIUM, INC.", 
    "STATE": "IL", 
    "DOING_BUSINESS_AS_NAME": "BRONZEVILLE CORPORATIUM", 
    "POP_AT_RISK": 31169, 
    "ZIP": 60616, 
    "ADDRESS": "215 E 31ST ST 1", 
    "YEAR": 2010, 
    "LONGITUDE": -87.621233367, 
    "LATTITUDE": 41.838263596
  }, 
  {
    "BUSINESS_TYPE": "Retail Computing Center", 
    "LEGAL_NAME": "MARIO LEON", 
    "STATE": "IL", 
    "DOING_BUSINESS_AS_NAME": "THE LEON'S COMPUTERS", 
    "POP_AT_RISK": 36715, 
    "ZIP": 60629, 
    "ADDRESS": "4145 W 63RD ST 1ST", 
    "YEAR": 2010, 
    "LONGITUDE": -87.726989412, 
    "LATTITUDE": 41.778496773
  }, 
  {
    "BUSINESS_TYPE": "Retail Computing Center", 
    "LEGAL_NAME": "KIERKEN CORPORATION", 
    "STATE": "IL", 
    "DOING_BUSINESS_AS_NAME": "COMPUTERS BY THE HOUR & COPYING TOO", 
    "POP_AT_RISK": 39464, 
    "ZIP": 60619, 
    "ADDRESS": "358 E 79TH ST 1", 
    "YEAR": 2010, 
    "LONGITUDE": -87.615830187, 
    "LATTITUDE": 41.751211575
  }, 
  {
    "BUSINESS_TYPE": "Retail Computing Center", 
    "LEGAL_NAME": "FUTUREWORLD NFP", 
    "STATE": "IL", 
    "DOING_BUSINESS_AS_NAME": "FUTUREWORLD", 
    "POP_AT_RISK": 29206, 
    "ZIP": 60615, 
    "ADDRESS": "1744 E 55TH ST", 
    "YEAR": 2010, 
    "LONGITUDE": -87.582220608, 
    "LATTITUDE": 41.795356009
  }, 
  {
    "BUSINESS_TYPE": "Retail Computing Center", 
    "LEGAL_NAME": "COMPUTERWOW, INC.", 
    "STATE": "IL", 
    "DOING_BUSINESS_AS_NAME": "COMPUTERWOW, INC.", 
    "POP_AT_RISK": 65921, 
    "ZIP": 60623, 
    "ADDRESS": "2700 S RIDGEWAY AVE 1ST", 
    "YEAR": 2010, 
    "LONGITUDE": -87.718550524, 
    "LATTITUDE": 41.84240395
  }, 
  {
    "BUSINESS_TYPE": "Retail Computing Center", 
    "LEGAL_NAME": "DEKACHE BODY WORK'S CORP.", 
    "STATE": "IL", 
    "DOING_BUSINESS_AS_NAME": "DEKACHE BODY WORK'S CORP.", 
    "POP_AT_RISK": 41950, 
    "ZIP": 60608, 
    "ADDRESS": "1819 W CERMAK RD 1", 
    "YEAR": 2010, 
    "LONGITUDE": -87.67174259, 
    "LATTITUDE": 41.85212642
  }, 
  {
    "BUSINESS_TYPE": "Retail Computing Center", 
    "LEGAL_NAME": "JORGE GARCIA", 
    "STATE": "IL", 
    "DOING_BUSINESS_AS_NAME": "XINEF TECH", 
    "POP_AT_RISK": 46139, 
    "ZIP": 60634, 
    "ADDRESS": "6011 W IRVING PARK RD", 
    "YEAR": 2010, 
    "LONGITUDE": -87.77722755, 
    "LATTITUDE": 41.952933795
  }, 
  {
    "BUSINESS_TYPE": "Retail Computing Center", 
    "LEGAL_NAME": "COMPUTER LOUNGE INC.", 
    "STATE": "IL", 
    "DOING_BUSINESS_AS_NAME": "COMPUTER LOUNGE INC", 
    "POP_AT_RISK": 32608, 
    "ZIP": 60634, 
    "ADDRESS": "7105 W ADDISON ST", 
    "YEAR": 2010, 
    "LONGITUDE": -87.803524842, 
    "LATTITUDE": 41.945221717
  }, 
  {
    "BUSINESS_TYPE": "Retail Computing Center", 
    "LEGAL_NAME": "JUNGLE GYM FITNESS CORPORATION", 
    "STATE": "IL", 
    "DOING_BUSINESS_AS_NAME": "CHEETAH GYM", 
    "POP_AT_RISK": 64542, 
    "ZIP": 60622, 
    "ADDRESS": "1934 - 1942 W NORTH AVE", 
    "YEAR": 2010, 
    "LONGITUDE": -87.676339175, 
    "LATTITUDE": 41.910614441
  }, 
  {
    "BUSINESS_TYPE": "Retail Computing Center", 
    "LEGAL_NAME": "FEDEX OFFICE AND PRINT SERVICES, INC.", 
    "STATE": "IL", 
    "DOING_BUSINESS_AS_NAME": "FEDEX OFFICE AND PRINT SVCS, INC.", 
    "POP_AT_RISK": 36853, 
    "ZIP": 60637, 
    "ADDRESS": "1315 E 57TH ST  1", 
    "YEAR": 2010, 
    "LONGITUDE": -87.594187285, 
    "LATTITUDE": 41.791359581
  }, 
  {
    "BUSINESS_TYPE": "Retail Computing Center", 
    "LEGAL_NAME": "MAURICIO LEOS SEGURA", 
    "STATE": "IL", 
    "DOING_BUSINESS_AS_NAME": "LEO'S COMPUTER STORE", 
    "POP_AT_RISK": 78976, 
    "ZIP": 60623, 
    "ADDRESS": "3525 W CERMAK RD 1ST", 
    "YEAR": 2010, 
    "LONGITUDE": -87.713559036, 
    "LATTITUDE": 41.851570893
  }
]