[
  {
    "BUSINESS_TYPE": "Humane Society", 
    "LEGAL_NAME": "TREE HOUSE HUMANE SOCIETY", 
    "STATE": "IL", 
    "DOING_BUSINESS_AS_NAME": "TREE HOUSE ANIMAL FOUNDATION", 
    "POP_AT_RISK": 64493, 
    "ZIP": 60640, 
    "ADDRESS": "1212 W CARMEN AVE 1ST", 
    "YEAR": 2002, 
    "LONGITUDE": -87.660392921, 
    "LATTITUDE": 41.974721196
  }, 
  {
    "BUSINESS_TYPE": "Humane Society", 
    "LEGAL_NAME": "FELINES, INC.", 
    "STATE": "IL", 
    "DOING_BUSINESS_AS_NAME": "FELINES & CANINES", 
    "POP_AT_RISK": 67015, 
    "ZIP": 60660, 
    "ADDRESS": "6379 N PAULINA ST", 
    "YEAR": 2002, 
    "LONGITUDE": -87.671840803, 
    "LATTITUDE": 41.997936606
  }, 
  {
    "BUSINESS_TYPE": "Humane Society", 
    "LEGAL_NAME": "THE ANIMAL PROTECTIVE ASSOCIATION", 
    "STATE": "IL", 
    "DOING_BUSINESS_AS_NAME": "HARMONY HOUSE FOR CATS", 
    "POP_AT_RISK": 69427, 
    "ZIP": 60618, 
    "ADDRESS": "3809 N KEDZIE AVE  1ST", 
    "YEAR": 2002, 
    "LONGITUDE": -87.707778732, 
    "LATTITUDE": 41.950601244
  }, 
  {
    "BUSINESS_TYPE": "Humane Society", 
    "LEGAL_NAME": "THE ANTI-CRUELTY SOCIETY", 
    "STATE": "IL", 
    "DOING_BUSINESS_AS_NAME": "THE ANTI-CRUELTY SOCIETY", 
    "POP_AT_RISK": 70835, 
    "ZIP": 60654, 
    "ADDRESS": "157 W GRAND AVE # 1", 
    "YEAR": 2002, 
    "LONGITUDE": -87.633367283, 
    "LATTITUDE": 41.891485169
  }, 
  {
    "BUSINESS_TYPE": "Humane Society", 
    "LEGAL_NAME": "ANIMAL WELFARE LEAGUE", 
    "STATE": "IL", 
    "DOING_BUSINESS_AS_NAME": "ANIMAL WELFARE LEAGUE", 
    "POP_AT_RISK": 34593, 
    "ZIP": 60637, 
    "ADDRESS": "6224 S WABASH AVE", 
    "YEAR": 2002, 
    "LONGITUDE": -87.62387647, 
    "LATTITUDE": 41.781137705
  }
]