[
{"STATE":"IL","ZIP":60632,"LATTITUDE":41.797991869962225,"ADDRESS":"5220 S PULASKI RD 1 W22","YEAR":2007,"DOING_BUSINESS_AS_NAME":"JXJ CYBER CAFE","POP_AT_RISK":40702,"BUSINESS_TYPE":"Retail Computing Center","LEGAL_NAME":"JOSUE JAIMES","LONGITUDE":-87.723443740796},
{"STATE":"IL","ZIP":60618,"LATTITUDE":41.93906998745683,"ADDRESS":"3715 W BELMONT AVE  ","YEAR":2007,"DOING_BUSINESS_AS_NAME":"RESTART","POP_AT_RISK":197874,"BUSINESS_TYPE":"Retail Computing Center","LEGAL_NAME":"RESTART, INC","LONGITUDE":-87.72034454272568},
{"STATE":"IL","ZIP":60613,"LATTITUDE":41.952086643485636,"ADDRESS":"3828 N BROADWAY   ","YEAR":2007,"DOING_BUSINESS_AS_NAME":"COMPUFIND","POP_AT_RISK":72818,"BUSINESS_TYPE":"Retail Computing Center","LEGAL_NAME":"ANDREW ASUNMO","LONGITUDE":-87.64977978532295},
{"STATE":"IL","ZIP":60625,"LATTITUDE":41.9795143154988,"ADDRESS":"5400 N KEDZIE AVE 1 ","YEAR":2007,"DOING_BUSINESS_AS_NAME":"PC-ZONE","POP_AT_RISK":52056,"BUSINESS_TYPE":"Retail Computing Center","LEGAL_NAME":"YOUNG H. PARK","LONGITUDE":-87.70891967012712},
{"STATE":"IL","ZIP":60623,"LATTITUDE":41.83881606238869,"ADDRESS":"3000 S DRAKE AVE 1ST ","YEAR":2007,"DOING_BUSINESS_AS_NAME":"CHUPICUARO CARNICERIA Y FRUTERIA","POP_AT_RISK":68006,"BUSINESS_TYPE":"Retail Computing Center","LEGAL_NAME":"CHUPICUARO LLC","LONGITUDE":-87.71356485651883},
{"STATE":"IL","ZIP":60639,"LATTITUDE":41.91725533462689,"ADDRESS":"4036 W ARMITAGE AVE  ","YEAR":2007,"DOING_BUSINESS_AS_NAME":"CAFE INTERNET LATINO","POP_AT_RISK":222555,"BUSINESS_TYPE":"Retail Computing Center","LEGAL_NAME":"FEDERICO BUCIO","LONGITUDE":-87.72807934485093},
{"STATE":"IL","ZIP":60628,"LATTITUDE":41.69646826664951,"ADDRESS":"10846 S HALSTED ST  ","YEAR":2007,"DOING_BUSINESS_AS_NAME":"R & R COMPUTER SERVICES","POP_AT_RISK":50500,"BUSINESS_TYPE":"Retail Computing Center","LEGAL_NAME":"ROCHELLE SMITH","LONGITUDE":-87.64265412117399},
{"STATE":"IL","ZIP":60632,"LATTITUDE":41.79678066332652,"ADDRESS":"5311 S KEDZIE AVE  ","YEAR":2007,"DOING_BUSINESS_AS_NAME":"COMPUTER AND NETWORK SOLUTIONS","POP_AT_RISK":62865,"BUSINESS_TYPE":"Retail Computing Center","LEGAL_NAME":"MARIA A CARABEZ","LONGITUDE":-87.70350235977779},
{"STATE":"IL","ZIP":60608,"LATTITUDE":41.85870915813739,"ADDRESS":"1640 S BLUE ISLAND AVE  ","YEAR":2007,"DOING_BUSINESS_AS_NAME":"EFEBOS INTERNET CAFE","POP_AT_RISK":77436,"BUSINESS_TYPE":"Retail Computing Center","LEGAL_NAME":"VICENTE RAMIREZ","LONGITUDE":-87.6606040076504},
{"STATE":"IL","ZIP":60617,"LATTITUDE":41.7345569543485,"ADDRESS":"8832 S COMMERCIAL AVE 1 ","YEAR":2007,"DOING_BUSINESS_AS_NAME":"SOUTH SOUNDS \/ CHICAGO INK","POP_AT_RISK":50420,"BUSINESS_TYPE":"Retail Computing Center","LEGAL_NAME":"LUIS T RINCONENO","LONGITUDE":-87.55151416804159},
{"STATE":"IL","ZIP":60628,"LATTITUDE":41.67780269846228,"ADDRESS":"415 W 119TH ST  ","YEAR":2007,"DOING_BUSINESS_AS_NAME":"HOUSTON & ASSOCIATES COFFEE PLUS","POP_AT_RISK":209820,"BUSINESS_TYPE":"Retail Computing Center","LEGAL_NAME":"MARTIN H HOUSTON","LONGITUDE":-87.63296168371305},
{"STATE":"IL","ZIP":60645,"LATTITUDE":42.01195388843777,"ADDRESS":"2801 W TOUHY AVE  ","YEAR":2007,"DOING_BUSINESS_AS_NAME":"OFFICE MART","POP_AT_RISK":77808,"BUSINESS_TYPE":"Retail Computing Center","LEGAL_NAME":"OFFICE MART INC.","LONGITUDE":-87.69983023199094},
{"STATE":"IL","ZIP":60615,"LATTITUDE":41.79943077995451,"ADDRESS":"1459 E 53RD ST 2ND 2WEST","YEAR":2007,"DOING_BUSINESS_AS_NAME":"KIDS CONCIERGE CYBER LOUNGE","POP_AT_RISK":116817,"BUSINESS_TYPE":"Retail Computing Center","LEGAL_NAME":"KIDS CONCIERGE INC.","LONGITUDE":-87.58947933531431},
{"STATE":"IL","ZIP":60619,"LATTITUDE":41.751211574824836,"ADDRESS":"358 E 79TH ST 1 ","YEAR":2007,"DOING_BUSINESS_AS_NAME":"COMPUTERS BY THE HOUR & COPYING TOO","POP_AT_RISK":150856,"BUSINESS_TYPE":"Retail Computing Center","LEGAL_NAME":"KIERKEN CORPORATION","LONGITUDE":-87.61583018670413},
{"STATE":"IL","ZIP":60639,"LATTITUDE":41.924517532075264,"ADDRESS":"4236 W FULLERTON AVE 1 ","YEAR":2007,"DOING_BUSINESS_AS_NAME":"ECU-MEX TRAVEL EXPRESS","POP_AT_RISK":303068,"BUSINESS_TYPE":"Retail Computing Center","LEGAL_NAME":"RIGOBERTO  ILLESCAS","LONGITUDE":-87.73319140957126},
{"STATE":"IL","ZIP":60634,"LATTITUDE":41.94522171663337,"ADDRESS":"7105 W ADDISON ST  ","YEAR":2007,"DOING_BUSINESS_AS_NAME":"COMPUTER LOUNGE INC","POP_AT_RISK":260864,"BUSINESS_TYPE":"Retail Computing Center","LEGAL_NAME":"COMPUTER LOUNGE INC.","LONGITUDE":-87.80352484199379},
{"STATE":"IL","ZIP":60645,"LATTITUDE":42.01238941676102,"ADDRESS":"2358 W TOUHY AVE  ","YEAR":2007,"DOING_BUSINESS_AS_NAME":"BELLA INTERNET CAFE","POP_AT_RISK":117554,"BUSINESS_TYPE":"Retail Computing Center","LEGAL_NAME":"INTERNET WORLD, INC.","LONGITUDE":-87.68993662905656},
{"STATE":"IL","ZIP":60626,"LATTITUDE":42.002473724305595,"ADDRESS":"6624 N CLARK ST  2","YEAR":2007,"DOING_BUSINESS_AS_NAME":"LA BELLA CAFE & INTERNET","POP_AT_RISK":75948,"BUSINESS_TYPE":"Retail Computing Center","LEGAL_NAME":"INTERNET WORLD, INC.","LONGITUDE":-87.67227603034296},
{"STATE":"IL","ZIP":60625,"LATTITUDE":41.981433144459146,"ADDRESS":"5503 N LINCOLN AVE 1ST ","YEAR":2007,"DOING_BUSINESS_AS_NAME":"SIMON'S QUICK STOP","POP_AT_RISK":51156,"BUSINESS_TYPE":"Retail Computing Center","LEGAL_NAME":"LINCOLN FOOD MART INC.","LONGITUDE":-87.6926507725727},
{"STATE":"IL","ZIP":60619,"LATTITUDE":41.738036420101196,"ADDRESS":"8613 S COTTAGE GROVE AVE  ","YEAR":2007,"DOING_BUSINESS_AS_NAME":"DIGITAL ZONE CORPORATION","POP_AT_RISK":230634,"BUSINESS_TYPE":"Retail Computing Center","LEGAL_NAME":"DIGITAL ZONE CORPORATION","LONGITUDE":-87.60471734773098},
{"STATE":"IL","ZIP":60616,"LATTITUDE":41.8382635962444,"ADDRESS":"215 E 31ST ST 1 ","YEAR":2007,"DOING_BUSINESS_AS_NAME":"BRONZEVILLE CORPORATIUM","POP_AT_RISK":503234,"BUSINESS_TYPE":"Retail Computing Center","LEGAL_NAME":"BRONZEVILLE CORPORATIUM, INC.","LONGITUDE":-87.62123336655749},
{"STATE":"IL","ZIP":60640,"LATTITUDE":41.961748076470776,"ADDRESS":"4401 N CLARK ST 1 1","YEAR":2007,"DOING_BUSINESS_AS_NAME":"CLARK FOOD & CYBER CAFE, INC.","POP_AT_RISK":78872,"BUSINESS_TYPE":"Retail Computing Center","LEGAL_NAME":"CLARK FOOD & CYBER CAFE, INC.","LONGITUDE":-87.66583650071568},
{"STATE":"IL","ZIP":60632,"LATTITUDE":41.80915648669154,"ADDRESS":"4616 S PULASKI RD  ","YEAR":2007,"DOING_BUSINESS_AS_NAME":"CHICAGO TECHNICAL CENTERS LTD.","POP_AT_RISK":26216,"BUSINESS_TYPE":"Retail Computing Center","LEGAL_NAME":"CHICAGO TECHNICAL CENTERS LTD.","LONGITUDE":-87.72377777795968},
{"STATE":"IL","ZIP":60647,"LATTITUDE":41.91020094371503,"ADDRESS":"2419 W NORTH AVE GROUND ","YEAR":2007,"DOING_BUSINESS_AS_NAME":"FLIES COMMUNICATIONS II","POP_AT_RISK":209037,"BUSINESS_TYPE":"Retail Computing Center","LEGAL_NAME":"FACI INTERNATIONAL CORPORATION","LONGITUDE":-87.68804064391732},
{"STATE":"IL","ZIP":60632,"LATTITUDE":41.81515906522002,"ADDRESS":"4309 S ARCHER AVE 1ST ","YEAR":2007,"DOING_BUSINESS_AS_NAME":"SAMILIPRO COMPUTERS INCORPORATED","POP_AT_RISK":91134,"BUSINESS_TYPE":"Retail Computing Center","LEGAL_NAME":"SAMILIPRO COMPUTERS INCORPORATED","LONGITUDE":-87.70227317490556},
{"STATE":"IL","ZIP":60614,"LATTITUDE":41.9255723272499,"ADDRESS":"744 W FULLERTON AVE 1ST 1C","YEAR":2007,"DOING_BUSINESS_AS_NAME":"FEDEX KINKO'S #1935","POP_AT_RISK":155026,"BUSINESS_TYPE":"Retail Computing Center","LEGAL_NAME":"FEDEX OFFICE AND PRINT SERVICES, INC.","LONGITUDE":-87.6481109289284},
{"STATE":"IL","ZIP":60637,"LATTITUDE":41.79135958090396,"ADDRESS":"1315 E 57TH ST  1","YEAR":2007,"DOING_BUSINESS_AS_NAME":"FEDEX OFFICE AND PRINT SVCS, INC.","POP_AT_RISK":184265,"BUSINESS_TYPE":"Retail Computing Center","LEGAL_NAME":"FEDEX OFFICE AND PRINT SERVICES, INC.","LONGITUDE":-87.59418728522255},
{"STATE":"IL","ZIP":60610,"LATTITUDE":41.90401954694065,"ADDRESS":"1201 N DEARBORN ST  1","YEAR":2007,"DOING_BUSINESS_AS_NAME":"FEDEX OFFICE AND PRINT SVCS, INC.","POP_AT_RISK":149658,"BUSINESS_TYPE":"Retail Computing Center","LEGAL_NAME":"FEDEX OFFICE AND PRINT SERVICES, INC.","LONGITUDE":-87.62984192085615},
{"STATE":"IL","ZIP":60607,"LATTITUDE":41.87653862860462,"ADDRESS":"843 W VAN BUREN ST 1ST ","YEAR":2007,"DOING_BUSINESS_AS_NAME":"FEDEX KINKO'S OFFICE & PRINT SERVICES #3615","POP_AT_RISK":48450,"BUSINESS_TYPE":"Retail Computing Center","LEGAL_NAME":"FEDEX OFFICE AND PRINT SERVICES, INC.","LONGITUDE":-87.64885483251508},
{"STATE":"IL","ZIP":60619,"LATTITUDE":41.743567680303435,"ADDRESS":"33 E 83RD ST 1ST ","YEAR":2007,"DOING_BUSINESS_AS_NAME":"MATHER'S MORE THAN A CAFE","POP_AT_RISK":27238,"BUSINESS_TYPE":"Retail Computing Center","LEGAL_NAME":"MATHER LIFEWAYS COMMUNITY INITIATIVES","LONGITUDE":-87.6229553664139},
{"STATE":"IL","ZIP":60656,"LATTITUDE":41.98100034161097,"ADDRESS":"7134 W HIGGINS AVE 1ST ","YEAR":2007,"DOING_BUSINESS_AS_NAME":"MATHER'S MORE THAN A CAFE","POP_AT_RISK":177684,"BUSINESS_TYPE":"Retail Computing Center","LEGAL_NAME":"MATHER LIFEWAYS COMMUNITY INITIATIVES","LONGITUDE":-87.8059054660053},
{"STATE":"IL","ZIP":60634,"LATTITUDE":41.9396542640577,"ADDRESS":"3235 N CENTRAL AVE 1ST ","YEAR":2007,"DOING_BUSINESS_AS_NAME":"MATHER'S MORE THEN A CAFE","POP_AT_RISK":776672,"BUSINESS_TYPE":"Retail Computing Center","LEGAL_NAME":"MATHER LIFEWAYS COMMUNITY INITIATIVES","LONGITUDE":-87.76639051535662},
{}]