[
  {
    "BUSINESS_TYPE": "Electronic Equipment Repair", 
    "LEGAL_NAME": "CHICAGO COMPUTER CLUB, CORP.", 
    "STATE": "IL", 
    "DOING_BUSINESS_AS_NAME": "CHICAGO COMPUTER CLUB", 
    "POP_AT_RISK": 31326, 
    "ZIP": 60616, 
    "ADDRESS": "329 E 35TH ST 1", 
    "YEAR": 2007, 
    "LONGITUDE": -87.618075932, 
    "LATTITUDE": 41.830986703
  }, 
  {
    "BUSINESS_TYPE": "Electronic Equipment Repair", 
    "LEGAL_NAME": "EDGEBROOK TELEVISION SALES INC", 
    "STATE": "IL", 
    "DOING_BUSINESS_AS_NAME": "EDGEBROOK", 
    "POP_AT_RISK": 17956, 
    "ZIP": 60646, 
    "ADDRESS": "6416 N CENTRAL AVE", 
    "YEAR": 2007, 
    "LONGITUDE": -87.763726717, 
    "LATTITUDE": 41.997926038
  }, 
  {
    "BUSINESS_TYPE": "Electronic Equipment Repair", 
    "LEGAL_NAME": "RADIOSHACK CORPORATION", 
    "STATE": "IL", 
    "DOING_BUSINESS_AS_NAME": "RADIO SHACK #6597", 
    "POP_AT_RISK": 43909, 
    "ZIP": 60649, 
    "ADDRESS": "7131 S JEFFERY BLVD 1ST #", 
    "YEAR": 2007, 
    "LONGITUDE": -87.576133104, 
    "LATTITUDE": 41.765189524
  }, 
  {
    "BUSINESS_TYPE": "Electronic Equipment Repair", 
    "LEGAL_NAME": "TELESERVICES CORP", 
    "STATE": "IL", 
    "DOING_BUSINESS_AS_NAME": "TELESERVICE CORP", 
    "POP_AT_RISK": 31645, 
    "ZIP": 60612, 
    "ADDRESS": "2532 W WARREN BLVD", 
    "YEAR": 2007, 
    "LONGITUDE": -87.689800001, 
    "LATTITUDE": 41.882165578
  }, 
  {
    "BUSINESS_TYPE": "Electronic Equipment Repair", 
    "LEGAL_NAME": "RADIOSHACK CORPORATION", 
    "STATE": "IL", 
    "DOING_BUSINESS_AS_NAME": "RADIO SHACK #6516", 
    "POP_AT_RISK": 42572, 
    "ZIP": 60632, 
    "ADDRESS": "4359 S ARCHER AVE 1ST", 
    "YEAR": 2007, 
    "LONGITUDE": -87.703691048, 
    "LATTITUDE": 41.814289959
  }, 
  {
    "BUSINESS_TYPE": "Electronic Equipment Repair", 
    "LEGAL_NAME": "THOMAS JUE", 
    "STATE": "IL", 
    "DOING_BUSINESS_AS_NAME": "ACE RESTAURANT EQUIPMENT", 
    "POP_AT_RISK": 43937, 
    "ZIP": 60616, 
    "ADDRESS": "53 E 25TH ST  1", 
    "YEAR": 2007, 
    "LONGITUDE": -87.624863001, 
    "LATTITUDE": 41.847215135
  }, 
  {
    "BUSINESS_TYPE": "Electronic Equipment Repair", 
    "LEGAL_NAME": "WINDY CITY COMPUTER, INC.", 
    "STATE": "IL", 
    "DOING_BUSINESS_AS_NAME": "WINDY CITY COMPUTER, INC.", 
    "POP_AT_RISK": 40389, 
    "ZIP": 60615, 
    "ADDRESS": "1521 E 55TH ST", 
    "YEAR": 2007, 
    "LONGITUDE": -87.588268123, 
    "LATTITUDE": 41.795082097
  }, 
  {
    "BUSINESS_TYPE": "Electronic Equipment Repair", 
    "LEGAL_NAME": "BEST BUY STORES, L.P.", 
    "STATE": "IL", 
    "DOING_BUSINESS_AS_NAME": "BEST BUY #1122", 
    "POP_AT_RISK": 32930, 
    "ZIP": 60620, 
    "ADDRESS": "8900 S LAFAYETTE AVE", 
    "YEAR": 2007, 
    "LONGITUDE": -87.625485775, 
    "LATTITUDE": 41.732590137
  }, 
  {
    "BUSINESS_TYPE": "Electronic Equipment Repair", 
    "LEGAL_NAME": "TECH ONE BIOMEDICAL SEVICES, INC", 
    "STATE": "IL", 
    "DOING_BUSINESS_AS_NAME": "TECH ONE BIOMEDICAL", 
    "POP_AT_RISK": 45477, 
    "ZIP": 60639, 
    "ADDRESS": "1900 N AUSTIN AVE  98B", 
    "YEAR": 2007, 
    "LONGITUDE": -87.77555967, 
    "LATTITUDE": 41.914820427
  }, 
  {
    "BUSINESS_TYPE": "Electronic Equipment Repair", 
    "LEGAL_NAME": "CAROLYN GITLIN", 
    "STATE": "IL", 
    "DOING_BUSINESS_AS_NAME": "T.V. CITY", 
    "POP_AT_RISK": 38502, 
    "ZIP": 60609, 
    "ADDRESS": "4951 S ASHLAND AVE", 
    "YEAR": 2007, 
    "LONGITUDE": -87.664685988, 
    "LATTITUDE": 41.803446648
  }, 
  {
    "BUSINESS_TYPE": "Electronic Equipment Repair", 
    "LEGAL_NAME": "NOVA COMPUTERS INC.", 
    "STATE": "IL", 
    "DOING_BUSINESS_AS_NAME": "NOVA COMPUTERS INC", 
    "POP_AT_RISK": 21614, 
    "ZIP": 60656, 
    "ADDRESS": "5245 N HARLEM AVE  1", 
    "YEAR": 2007, 
    "LONGITUDE": -87.806865582, 
    "LATTITUDE": 41.976847907
  }, 
  {
    "BUSINESS_TYPE": "Electronic Equipment Repair", 
    "LEGAL_NAME": "RJ COMPUTERS, INC.", 
    "STATE": "IL", 
    "DOING_BUSINESS_AS_NAME": "RJ COMPUTERS, INC.", 
    "POP_AT_RISK": 19762, 
    "ZIP": 60634, 
    "ADDRESS": "7551 W ADDISON ST 1ST", 
    "YEAR": 2007, 
    "LONGITUDE": -87.816396758, 
    "LATTITUDE": 41.94503238
  }, 
  {
    "BUSINESS_TYPE": "Electronic Equipment Repair", 
    "LEGAL_NAME": "TWOSTEP INCORPORATED", 
    "STATE": "IL", 
    "DOING_BUSINESS_AS_NAME": "TWOSTEP INCORPORATED", 
    "POP_AT_RISK": 38029, 
    "ZIP": 60653, 
    "ADDRESS": "1120 E 47TH ST", 
    "YEAR": 2007, 
    "LONGITUDE": -87.598391061, 
    "LATTITUDE": 41.809734083
  }, 
  {
    "BUSINESS_TYPE": "Electronic Equipment Repair", 
    "LEGAL_NAME": "VIDEO PLAYGROUND LIMITED", 
    "STATE": "IL", 
    "DOING_BUSINESS_AS_NAME": "VIDEO PLAYGROUND", 
    "POP_AT_RISK": 20928, 
    "ZIP": 60655, 
    "ADDRESS": "10437 S KEDZIE AVE", 
    "YEAR": 2007, 
    "LONGITUDE": -87.701095989, 
    "LATTITUDE": 41.703243134
  }, 
  {
    "BUSINESS_TYPE": "Electronic Equipment Repair", 
    "LEGAL_NAME": "J D TECHNYCOPY & CO", 
    "STATE": "IL", 
    "DOING_BUSINESS_AS_NAME": "J D TECHNYCOPY & CO", 
    "POP_AT_RISK": 61269, 
    "ZIP": 60629, 
    "ADDRESS": "2600 W 59TH ST", 
    "YEAR": 2007, 
    "LONGITUDE": -87.688781895, 
    "LATTITUDE": 41.786595843
  }, 
  {
    "BUSINESS_TYPE": "Electronic Equipment Repair", 
    "LEGAL_NAME": "RAHBOO COMPUTER WORKS INC", 
    "STATE": "IL", 
    "DOING_BUSINESS_AS_NAME": "RAHBOO COMPUTER WORKS INC", 
    "POP_AT_RISK": 38146, 
    "ZIP": 60619, 
    "ADDRESS": "421 E 75TH ST", 
    "YEAR": 2007, 
    "LONGITUDE": -87.614311559, 
    "LATTITUDE": 41.758314126
  }, 
  {
    "BUSINESS_TYPE": "Electronic Equipment Repair", 
    "LEGAL_NAME": "AGUSTIN SORIA", 
    "STATE": "IL", 
    "DOING_BUSINESS_AS_NAME": "AIROS ELECTRONICS", 
    "POP_AT_RISK": 53035, 
    "ZIP": 60623, 
    "ADDRESS": "3102 S RIDGEWAY AVE", 
    "YEAR": 2007, 
    "LONGITUDE": -87.718390219, 
    "LATTITUDE": 41.836840647
  }, 
  {
    "BUSINESS_TYPE": "Electronic Equipment Repair", 
    "LEGAL_NAME": "LESZEK RABCZAK", 
    "STATE": "IL", 
    "DOING_BUSINESS_AS_NAME": "ARCHER ELECTRONIC INC", 
    "POP_AT_RISK": 29168, 
    "ZIP": 60632, 
    "ADDRESS": "5310 S ARCHER AVE  1ST", 
    "YEAR": 2007, 
    "LONGITUDE": -87.739900955, 
    "LATTITUDE": 41.799275177
  }, 
  {
    "BUSINESS_TYPE": "Electronic Equipment Repair", 
    "LEGAL_NAME": "DAVID BENEDICT", 
    "STATE": "IL", 
    "DOING_BUSINESS_AS_NAME": "UNITED TV", 
    "POP_AT_RISK": 21003, 
    "ZIP": 60655, 
    "ADDRESS": "3255 W 111TH ST 1ST", 
    "YEAR": 2007, 
    "LONGITUDE": -87.703083754, 
    "LATTITUDE": 41.69142499
  }, 
  {
    "BUSINESS_TYPE": "Electronic Equipment Repair", 
    "LEGAL_NAME": "HIGH POWER INC.", 
    "STATE": "IL", 
    "DOING_BUSINESS_AS_NAME": "HIGH POWER INC.", 
    "POP_AT_RISK": 20884, 
    "ZIP": 60652, 
    "ADDRESS": "8457 S PULASKI RD", 
    "YEAR": 2007, 
    "LONGITUDE": -87.721416607, 
    "LATTITUDE": 41.738624544
  }, 
  {
    "BUSINESS_TYPE": "Electronic Equipment Repair", 
    "LEGAL_NAME": "RADIOSHACK CORPORATION", 
    "STATE": "IL", 
    "DOING_BUSINESS_AS_NAME": "RADIO SHACK #6582", 
    "POP_AT_RISK": 22813, 
    "ZIP": 60638, 
    "ADDRESS": "5897 S ARCHER AVE", 
    "YEAR": 2007, 
    "LONGITUDE": -87.762760284, 
    "LATTITUDE": 41.795540523
  }, 
  {
    "BUSINESS_TYPE": "Electronic Equipment Repair", 
    "LEGAL_NAME": "IT SOLUTIONS CONSULTING", 
    "STATE": "IL", 
    "DOING_BUSINESS_AS_NAME": "IT SOLUTIONS CONSULTING", 
    "POP_AT_RISK": 79582, 
    "ZIP": 60618, 
    "ADDRESS": "3150 W MONTROSE AVE 1ST", 
    "YEAR": 2007, 
    "LONGITUDE": -87.707873392, 
    "LATTITUDE": 41.961298575
  }, 
  {
    "BUSINESS_TYPE": "Electronic Equipment Repair", 
    "LEGAL_NAME": "WILLIAM HUNTER", 
    "STATE": "IL", 
    "DOING_BUSINESS_AS_NAME": "BILLS RADIO & TV REPAIR", 
    "POP_AT_RISK": 44111, 
    "ZIP": 60624, 
    "ADDRESS": "346 S PULASKI RD  1", 
    "YEAR": 2007, 
    "LONGITUDE": -87.725645861, 
    "LATTITUDE": 41.875688749
  }, 
  {
    "BUSINESS_TYPE": "Electronic Equipment Repair", 
    "LEGAL_NAME": "ROCKWELL COLLINS, INC.", 
    "STATE": "IL", 
    "DOING_BUSINESS_AS_NAME": "ROCKWELL COLLINS", 
    "POP_AT_RISK": 8263, 
    "ZIP": 60018, 
    "ADDRESS": "5212 N SHAPLAND AVE", 
    "YEAR": 2007, 
    "LONGITUDE": -87.871143014, 
    "LATTITUDE": 41.973636106
  }, 
  {
    "BUSINESS_TYPE": "Electronic Equipment Repair", 
    "LEGAL_NAME": "ELIZABETH & LARRY LIEGGI", 
    "STATE": "IL", 
    "DOING_BUSINESS_AS_NAME": "PC REPAIR & SALES", 
    "POP_AT_RISK": 13900, 
    "ZIP": 60631, 
    "ADDRESS": "7534 N MILWAUKEE AVE 1ST", 
    "YEAR": 2007, 
    "LONGITUDE": -87.806937739, 
    "LATTITUDE": 42.018032622
  }, 
  {
    "BUSINESS_TYPE": "Electronic Equipment Repair", 
    "LEGAL_NAME": "MIGUEL A  BELTRAN", 
    "STATE": "IL", 
    "DOING_BUSINESS_AS_NAME": "A B ELECTRONICS", 
    "POP_AT_RISK": 38418, 
    "ZIP": 60608, 
    "ADDRESS": "3331 S HALSTED ST 1ST", 
    "YEAR": 2007, 
    "LONGITUDE": -87.646021875, 
    "LATTITUDE": 41.833428577
  }, 
  {
    "BUSINESS_TYPE": "Electronic Equipment Repair", 
    "LEGAL_NAME": "JESSIE L WILLIAMS", 
    "STATE": "IL", 
    "DOING_BUSINESS_AS_NAME": "TV SERVICE", 
    "POP_AT_RISK": 48029, 
    "ZIP": 60644, 
    "ADDRESS": "5144 W MADISON ST", 
    "YEAR": 2007, 
    "LONGITUDE": -87.754432731, 
    "LATTITUDE": 41.880490141
  }, 
  {
    "BUSINESS_TYPE": "Electronic Equipment Repair", 
    "LEGAL_NAME": "UNITED STATES CELLULAR OPERATING COMPANY OF CHICAGO, LLC", 
    "STATE": "IL", 
    "DOING_BUSINESS_AS_NAME": "U S CELLULAR", 
    "POP_AT_RISK": 13585, 
    "ZIP": 60643, 
    "ADDRESS": "9920 S WESTERN AVE", 
    "YEAR": 2007, 
    "LONGITUDE": -87.68196971, 
    "LATTITUDE": 41.713013336
  }, 
  {
    "BUSINESS_TYPE": "Electronic Equipment Repair", 
    "LEGAL_NAME": "JUAN I. RIVERA", 
    "STATE": "IL", 
    "DOING_BUSINESS_AS_NAME": "A PRONTO RADIO & TV SERVICE", 
    "POP_AT_RISK": 28615, 
    "ZIP": 60617, 
    "ADDRESS": "8719 S COMMERCIAL AVE 1ST", 
    "YEAR": 2007, 
    "LONGITUDE": -87.551270799, 
    "LATTITUDE": 41.736780995
  }, 
  {
    "BUSINESS_TYPE": "Electronic Equipment Repair", 
    "LEGAL_NAME": "DIONISO GAMINO", 
    "STATE": "IL", 
    "DOING_BUSINESS_AS_NAME": "AUTLAND ELECTRONICS", 
    "POP_AT_RISK": 10918, 
    "ZIP": 60617, 
    "ADDRESS": "9806 S EWING AVE 1ST", 
    "YEAR": 2007, 
    "LONGITUDE": -87.535427503, 
    "LATTITUDE": 41.717483191
  }, 
  {
    "BUSINESS_TYPE": "Electronic Equipment Repair", 
    "LEGAL_NAME": "M C SMITH", 
    "STATE": "IL", 
    "DOING_BUSINESS_AS_NAME": "M C TELEVISION", 
    "POP_AT_RISK": 31593, 
    "ZIP": 60619, 
    "ADDRESS": "643 E 71ST ST 1ST", 
    "YEAR": 2007, 
    "LONGITUDE": -87.608729841, 
    "LATTITUDE": 41.765711347
  }, 
  {
    "BUSINESS_TYPE": "Electronic Equipment Repair", 
    "LEGAL_NAME": "JAMES W RANKINS", 
    "STATE": "IL", 
    "DOING_BUSINESS_AS_NAME": "PROFESSIONAL STEREO & TV", 
    "POP_AT_RISK": 29296, 
    "ZIP": 60620, 
    "ADDRESS": "9116 S ASHLAND AVE 1ST", 
    "YEAR": 2007, 
    "LONGITUDE": -87.662983594, 
    "LATTITUDE": 41.727938581
  }, 
  {
    "BUSINESS_TYPE": "Electronic Equipment Repair", 
    "LEGAL_NAME": "ADELMEES QUINTANA", 
    "STATE": "IL", 
    "DOING_BUSINESS_AS_NAME": "A Q TV SERVICE", 
    "POP_AT_RISK": 52678, 
    "ZIP": 60639, 
    "ADDRESS": "4207 W NORTH AVE  1ST", 
    "YEAR": 2007, 
    "LONGITUDE": -87.731717614, 
    "LATTITUDE": 41.909703551
  }, 
  {
    "BUSINESS_TYPE": "Electronic Equipment Repair", 
    "LEGAL_NAME": "RADIOSHACK CORPORATION", 
    "STATE": "IL", 
    "DOING_BUSINESS_AS_NAME": "RADIO SHACK #6585", 
    "POP_AT_RISK": 30208, 
    "ZIP": 60628, 
    "ADDRESS": "11613 S HALSTED ST", 
    "YEAR": 2007, 
    "LONGITUDE": -87.64195549, 
    "LATTITUDE": 41.683542177
  }, 
  {
    "BUSINESS_TYPE": "Electronic Equipment Repair", 
    "LEGAL_NAME": "NNAMDI E  OZOH", 
    "STATE": "IL", 
    "DOING_BUSINESS_AS_NAME": "SMI INKMASTER", 
    "POP_AT_RISK": 35686, 
    "ZIP": 60620, 
    "ADDRESS": "8615 S ASHLAND AVE", 
    "YEAR": 2007, 
    "LONGITUDE": -87.662950464, 
    "LATTITUDE": 41.737127836
  }, 
  {
    "BUSINESS_TYPE": "Electronic Equipment Repair", 
    "LEGAL_NAME": "S H LEE, CORP", 
    "STATE": "IL", 
    "DOING_BUSINESS_AS_NAME": "MICOMP COMPUTER CENTER", 
    "POP_AT_RISK": 66796, 
    "ZIP": 60610, 
    "ADDRESS": "1559 N LA SALLE DR", 
    "YEAR": 2007, 
    "LONGITUDE": -87.632992848, 
    "LATTITUDE": 41.910847531
  }
]