[
  {
    "BUSINESS_TYPE": "Street Performer", 
    "LEGAL_NAME": "JEANNA JOHNSON", 
    "STATE": "IL", 
    "DOING_BUSINESS_AS_NAME": "JEANNA JOHNSON", 
    "POP_AT_RISK": 35004, 
    "ZIP": 60632, 
    "ADDRESS": "4929 S KOSTNER AVE 1 1", 
    "YEAR": 2008, 
    "LONGITUDE": -87.733099415, 
    "LATTITUDE": 41.803210427
  }, 
  {
    "BUSINESS_TYPE": "Street Performer", 
    "LEGAL_NAME": "CARMEN SALINAS", 
    "STATE": "IL", 
    "DOING_BUSINESS_AS_NAME": "CARMEN SALINAS", 
    "POP_AT_RISK": 24259, 
    "ZIP": 60609, 
    "ADDRESS": "2038 W 35TH ST", 
    "YEAR": 2008, 
    "LONGITUDE": -87.676878076, 
    "LATTITUDE": 41.830481857
  }, 
  {
    "BUSINESS_TYPE": "Street Performer", 
    "LEGAL_NAME": "MICHAEL KERRELL SANDERS", 
    "STATE": "IL", 
    "DOING_BUSINESS_AS_NAME": "MICHAEL KERRELL SANDERS", 
    "POP_AT_RISK": 6482, 
    "ZIP": 60827, 
    "ADDRESS": "1124 E 132ND ST", 
    "YEAR": 2008, 
    "LONGITUDE": -87.594392225, 
    "LATTITUDE": 41.655935656
  }, 
  {
    "BUSINESS_TYPE": "Street Performer", 
    "LEGAL_NAME": "JOSEPH L. ALCALA", 
    "STATE": "IL", 
    "DOING_BUSINESS_AS_NAME": "JOSEPH L. ALCALA", 
    "POP_AT_RISK": 61356, 
    "ZIP": 60634, 
    "ADDRESS": "2842 N MENARD AVE", 
    "YEAR": 2008, 
    "LONGITUDE": -87.771295751, 
    "LATTITUDE": 41.93248494
  }, 
  {
    "BUSINESS_TYPE": "Street Performer", 
    "LEGAL_NAME": "LORITA ANN METLOW", 
    "STATE": "IL", 
    "DOING_BUSINESS_AS_NAME": "LORITA ANN METLOW", 
    "POP_AT_RISK": 22813, 
    "ZIP": 60638, 
    "ADDRESS": "5814 S ARCHER AVE", 
    "YEAR": 2008, 
    "LONGITUDE": -87.759168332, 
    "LATTITUDE": 41.796324314
  }, 
  {
    "BUSINESS_TYPE": "Street Performer", 
    "LEGAL_NAME": "RICHARD LAMONT CEASAR", 
    "STATE": "IL", 
    "DOING_BUSINESS_AS_NAME": "RICHARD LAMONT CEASAR", 
    "POP_AT_RISK": 58167, 
    "ZIP": 60623, 
    "ADDRESS": "1662 S TROY ST", 
    "YEAR": 2008, 
    "LONGITUDE": -87.704347627, 
    "LATTITUDE": 41.857358831
  }, 
  {
    "BUSINESS_TYPE": "Street Performer", 
    "LEGAL_NAME": "LISA L. JANOSCHKA", 
    "STATE": "IL", 
    "DOING_BUSINESS_AS_NAME": "LISA L. JANOSCHKA", 
    "POP_AT_RISK": 27547, 
    "ZIP": 60630, 
    "ADDRESS": "5481 N NORTHWEST HWY 2ND 2", 
    "YEAR": 2008, 
    "LONGITUDE": -87.777476599, 
    "LATTITUDE": 41.980383565
  }, 
  {
    "BUSINESS_TYPE": "Street Performer", 
    "LEGAL_NAME": "THOMAS M SEXTON", 
    "STATE": "IL", 
    "DOING_BUSINESS_AS_NAME": "THOMAS M SEXTON", 
    "POP_AT_RISK": 12033, 
    "ZIP": 60656, 
    "ADDRESS": "8615 W SUNNYSIDE AVE 1ST", 
    "YEAR": 2008, 
    "LONGITUDE": -87.842301739, 
    "LATTITUDE": 41.961202595
  }, 
  {
    "BUSINESS_TYPE": "Street Performer", 
    "LEGAL_NAME": "DEBORAH A. HUBBARD-PARKS", 
    "STATE": "IL", 
    "DOING_BUSINESS_AS_NAME": "DEBORAH A. HUBBARD-PARKS", 
    "POP_AT_RISK": 24321, 
    "ZIP": 60628, 
    "ADDRESS": "10058 S PRAIRIE AVE", 
    "YEAR": 2008, 
    "LONGITUDE": -87.617661351, 
    "LATTITUDE": 41.710989684
  }, 
  {
    "BUSINESS_TYPE": "Street Performer", 
    "LEGAL_NAME": "GILBERT R. CORONEL", 
    "STATE": "IL", 
    "DOING_BUSINESS_AS_NAME": "GILBERT R. CORONEL", 
    "POP_AT_RISK": 55277, 
    "ZIP": 60623, 
    "ADDRESS": "2715 S TROY ST BASEMENT", 
    "YEAR": 2008, 
    "LONGITUDE": -87.703598771, 
    "LATTITUDE": 41.842230639
  }, 
  {
    "BUSINESS_TYPE": "Street Performer", 
    "LEGAL_NAME": "JONATHAN K. ST. CLAIR", 
    "STATE": "IL", 
    "DOING_BUSINESS_AS_NAME": "JONATHAN K. ST. CLAIR", 
    "POP_AT_RISK": 33732, 
    "ZIP": 60619, 
    "ADDRESS": "541 E 87TH ST", 
    "YEAR": 2008, 
    "LONGITUDE": -87.610436507, 
    "LATTITUDE": 41.736455474
  }, 
  {
    "BUSINESS_TYPE": "Street Performer", 
    "LEGAL_NAME": "LARRY LEE STEWART", 
    "STATE": "IL", 
    "DOING_BUSINESS_AS_NAME": "LARRY LEE STEWART", 
    "POP_AT_RISK": 20309, 
    "ZIP": 60628, 
    "ADDRESS": "739 E 105TH ST", 
    "YEAR": 2008, 
    "LONGITUDE": -87.604741925, 
    "LATTITUDE": 41.703684474
  }, 
  {
    "BUSINESS_TYPE": "Street Performer", 
    "LEGAL_NAME": "ETHAN M. CRAVEN", 
    "STATE": "IL", 
    "DOING_BUSINESS_AS_NAME": "ETHAN M. CRAVEN", 
    "POP_AT_RISK": 19961, 
    "ZIP": 60643, 
    "ADDRESS": "10243 S SEELEY AVE", 
    "YEAR": 2008, 
    "LONGITUDE": -87.672257115, 
    "LATTITUDE": 41.707172324
  }, 
  {
    "BUSINESS_TYPE": "Street Performer", 
    "LEGAL_NAME": "DANIEL A. GOODE", 
    "STATE": "IL", 
    "DOING_BUSINESS_AS_NAME": "DANIEL A. GOODE", 
    "POP_AT_RISK": 16562, 
    "ZIP": 60659, 
    "ADDRESS": "6243 N SPRINGFIELD AVE HSE", 
    "YEAR": 2008, 
    "LONGITUDE": -87.726274871, 
    "LATTITUDE": 41.994949016
  }, 
  {
    "BUSINESS_TYPE": "Street Performer", 
    "LEGAL_NAME": "CAROL EPHRAIM", 
    "STATE": "IL", 
    "DOING_BUSINESS_AS_NAME": "CAROL EPHRAIM", 
    "POP_AT_RISK": 32143, 
    "ZIP": 60652, 
    "ADDRESS": "3643 W 79TH ST", 
    "YEAR": 2008, 
    "LONGITUDE": -87.713778115, 
    "LATTITUDE": 41.749455613
  }, 
  {
    "BUSINESS_TYPE": "Street Performer", 
    "LEGAL_NAME": "ALLEN G. HOLLAND", 
    "STATE": "IL", 
    "DOING_BUSINESS_AS_NAME": "ALLEN G. HOLLAND", 
    "POP_AT_RISK": 34232, 
    "ZIP": 60651, 
    "ADDRESS": "1241 N AUSTIN BLVD", 
    "YEAR": 2008, 
    "LONGITUDE": -87.775255305, 
    "LATTITUDE": 41.903216744
  }, 
  {
    "BUSINESS_TYPE": "Street Performer", 
    "LEGAL_NAME": "JANE MARIE WRIGHT", 
    "STATE": "IL", 
    "DOING_BUSINESS_AS_NAME": "JANE WRIGHT", 
    "POP_AT_RISK": 20929, 
    "ZIP": 60617, 
    "ADDRESS": "9525 S CLYDE AVE 1", 
    "YEAR": 2008, 
    "LONGITUDE": -87.571553103, 
    "LATTITUDE": 41.721739712
  }, 
  {
    "BUSINESS_TYPE": "Street Performer", 
    "LEGAL_NAME": "CECIL D LOCKE", 
    "STATE": "IL", 
    "DOING_BUSINESS_AS_NAME": "CECIL D LOCKE", 
    "POP_AT_RISK": 48881, 
    "ZIP": 60609, 
    "ADDRESS": "5347 S WOOD ST 1ST", 
    "YEAR": 2008, 
    "LONGITUDE": -87.669360606, 
    "LATTITUDE": 41.796248088
  }, 
  {
    "BUSINESS_TYPE": "Street Performer", 
    "LEGAL_NAME": "LEE BRANDON HOWARD", 
    "STATE": "IL", 
    "DOING_BUSINESS_AS_NAME": "LEE BRANDON HOWARD", 
    "POP_AT_RISK": 16458, 
    "ZIP": 60643, 
    "ADDRESS": "2206 W 112TH ST", 
    "YEAR": 2008, 
    "LONGITUDE": -87.676584124, 
    "LATTITUDE": 41.690222265
  }, 
  {
    "BUSINESS_TYPE": "Street Performer", 
    "LEGAL_NAME": "AVRAHAM B KAPLAN", 
    "STATE": "IL", 
    "DOING_BUSINESS_AS_NAME": "AVRAHAM B KAPLAN", 
    "POP_AT_RISK": 42417, 
    "ZIP": 60645, 
    "ADDRESS": "2940 W MORSE AVE", 
    "YEAR": 2008, 
    "LONGITUDE": -87.703784396, 
    "LATTITUDE": 42.006680759
  }, 
  {
    "BUSINESS_TYPE": "Street Performer", 
    "LEGAL_NAME": "ANDREW ODOM", 
    "STATE": "IL", 
    "DOING_BUSINESS_AS_NAME": "ANDREW ODOM", 
    "POP_AT_RISK": 32995, 
    "ZIP": 60649, 
    "ADDRESS": "6900 S CRANDON AVE  413", 
    "YEAR": 2008, 
    "LONGITUDE": -87.570015301, 
    "LATTITUDE": 41.769778545
  }, 
  {
    "BUSINESS_TYPE": "Street Performer", 
    "LEGAL_NAME": "MARK R. NAMBO", 
    "STATE": "IL", 
    "DOING_BUSINESS_AS_NAME": "MARK R. NAMBO", 
    "POP_AT_RISK": 32897, 
    "ZIP": 60629, 
    "ADDRESS": "7310 S CALIFORNIA AVE", 
    "YEAR": 2008, 
    "LONGITUDE": -87.693062607, 
    "LATTITUDE": 41.760519317
  }, 
  {
    "BUSINESS_TYPE": "Street Performer", 
    "LEGAL_NAME": "EUGENE S. LOGAN III", 
    "STATE": "IL", 
    "DOING_BUSINESS_AS_NAME": "EUGENE S. LOGAN III", 
    "POP_AT_RISK": 34293, 
    "ZIP": 60628, 
    "ADDRESS": "11008 S NORMAL AVE", 
    "YEAR": 2008, 
    "LONGITUDE": -87.635333296, 
    "LATTITUDE": 41.693982122
  }, 
  {
    "BUSINESS_TYPE": "Street Performer", 
    "LEGAL_NAME": "RASHON CHEROD DAVIS", 
    "STATE": "IN", 
    "DOING_BUSINESS_AS_NAME": "RASHON CHEROD DAVIS", 
    "POP_AT_RISK": 41691, 
    "ZIP": 46408, 
    "ADDRESS": "3870  POLK ST", 
    "YEAR": 2008, 
    "LONGITUDE": -87.722758378, 
    "LATTITUDE": 41.870861751
  }, 
  {
    "BUSINESS_TYPE": "Street Performer", 
    "LEGAL_NAME": "BRIAN D. CORLEY-JONES", 
    "STATE": "IL", 
    "DOING_BUSINESS_AS_NAME": "BRIAN D. CORLEY-JONES", 
    "POP_AT_RISK": 33383, 
    "ZIP": 60620, 
    "ADDRESS": "9356 S EMERALD AVE", 
    "YEAR": 2008, 
    "LONGITUDE": -87.64219897, 
    "LATTITUDE": 41.723445974
  }, 
  {
    "BUSINESS_TYPE": "Street Performer", 
    "LEGAL_NAME": "JASON M. NEWMAN", 
    "STATE": "IL", 
    "DOING_BUSINESS_AS_NAME": "JASON M. NEWMAN", 
    "POP_AT_RISK": 23487, 
    "ZIP": 60643, 
    "ADDRESS": "1510 W 114TH PL", 
    "YEAR": 2008, 
    "LONGITUDE": -87.660495012, 
    "LATTITUDE": 41.685851732
  }, 
  {
    "BUSINESS_TYPE": "Street Performer", 
    "LEGAL_NAME": "RAY KENNETH RIPERTON", 
    "STATE": "IL", 
    "DOING_BUSINESS_AS_NAME": "RAY KENNETH RIPERTON", 
    "POP_AT_RISK": 27938, 
    "ZIP": 60637, 
    "ADDRESS": "6124 S WOODLAWN AVE", 
    "YEAR": 2008, 
    "LONGITUDE": -87.596416845, 
    "LATTITUDE": 41.783394261
  }, 
  {
    "BUSINESS_TYPE": "Street Performer", 
    "LEGAL_NAME": "ADRIAN SANTIAGO", 
    "STATE": "IL", 
    "DOING_BUSINESS_AS_NAME": "ADRIAN SANTIAGO", 
    "POP_AT_RISK": 60173, 
    "ZIP": 60632, 
    "ADDRESS": "3018 W 54TH ST", 
    "YEAR": 2008, 
    "LONGITUDE": -87.699537574, 
    "LATTITUDE": 41.79552297
  }, 
  {
    "BUSINESS_TYPE": "Street Performer", 
    "LEGAL_NAME": "RONALD L MILLER", 
    "STATE": "IL", 
    "DOING_BUSINESS_AS_NAME": "RONALD L MILLER", 
    "POP_AT_RISK": 51620, 
    "ZIP": 60632, 
    "ADDRESS": "5023 S FAIRFIELD  BSMT", 
    "YEAR": 2008, 
    "LONGITUDE": -87.692662055, 
    "LATTITUDE": 41.802121125
  }, 
  {
    "BUSINESS_TYPE": "Street Performer", 
    "LEGAL_NAME": "LORRAINE RUNGE", 
    "STATE": "IL", 
    "DOING_BUSINESS_AS_NAME": "LORRAINE RUNGE", 
    "POP_AT_RISK": 24680, 
    "ZIP": 60656, 
    "ADDRESS": "7135 W SUMMERDALE AVE", 
    "YEAR": 2008, 
    "LONGITUDE": -87.806146942, 
    "LATTITUDE": 41.977764885
  }, 
  {
    "BUSINESS_TYPE": "Street Performer", 
    "LEGAL_NAME": "LEONEL LOEZA JR.", 
    "STATE": "IL", 
    "DOING_BUSINESS_AS_NAME": "LEONEL LOEZA JR.", 
    "POP_AT_RISK": 26799, 
    "ZIP": 60629, 
    "ADDRESS": "6437 S KILPATRICK AVE", 
    "YEAR": 2008, 
    "LONGITUDE": -87.739611156, 
    "LATTITUDE": 41.775533098
  }, 
  {
    "BUSINESS_TYPE": "Street Performer", 
    "LEGAL_NAME": "MICHAEL P. MOLARO", 
    "STATE": "IL", 
    "DOING_BUSINESS_AS_NAME": "MICHAEL P. MOLARO", 
    "POP_AT_RISK": 10254, 
    "ZIP": 60638, 
    "ADDRESS": "5200 S NORDICA AVE", 
    "YEAR": 2008, 
    "LONGITUDE": -87.798021139, 
    "LATTITUDE": 41.797534011
  }, 
  {
    "BUSINESS_TYPE": "Street Performer", 
    "LEGAL_NAME": "OTTO C. RICHARD", 
    "STATE": "IL", 
    "DOING_BUSINESS_AS_NAME": "OTTO C RICHARD", 
    "POP_AT_RISK": 37320, 
    "ZIP": 60619, 
    "ADDRESS": "8404 S DORCHESTER AVE", 
    "YEAR": 2008, 
    "LONGITUDE": -87.590549681, 
    "LATTITUDE": 41.742111581
  }
]