[
  {
    "BUSINESS_TYPE": "Not-For-Profit Club", 
    "LEGAL_NAME": "'FLAGS' SOCIAL & ATHLETIC CLUB", 
    "STATE": "IL", 
    "DOING_BUSINESS_AS_NAME": "FLAGS SOCIAL & ATHLETIC CLUB", 
    "POP_AT_RISK": 22765, 
    "ZIP": 60609, 
    "ADDRESS": "552 W 47TH ST 1ST", 
    "YEAR": 2019, 
    "LONGITUDE": -87.64033288, 
    "LATTITUDE": 41.809068058
  }, 
  {
    "BUSINESS_TYPE": "Not-For-Profit Club", 
    "LEGAL_NAME": "WAYNE WRIGHT POST 1052 AMR LGN", 
    "STATE": "IL", 
    "DOING_BUSINESS_AS_NAME": "WAYNE WRIGHT POST 1052 AMR LGN", 
    "POP_AT_RISK": 72113, 
    "ZIP": 60614, 
    "ADDRESS": "1258 W WRIGHTWOOD AVE 1ST", 
    "YEAR": 2019, 
    "LONGITUDE": -87.660981556, 
    "LATTITUDE": 41.928997587
  }, 
  {
    "BUSINESS_TYPE": "Not-For-Profit Club", 
    "LEGAL_NAME": "CHICAGO MIDNIGHT RIDERS", 
    "STATE": "IL", 
    "DOING_BUSINESS_AS_NAME": "CHICAGO MIDNIGHT RIDERS", 
    "POP_AT_RISK": 48793, 
    "ZIP": 60651, 
    "ADDRESS": "3803 W CHICAGO AVE", 
    "YEAR": 2019, 
    "LONGITUDE": -87.72134256, 
    "LATTITUDE": 41.895301902
  }, 
  {
    "BUSINESS_TYPE": "Not-For-Profit Club", 
    "LEGAL_NAME": "FATHER PEREZ K OF C CLUB HOUSE", 
    "STATE": "IL", 
    "DOING_BUSINESS_AS_NAME": "FATHER PEREZ K OF C CLUB HOUSE", 
    "POP_AT_RISK": 25020, 
    "ZIP": 60655, 
    "ADDRESS": "3422 W 111TH ST 1ST", 
    "YEAR": 2019, 
    "LONGITUDE": -87.706718698, 
    "LATTITUDE": 41.691583851
  }, 
  {
    "BUSINESS_TYPE": "Not-For-Profit Club", 
    "LEGAL_NAME": "LATIN AMERICAN MOTORCYCLE ASSOCIATION", 
    "STATE": "IL", 
    "DOING_BUSINESS_AS_NAME": "LATIN AMERICAN MOTORCYCLE ASSOCIATION", 
    "POP_AT_RISK": 78375, 
    "ZIP": 60647, 
    "ADDRESS": "3517-3519 W FULLERTON AVE 1ST", 
    "YEAR": 2019, 
    "LONGITUDE": -87.714508655, 
    "LATTITUDE": 41.924524304
  }, 
  {
    "BUSINESS_TYPE": "Not-For-Profit Club", 
    "LEGAL_NAME": "FORTNIGHTLY OF CHICAGO", 
    "STATE": "IL", 
    "DOING_BUSINESS_AS_NAME": "THE FORTNIGHTLY OF CHICAGO", 
    "POP_AT_RISK": 77420, 
    "ZIP": 60611, 
    "ADDRESS": "120 E BELLEVUE PL", 
    "YEAR": 2019, 
    "LONGITUDE": -87.624868156, 
    "LATTITUDE": 41.901720489
  }, 
  {
    "BUSINESS_TYPE": "Not-For-Profit Club", 
    "LEGAL_NAME": "THE QUADRANGLE CLUB", 
    "STATE": "IL", 
    "DOING_BUSINESS_AS_NAME": "THE QUADRANGLE CLUB", 
    "POP_AT_RISK": 33454, 
    "ZIP": 60637, 
    "ADDRESS": "1155 E 57TH ST", 
    "YEAR": 2019, 
    "LONGITUDE": -87.597587664, 
    "LATTITUDE": 41.791325001
  }, 
  {
    "BUSINESS_TYPE": "Not-For-Profit Club", 
    "LEGAL_NAME": "PO-PIEDMONT CLUB,INC", 
    "STATE": "IL", 
    "DOING_BUSINESS_AS_NAME": "PO-PIEDMONT CLUB,INC", 
    "POP_AT_RISK": 36667, 
    "ZIP": 60608, 
    "ADDRESS": "2408 S OAKLEY AVE  1", 
    "YEAR": 2019, 
    "LONGITUDE": -87.683232854, 
    "LATTITUDE": 41.848116785
  }, 
  {
    "BUSINESS_TYPE": "Not-For-Profit Club", 
    "LEGAL_NAME": "NIEDERSACHSEN CLUB CHICAGO INC", 
    "STATE": "IL", 
    "DOING_BUSINESS_AS_NAME": "NIEDERSACHSEN CLUB CHICAGO INC", 
    "POP_AT_RISK": 68575, 
    "ZIP": 60625, 
    "ADDRESS": "4548 N LINCOLN AVE 1ST", 
    "YEAR": 2019, 
    "LONGITUDE": -87.685944659, 
    "LATTITUDE": 41.964389748
  }, 
  {
    "BUSINESS_TYPE": "Not-For-Profit Club", 
    "LEGAL_NAME": "LAKE VIEW MEN'S CLUB", 
    "STATE": "IL", 
    "DOING_BUSINESS_AS_NAME": "LAKE VIEW MEN'S CLUB", 
    "POP_AT_RISK": 71839, 
    "ZIP": 60614, 
    "ADDRESS": "2732 N PINE GROVE AVE  1", 
    "YEAR": 2019, 
    "LONGITUDE": -87.64100632, 
    "LATTITUDE": 41.931855311
  }, 
  {
    "BUSINESS_TYPE": "Not-For-Profit Club", 
    "LEGAL_NAME": "CHICAGO EXECUTIVE GOLF CLUB, INC.", 
    "STATE": "IL", 
    "DOING_BUSINESS_AS_NAME": "CHICAGO EXECUTIVE GOLF CLUB", 
    "POP_AT_RISK": 23487, 
    "ZIP": 60643, 
    "ADDRESS": "1462 W 115TH ST", 
    "YEAR": 2019, 
    "LONGITUDE": -87.659133152, 
    "LATTITUDE": 41.684964297
  }, 
  {
    "BUSINESS_TYPE": "Not-For-Profit Club", 
    "LEGAL_NAME": "RODAM SOCIAL CLUB", 
    "STATE": "IL", 
    "DOING_BUSINESS_AS_NAME": "RODAM SOCIAL INC", 
    "POP_AT_RISK": 68405, 
    "ZIP": 60625, 
    "ADDRESS": "4923 N DAMEN AVE 1ST", 
    "YEAR": 2019, 
    "LONGITUDE": -87.679114632, 
    "LATTITUDE": 41.971290068
  }, 
  {
    "BUSINESS_TYPE": "Not-For-Profit Club", 
    "LEGAL_NAME": "IRISH AMERICAN HERITAGE CENTER", 
    "STATE": "IL", 
    "DOING_BUSINESS_AS_NAME": "IRISH AMERICAN HERITAGE CENTER", 
    "POP_AT_RISK": 46525, 
    "ZIP": 60630, 
    "ADDRESS": "4626 N KNOX AVE", 
    "YEAR": 2019, 
    "LONGITUDE": -87.744116732, 
    "LATTITUDE": 41.96524258
  }, 
  {
    "BUSINESS_TYPE": "Not-For-Profit Club", 
    "LEGAL_NAME": "MCWHINNEY BENEVOLENT ASSOCIATION", 
    "STATE": "IL", 
    "DOING_BUSINESS_AS_NAME": "MCWHINNEY BENEVOLENT ASSN", 
    "POP_AT_RISK": 64893, 
    "ZIP": 60614, 
    "ADDRESS": "2633 N MARSHFIELD AVE 1ST", 
    "YEAR": 2019, 
    "LONGITUDE": -87.669373043, 
    "LATTITUDE": 41.929699395
  }, 
  {
    "BUSINESS_TYPE": "Not-For-Profit Club", 
    "LEGAL_NAME": "The National Guard of Lithuania in Exile, Incorporated", 
    "STATE": "IL", 
    "DOING_BUSINESS_AS_NAME": "NAT'L GUARD OF LITHUANIA", 
    "POP_AT_RISK": 46678, 
    "ZIP": 60632, 
    "ADDRESS": "2417 W POPE JOHN PAUL II DR 1ST", 
    "YEAR": 2019, 
    "LONGITUDE": -87.685454822, 
    "LATTITUDE": 41.815574466
  }, 
  {
    "BUSINESS_TYPE": "Not-For-Profit Club", 
    "LEGAL_NAME": "CROATIAN CULTURAL CENTER OF CHICAGO, INC.", 
    "STATE": "IL", 
    "DOING_BUSINESS_AS_NAME": "CROATIAN CULTURAL CENTER OF CHICAGO", 
    "POP_AT_RISK": 55784, 
    "ZIP": 60659, 
    "ADDRESS": "2845 W DEVON AVE 1ST", 
    "YEAR": 2019, 
    "LONGITUDE": -87.701422682, 
    "LATTITUDE": 41.997419715
  }, 
  {
    "BUSINESS_TYPE": "Not-For-Profit Club", 
    "LEGAL_NAME": "ALLIANCE OF POLISH CLUBS IN THE UNITED STATES OF AMERICA", 
    "STATE": "IL", 
    "DOING_BUSINESS_AS_NAME": "ALLIANCE OF POLISH CLUBS IN THE UNITED STATES OFAMERICA", 
    "POP_AT_RISK": 65209, 
    "ZIP": 60639, 
    "ADDRESS": "5835 W DIVERSEY AVE 1ST", 
    "YEAR": 2019, 
    "LONGITUDE": -87.772535475, 
    "LATTITUDE": 41.931079333
  }, 
  {
    "BUSINESS_TYPE": "Not-For-Profit Club", 
    "LEGAL_NAME": "FRED SCHWEITZER POST 272", 
    "STATE": "IL", 
    "DOING_BUSINESS_AS_NAME": "FRED SCHWEITZER POST 272", 
    "POP_AT_RISK": 9426, 
    "ZIP": 60633, 
    "ADDRESS": "13304 S BALTIMORE AVE 1ST", 
    "YEAR": 2019, 
    "LONGITUDE": -87.547296663, 
    "LATTITUDE": 41.653474248
  }, 
  {
    "BUSINESS_TYPE": "Not-For-Profit Club", 
    "LEGAL_NAME": "UNITED SERBS SPORT CLUB, INC.", 
    "STATE": "IL", 
    "DOING_BUSINESS_AS_NAME": "UNITED SERBS SPORT CLUB INC", 
    "POP_AT_RISK": 44522, 
    "ZIP": 60630, 
    "ADDRESS": "4526 N MILWAUKEE AVE  1ST", 
    "YEAR": 2019, 
    "LONGITUDE": -87.756739946, 
    "LATTITUDE": 41.96304074
  }, 
  {
    "BUSINESS_TYPE": "Not-For-Profit Club", 
    "LEGAL_NAME": "CHICAGO - BRIDGEPORT CANTEEN - VFW #5079", 
    "STATE": "IL", 
    "DOING_BUSINESS_AS_NAME": "CHICAGO - BRIDGEPORT CANTEEN - VFW #5079", 
    "POP_AT_RISK": 44118, 
    "ZIP": 60608, 
    "ADDRESS": "3200 S MAY ST 1", 
    "YEAR": 2019, 
    "LONGITUDE": -87.654896612, 
    "LATTITUDE": 41.836070809
  }, 
  {
    "BUSINESS_TYPE": "Not-For-Profit Club", 
    "LEGAL_NAME": "GARFIELD SOCIAL ATHLETIC CLUB", 
    "STATE": "IL", 
    "DOING_BUSINESS_AS_NAME": "GARFIELD SOCIAL ATHLETIC CLUB", 
    "POP_AT_RISK": 23017, 
    "ZIP": 60652, 
    "ADDRESS": "7733 S KEDZIE AVE", 
    "YEAR": 2019, 
    "LONGITUDE": -87.702327441, 
    "LATTITUDE": 41.752542938
  }, 
  {
    "BUSINESS_TYPE": "Not-For-Profit Club", 
    "LEGAL_NAME": "BALZEKAS MUSEUM OF LITHUANIAN CULTURE", 
    "STATE": "IL", 
    "DOING_BUSINESS_AS_NAME": "BALZEKAS MUSEUM OF LITHUANIAN", 
    "POP_AT_RISK": 46565, 
    "ZIP": 60629, 
    "ADDRESS": "6500 S PULASKI RD 1", 
    "YEAR": 2019, 
    "LONGITUDE": -87.722812227, 
    "LATTITUDE": 41.774964998
  }
]