[
{"STATE":"IL","ZIP":60639,"LATTITUDE":41.9318187312723,"ADDRESS":"4244 W DIVERSEY AVE  ","YEAR":2001,"DOING_BUSINESS_AS_NAME":"KEN-MAR  CORPORATION","POP_AT_RISK":1127746,"BUSINESS_TYPE":"Hazardous Materials","LEGAL_NAME":"KEN-MAR CORP","LONGITUDE":-87.73327473170427},
{"STATE":"IL","ZIP":60631,"LATTITUDE":41.9867885856625,"ADDRESS":"8535 W HIGGINS RD  OFFIC","YEAR":2001,"DOING_BUSINESS_AS_NAME":"CHICAGO MARRIOTT O'HARE","POP_AT_RISK":70592,"BUSINESS_TYPE":"Hazardous Materials","LEGAL_NAME":"MARRIOTT HOTELS INC","LONGITUDE":-87.84012417346162},
{"STATE":"IL","ZIP":60609,"LATTITUDE":41.809592874106485,"ADDRESS":"4633 S RACINE AVE  ","YEAR":2001,"DOING_BUSINESS_AS_NAME":"COLLINS INTERNATIONAL INC","POP_AT_RISK":352968,"BUSINESS_TYPE":"Hazardous Materials","LEGAL_NAME":"COLLINS INTERNATIONAL INC","LONGITUDE":-87.65511503536169},
{"STATE":"IL","ZIP":60644,"LATTITUDE":41.866006039366866,"ADDRESS":"4800 W ROOSEVELT RD 1ST ","YEAR":2001,"DOING_BUSINESS_AS_NAME":"FIRST CHICAGO BUILDING CORP","POP_AT_RISK":165624,"BUSINESS_TYPE":"Hazardous Materials","LEGAL_NAME":"FIRST CHICAGO BUILDING CORP","LONGITUDE":-87.74481737620984},
{"STATE":"IL","ZIP":60624,"LATTITUDE":41.86771608429652,"ADDRESS":"4441 W FILLMORE ST 1ST ","YEAR":2001,"DOING_BUSINESS_AS_NAME":"ACCENT CABINETS INDUSTRIES INC","POP_AT_RISK":201795,"BUSINESS_TYPE":"Hazardous Materials","LEGAL_NAME":"ACCENT CABINETS INDUSTRIES INC","LONGITUDE":-87.73666571716763},
{}]