[
  {
    "BUSINESS_TYPE": "Hazardous Materials", 
    "LEGAL_NAME": "COMMONWEALTH EDISON CO", 
    "STATE": "IL", 
    "DOING_BUSINESS_AS_NAME": "COMMONWEALTH EDISON CO", 
    "POP_AT_RISK": 20119, 
    "ZIP": 60617, 
    "ADDRESS": "3200 E 100TH ST  1", 
    "YEAR": 2000, 
    "LONGITUDE": -87.545590675, 
    "LATTITUDE": 41.713644724
  }, 
  {
    "BUSINESS_TYPE": "Hazardous Materials", 
    "LEGAL_NAME": "COMMONWEALTH EDISON CO", 
    "STATE": "IL", 
    "DOING_BUSINESS_AS_NAME": "COMMONWEALTH EDISON CO", 
    "POP_AT_RISK": 50025, 
    "ZIP": 60603, 
    "ADDRESS": "72 W ADAMS ST 20TH", 
    "YEAR": 2000, 
    "LONGITUDE": -87.630417841, 
    "LATTITUDE": 41.879527371
  }, 
  {
    "BUSINESS_TYPE": "Hazardous Materials", 
    "LEGAL_NAME": "GRAYMILLS CORP", 
    "STATE": "IL", 
    "DOING_BUSINESS_AS_NAME": "GRAYMILLS CORP", 
    "POP_AT_RISK": 70409, 
    "ZIP": 60613, 
    "ADDRESS": "3705 N LINCOLN AVE", 
    "YEAR": 2000, 
    "LONGITUDE": -87.674985121, 
    "LATTITUDE": 41.948975889
  }, 
  {
    "BUSINESS_TYPE": "Hazardous Materials", 
    "LEGAL_NAME": "J.F. DALEY INTERNATIONAL, LTD.", 
    "STATE": "IL", 
    "DOING_BUSINESS_AS_NAME": "CANDY & CO", 
    "POP_AT_RISK": 42258, 
    "ZIP": 60632, 
    "ADDRESS": "2515 W 35TH ST", 
    "YEAR": 2000, 
    "LONGITUDE": -87.688119642, 
    "LATTITUDE": 41.830113731
  }, 
  {
    "BUSINESS_TYPE": "Hazardous Materials", 
    "LEGAL_NAME": "TRITON INDUSTRIES INC", 
    "STATE": "IL", 
    "DOING_BUSINESS_AS_NAME": "TRITON INDUSTRIES INC", 
    "POP_AT_RISK": 36800, 
    "ZIP": 60651, 
    "ADDRESS": "1020 N KOLMAR AVE", 
    "YEAR": 2000, 
    "LONGITUDE": -87.739965307, 
    "LATTITUDE": 41.899529625
  }, 
  {
    "BUSINESS_TYPE": "Hazardous Materials", 
    "LEGAL_NAME": "NORTH SAFETY PRODUCTS", 
    "STATE": "IL", 
    "DOING_BUSINESS_AS_NAME": "W H SALISBURY CO", 
    "POP_AT_RISK": 42357, 
    "ZIP": 60642, 
    "ADDRESS": "401 N MORGAN ST", 
    "YEAR": 2000, 
    "LONGITUDE": -87.652090062, 
    "LATTITUDE": 41.889038243
  }, 
  {
    "BUSINESS_TYPE": "Hazardous Materials", 
    "LEGAL_NAME": "RAVENSWOOD DISPOSAL SERVICE", 
    "STATE": "IL", 
    "DOING_BUSINESS_AS_NAME": "RAVENSWOOD DISPOSAL SERVICE", 
    "POP_AT_RISK": 29949, 
    "ZIP": 60612, 
    "ADDRESS": "221 N WASHTENAW AVE 1ST", 
    "YEAR": 2000, 
    "LONGITUDE": -87.69378565, 
    "LATTITUDE": 41.885010181
  }, 
  {
    "BUSINESS_TYPE": "Hazardous Materials", 
    "LEGAL_NAME": "RUKIN INDUSTRIES", 
    "STATE": "IL", 
    "DOING_BUSINESS_AS_NAME": "RUKIN INDUSTRIES INC", 
    "POP_AT_RISK": 56126, 
    "ZIP": 60639, 
    "ADDRESS": "4545 W ARMITAGE AVE", 
    "YEAR": 2000, 
    "LONGITUDE": -87.740547911, 
    "LATTITUDE": 41.916885062
  }, 
  {
    "BUSINESS_TYPE": "Hazardous Materials", 
    "LEGAL_NAME": "AESOP R STUDIO INC", 
    "STATE": "IL", 
    "DOING_BUSINESS_AS_NAME": "AESOP R STUDIO INC", 
    "POP_AT_RISK": 68309, 
    "ZIP": 60647, 
    "ADDRESS": "1741 N WESTERN AVE  1", 
    "YEAR": 2000, 
    "LONGITUDE": -87.687153288, 
    "LATTITUDE": 41.913326112
  }, 
  {
    "BUSINESS_TYPE": "Hazardous Materials", 
    "LEGAL_NAME": "COMMONWEALTH EDISON CO", 
    "STATE": "IL", 
    "DOING_BUSINESS_AS_NAME": "W.R.LESS", 
    "POP_AT_RISK": 39984, 
    "ZIP": 60608, 
    "ADDRESS": "2221 S LOOMIS ST  1ST", 
    "YEAR": 2000, 
    "LONGITUDE": -87.660994604, 
    "LATTITUDE": 41.851709006
  }, 
  {
    "BUSINESS_TYPE": "Hazardous Materials", 
    "LEGAL_NAME": "COLOR COMMUNICATIONS, INC.", 
    "STATE": "IL", 
    "DOING_BUSINESS_AS_NAME": "COLOR COMMUNICATIONS INC", 
    "POP_AT_RISK": 42186, 
    "ZIP": 60624, 
    "ADDRESS": "4000 W FILLMORE ST 1ST", 
    "YEAR": 2000, 
    "LONGITUDE": -87.725369715, 
    "LATTITUDE": 41.868100608
  }, 
  {
    "BUSINESS_TYPE": "Hazardous Materials", 
    "LEGAL_NAME": "WELDED TUBE CO OF AMERICA", 
    "STATE": "IL", 
    "DOING_BUSINESS_AS_NAME": "LTV CORPORATION", 
    "POP_AT_RISK": 2798, 
    "ZIP": 60633, 
    "ADDRESS": "13535 S TORRENCE AVE 1ST", 
    "YEAR": 2000, 
    "LONGITUDE": -87.559164627, 
    "LATTITUDE": 41.649007538
  }, 
  {
    "BUSINESS_TYPE": "Hazardous Materials", 
    "LEGAL_NAME": "COMMONWEALTH EDISON CO", 
    "STATE": "IL", 
    "DOING_BUSINESS_AS_NAME": "COMMONWEALTH EDISON CO", 
    "POP_AT_RISK": 46006, 
    "ZIP": 60608, 
    "ADDRESS": "1111 W CERMAK RD", 
    "YEAR": 2000, 
    "LONGITUDE": -87.653592641, 
    "LATTITUDE": 41.852426365
  }, 
  {
    "BUSINESS_TYPE": "Hazardous Materials", 
    "LEGAL_NAME": "BEST FOAM FABRICATORS INC", 
    "STATE": "IL", 
    "DOING_BUSINESS_AS_NAME": "BEST FOAM FABRICATORS INC", 
    "POP_AT_RISK": 20311, 
    "ZIP": 60628, 
    "ADDRESS": "9633 S COTTAGE GROVE AVE", 
    "YEAR": 2000, 
    "LONGITUDE": -87.603684254, 
    "LATTITUDE": 41.719241497
  }, 
  {
    "BUSINESS_TYPE": "Hazardous Materials", 
    "LEGAL_NAME": "COMMONWEALTH EDISON CO", 
    "STATE": "IL", 
    "DOING_BUSINESS_AS_NAME": "COMMONWEALTH EDISON CO", 
    "POP_AT_RISK": 29528, 
    "ZIP": 60623, 
    "ADDRESS": "3501 S PULASKI RD  1", 
    "YEAR": 2000, 
    "LONGITUDE": -87.72405846, 
    "LATTITUDE": 41.830227042
  }, 
  {
    "BUSINESS_TYPE": "Hazardous Materials", 
    "LEGAL_NAME": "CHICAGO PACKAGING CO", 
    "STATE": "IL", 
    "DOING_BUSINESS_AS_NAME": "CHICAGO PACKAGING CO", 
    "POP_AT_RISK": 23513, 
    "ZIP": 60632, 
    "ADDRESS": "4340 W 47TH ST", 
    "YEAR": 2000, 
    "LONGITUDE": -87.732595041, 
    "LATTITUDE": 41.807867035
  }, 
  {
    "BUSINESS_TYPE": "Hazardous Materials", 
    "LEGAL_NAME": "COMMONWEALTH EDISON CO", 
    "STATE": "IL", 
    "DOING_BUSINESS_AS_NAME": "COMMONWEALTH EDISON CO", 
    "POP_AT_RISK": 29244, 
    "ZIP": 60652, 
    "ADDRESS": "7601 S LAWNDALE AVE 1ST", 
    "YEAR": 2000, 
    "LONGITUDE": -87.714120425, 
    "LATTITUDE": 41.755030985
  }, 
  {
    "BUSINESS_TYPE": "Hazardous Materials", 
    "LEGAL_NAME": "SCRAP PROCESSING INC", 
    "STATE": "IL", 
    "DOING_BUSINESS_AS_NAME": "SCRAP PROCESSING INC", 
    "POP_AT_RISK": 16622, 
    "ZIP": 60617, 
    "ADDRESS": "9331 S EWING AVE", 
    "YEAR": 2000, 
    "LONGITUDE": -87.540013086, 
    "LATTITUDE": 41.726845811
  }, 
  {
    "BUSINESS_TYPE": "Hazardous Materials", 
    "LEGAL_NAME": "NICKELSON INDUSTRIAL SERVICE, INC.", 
    "STATE": "IL", 
    "DOING_BUSINESS_AS_NAME": "NICKELSON INDSTL SERVC,INC", 
    "POP_AT_RISK": 28954, 
    "ZIP": 60617, 
    "ADDRESS": "8501 S BALTIMORE AVE 1ST", 
    "YEAR": 2000, 
    "LONGITUDE": -87.550338602, 
    "LATTITUDE": 41.741084403
  }, 
  {
    "BUSINESS_TYPE": "Hazardous Materials", 
    "LEGAL_NAME": "CONTINENTAL ASSURANCE COMPANY", 
    "STATE": "IL", 
    "DOING_BUSINESS_AS_NAME": "CONTINENTAL CASUALTY COMPANY", 
    "POP_AT_RISK": 46392, 
    "ZIP": 60647, 
    "ADDRESS": "2600 N ELSTON AVE 1ST", 
    "YEAR": 2000, 
    "LONGITUDE": -87.683230136, 
    "LATTITUDE": 41.92887689
  }, 
  {
    "BUSINESS_TYPE": "Hazardous Materials", 
    "LEGAL_NAME": "MASTERWORK INC", 
    "STATE": "IL", 
    "DOING_BUSINESS_AS_NAME": "MASTERWORK INC", 
    "POP_AT_RISK": 78939, 
    "ZIP": 60613, 
    "ADDRESS": "4011 N RAVENSWOOD AVE  1", 
    "YEAR": 2000, 
    "LONGITUDE": -87.673652191, 
    "LATTITUDE": 41.954603016
  }, 
  {
    "BUSINESS_TYPE": "Hazardous Materials", 
    "LEGAL_NAME": "J.B.HUNT TRANSPORT INC", 
    "STATE": "IL", 
    "DOING_BUSINESS_AS_NAME": "J B HUNT TRANSPORT INC", 
    "POP_AT_RISK": 35388, 
    "ZIP": 60632, 
    "ADDRESS": "3642 W 47TH ST", 
    "YEAR": 2000, 
    "LONGITUDE": -87.715395437, 
    "LATTITUDE": 41.808085352
  }
]