[
  {
    "BUSINESS_TYPE": "Night Care Privilege", 
    "LEGAL_NAME": "A CHILD'S SPACE EARLY LITERACY AND LEARNING CENTER, INC.", 
    "STATE": "IL", 
    "DOING_BUSINESS_AS_NAME": "A CHILD'S SPACE EARLY LITERACY AND LEARNING CENTER, INC.", 
    "POP_AT_RISK": 43841, 
    "ZIP": 60605, 
    "ADDRESS": "1020 S WABASH AVE # 100", 
    "YEAR": 2012, 
    "LONGITUDE": -87.626027446, 
    "LATTITUDE": 41.869458835
  }, 
  {
    "BUSINESS_TYPE": "Night Care Privilege", 
    "LEGAL_NAME": "GOOD HANDS DAY CARE INCORPORATED", 
    "STATE": "IL", 
    "DOING_BUSINESS_AS_NAME": "GOOD HANDS DAY CARE INCORPORATED", 
    "POP_AT_RISK": 7538, 
    "ZIP": 60707, 
    "ADDRESS": "1759 N HARLEM AVE", 
    "YEAR": 2012, 
    "LONGITUDE": -87.805740995, 
    "LATTITUDE": 41.91244389
  }, 
  {
    "BUSINESS_TYPE": "Night Care Privilege", 
    "LEGAL_NAME": "ANGEL WINGS DAYCARE INC.", 
    "STATE": "IL", 
    "DOING_BUSINESS_AS_NAME": "ANGEL WINGS DAYCARE INC.", 
    "POP_AT_RISK": 57289, 
    "ZIP": 60639, 
    "ADDRESS": "5361-65 W NORTH AVE 1", 
    "YEAR": 2012, 
    "LONGITUDE": -87.760359667, 
    "LATTITUDE": 41.909331322
  }, 
  {
    "BUSINESS_TYPE": "Night Care Privilege", 
    "LEGAL_NAME": "GRANNY'S DAYCARE CENTER, INC.", 
    "STATE": "IL", 
    "DOING_BUSINESS_AS_NAME": "GRANNY'S DAYCARE CENTER", 
    "POP_AT_RISK": 26060, 
    "ZIP": 60628, 
    "ADDRESS": "157 W 119TH ST", 
    "YEAR": 2012, 
    "LONGITUDE": -87.627401007, 
    "LATTITUDE": 41.677862591
  }, 
  {
    "BUSINESS_TYPE": "Night Care Privilege", 
    "LEGAL_NAME": "CATHY R DORSEY", 
    "STATE": "IL", 
    "DOING_BUSINESS_AS_NAME": "DORSEY'S DEVELOPMENTAL INSTITUTE", 
    "POP_AT_RISK": 19126, 
    "ZIP": 60617, 
    "ADDRESS": "2050 E 93RD ST 1ST", 
    "YEAR": 2012, 
    "LONGITUDE": -87.573413619, 
    "LATTITUDE": 41.726252118
  }, 
  {
    "BUSINESS_TYPE": "Night Care Privilege", 
    "LEGAL_NAME": "KING'S KIDDIE KINGDOM, INC.", 
    "STATE": "IL", 
    "DOING_BUSINESS_AS_NAME": "KING'S KIDDIE KINGDOM", 
    "POP_AT_RISK": 34405, 
    "ZIP": 60621, 
    "ADDRESS": "815 W 74TH ST", 
    "YEAR": 2012, 
    "LONGITUDE": -87.644917957, 
    "LATTITUDE": 41.759624275
  }, 
  {
    "BUSINESS_TYPE": "Night Care Privilege", 
    "LEGAL_NAME": "ROSLYN FRANCINE PHILLIPS", 
    "STATE": "IL", 
    "DOING_BUSINESS_AS_NAME": "COMPUTER PRE-SCHOOL ACADEMY", 
    "POP_AT_RISK": 42683, 
    "ZIP": 60609, 
    "ADDRESS": "1400 W GARFIELD BLVD 1", 
    "YEAR": 2012, 
    "LONGITUDE": -87.659786796, 
    "LATTITUDE": 41.794210943
  }, 
  {
    "BUSINESS_TYPE": "Night Care Privilege", 
    "LEGAL_NAME": "KENYATTA DAYCARE CENTER", 
    "STATE": "IL", 
    "DOING_BUSINESS_AS_NAME": "KENYATTA'S DAYCARE", 
    "POP_AT_RISK": 43033, 
    "ZIP": 60649, 
    "ADDRESS": "2334 E 75TH ST", 
    "YEAR": 2012, 
    "LONGITUDE": -87.567447849, 
    "LATTITUDE": 41.759085476
  }, 
  {
    "BUSINESS_TYPE": "Night Care Privilege", 
    "LEGAL_NAME": "GIANT LEAPS LEARNING CENTER, INC.", 
    "STATE": "IL", 
    "DOING_BUSINESS_AS_NAME": "GIANT LEAPS LEARNING CENTER", 
    "POP_AT_RISK": 30732, 
    "ZIP": 60619, 
    "ADDRESS": "8855 S STATE ST 1ST", 
    "YEAR": 2012, 
    "LONGITUDE": -87.623894156, 
    "LATTITUDE": 41.732898131
  }, 
  {
    "BUSINESS_TYPE": "Night Care Privilege", 
    "LEGAL_NAME": "Infantile 2 Juvenile Inc", 
    "STATE": "IL", 
    "DOING_BUSINESS_AS_NAME": "LIL EINSTEIN'S INSTITUTE FOR SCHOLARS", 
    "POP_AT_RISK": 47176, 
    "ZIP": 60608, 
    "ADDRESS": "1854 S RACINE AVE 1", 
    "YEAR": 2012, 
    "LONGITUDE": -87.656523609, 
    "LATTITUDE": 41.856320952
  }, 
  {
    "BUSINESS_TYPE": "Night Care Privilege", 
    "LEGAL_NAME": "CAROLE ROBERTSON CENTER FOR LEARNING", 
    "STATE": "IL", 
    "DOING_BUSINESS_AS_NAME": "Carole Robertson Center for Learning", 
    "POP_AT_RISK": 50982, 
    "ZIP": 60623, 
    "ADDRESS": "2929 W 19TH ST", 
    "YEAR": 2012, 
    "LONGITUDE": -87.70040522, 
    "LATTITUDE": 41.855378986
  }, 
  {
    "BUSINESS_TYPE": "Night Care Privilege", 
    "LEGAL_NAME": "HUNT'S EARLY CHILDHOOD EDUCATIONAL ACADEMY, LTD.", 
    "STATE": "IL", 
    "DOING_BUSINESS_AS_NAME": "HUNT'S EARLY CHILDHOOD EDUCATIONAL ACADEMY, LTD.", 
    "POP_AT_RISK": 25836, 
    "ZIP": 60652, 
    "ADDRESS": "2701 W 79TH ST 1ST FL", 
    "YEAR": 2012, 
    "LONGITUDE": -87.69023586, 
    "LATTITUDE": 41.749815701
  }, 
  {
    "BUSINESS_TYPE": "Night Care Privilege", 
    "LEGAL_NAME": "CHICAGO PRESCHOOL ACADEMY, INC.", 
    "STATE": "IL", 
    "DOING_BUSINESS_AS_NAME": "CHICAGO PRESCHOOL ACADEMY", 
    "POP_AT_RISK": 33732, 
    "ZIP": 60619, 
    "ADDRESS": "532-534 E 87TH ST", 
    "YEAR": 2012, 
    "LONGITUDE": -87.610747985, 
    "LATTITUDE": 41.736669867
  }, 
  {
    "BUSINESS_TYPE": "Night Care Privilege", 
    "LEGAL_NAME": "CARING HANDS HEALTH MAINTAINANCE SERVICES, INC.", 
    "STATE": "IL", 
    "DOING_BUSINESS_AS_NAME": "A STEP AHEAD LEARNING CENTER", 
    "POP_AT_RISK": 68959, 
    "ZIP": 60613, 
    "ADDRESS": "4214  -4220 N BROADWAY  1ST", 
    "YEAR": 2012, 
    "LONGITUDE": -87.65342019, 
    "LATTITUDE": 41.958804082
  }, 
  {
    "BUSINESS_TYPE": "Night Care Privilege", 
    "LEGAL_NAME": "GOD'S LITTLE HELPER INC.", 
    "STATE": "IL", 
    "DOING_BUSINESS_AS_NAME": "GOD'S LITTLE HELPER INC. DAYCARE", 
    "POP_AT_RISK": 22174, 
    "ZIP": 60652, 
    "ADDRESS": "3734 W 79TH ST GROUND", 
    "YEAR": 2012, 
    "LONGITUDE": -87.715570252, 
    "LATTITUDE": 41.749780057
  }, 
  {
    "BUSINESS_TYPE": "Night Care Privilege", 
    "LEGAL_NAME": "KIDS R FIRST LEARNING ACADEMY, INC.", 
    "STATE": "IL", 
    "DOING_BUSINESS_AS_NAME": "KIDS R FIRST LEARNING ACADEMY", 
    "POP_AT_RISK": 38927, 
    "ZIP": 60620, 
    "ADDRESS": "1155 W 81ST ST", 
    "YEAR": 2012, 
    "LONGITUDE": -87.653408763, 
    "LATTITUDE": 41.746751279
  }, 
  {
    "BUSINESS_TYPE": "Night Care Privilege", 
    "LEGAL_NAME": "STAIR STEP VILLA NURSERY SCHOOL & KINDERGARTEN, INC.", 
    "STATE": "IL", 
    "DOING_BUSINESS_AS_NAME": "STAIR STEP VILLA NURSERY & KINDERGARTEN", 
    "POP_AT_RISK": 30270, 
    "ZIP": 60649, 
    "ADDRESS": "6725 S JEFFERY BLVD 1ST", 
    "YEAR": 2012, 
    "LONGITUDE": -87.576328144, 
    "LATTITUDE": 41.772686675
  }, 
  {
    "BUSINESS_TYPE": "Night Care Privilege", 
    "LEGAL_NAME": "LONDON BRIDGES PRE-SCHOOL", 
    "STATE": "IL", 
    "DOING_BUSINESS_AS_NAME": "LONDON BRIDGES PRE-SCHOOL", 
    "POP_AT_RISK": 18053, 
    "ZIP": 60628, 
    "ADDRESS": "708 E 100TH PL 1ST", 
    "YEAR": 2012, 
    "LONGITUDE": -87.604763533, 
    "LATTITUDE": 41.712357345
  }, 
  {
    "BUSINESS_TYPE": "Night Care Privilege", 
    "LEGAL_NAME": "THE KIDS PLACE II, INC.", 
    "STATE": "IL", 
    "DOING_BUSINESS_AS_NAME": "THE KIDS PLACE II, INC", 
    "POP_AT_RISK": 26444, 
    "ZIP": 60643, 
    "ADDRESS": "1318 W 95TH ST", 
    "YEAR": 2012, 
    "LONGITUDE": -87.656200115, 
    "LATTITUDE": 41.721409458
  }, 
  {
    "BUSINESS_TYPE": "Night Care Privilege", 
    "LEGAL_NAME": "LA ESCUELITA  NUMERO DOS INC.", 
    "STATE": "IL", 
    "DOING_BUSINESS_AS_NAME": "LA ESCUELITA  NUMERO DOS INC.,", 
    "POP_AT_RISK": 54119, 
    "ZIP": 60647, 
    "ADDRESS": "3001 W DIVERSEY AVE 1ST", 
    "YEAR": 2012, 
    "LONGITUDE": -87.702580328, 
    "LATTITUDE": 41.931948536
  }
]