[
{"STATE":"IL","ZIP":60629,"LATTITUDE":41.76434973853633,"ADDRESS":"2957 W 71ST ST 1ST ","YEAR":2003,"DOING_BUSINESS_AS_NAME":"WINSTON LOTT","POP_AT_RISK":150556,"BUSINESS_TYPE":"Peddler, non-food","LEGAL_NAME":"WINSTON LOTT","LONGITUDE":-87.69777132361908},
{"STATE":"IL","ZIP":60629,"LATTITUDE":41.78284958138877,"ADDRESS":"6058 S CALIFORNIA AVE  ","YEAR":2003,"DOING_BUSINESS_AS_NAME":"Willie M. Tate","POP_AT_RISK":524772,"BUSINESS_TYPE":"Peddler, non-food","LEGAL_NAME":"Willie M. Tate","LONGITUDE":-87.69364718956687},
{"STATE":"IL","ZIP":60647,"LATTITUDE":41.92928285619724,"ADDRESS":"2624 N HOYNE AVE  761","YEAR":2003,"DOING_BUSINESS_AS_NAME":"ANTHONY L. BROWN","POP_AT_RISK":1099665,"BUSINESS_TYPE":"Peddler, non-food","LEGAL_NAME":"ANTHONY L. BROWN","LONGITUDE":-87.67891235810421},
{"STATE":"IL","ZIP":60608,"LATTITUDE":41.86357166005025,"ADDRESS":"1030 W 14TH ST  303","YEAR":2003,"DOING_BUSINESS_AS_NAME":"GEORGE LEE BAKER","POP_AT_RISK":462163,"BUSINESS_TYPE":"Peddler, non-food","LEGAL_NAME":"GEORGE LEE BAKER","LONGITUDE":-87.65227948658104},
{"STATE":"IL","ZIP":60640,"LATTITUDE":41.96271519385547,"ADDRESS":"4440 N WOLCOTT AVE  ","YEAR":2003,"DOING_BUSINESS_AS_NAME":"AMAN","POP_AT_RISK":1521894,"BUSINESS_TYPE":"Peddler, non-food","LEGAL_NAME":"DANIEL JOHN NICKY","LONGITUDE":-87.67618262836521},
{"STATE":"IL","ZIP":60615,"LATTITUDE":41.80619342227997,"ADDRESS":"4850 S EVANS AVE  ","YEAR":2003,"DOING_BUSINESS_AS_NAME":"MARILYN WASHINGTON","POP_AT_RISK":813477,"BUSINESS_TYPE":"Peddler, non-food","LEGAL_NAME":"MARILYN WASHINGTON","LONGITUDE":-87.60785964273944},
{}]