[
  {
    "BUSINESS_TYPE": "Massage Establishment", 
    "LEGAL_NAME": "MICHELLE MANNING PAPPAS", 
    "STATE": "IL", 
    "DOING_BUSINESS_AS_NAME": "RELAXATION STATION", 
    "POP_AT_RISK": 18825, 
    "ZIP": 60643, 
    "ADDRESS": "10655 S HALE AVE  1", 
    "YEAR": 2016, 
    "LONGITUDE": -87.66933263, 
    "LATTITUDE": 41.6993727
  }, 
  {
    "BUSINESS_TYPE": "Massage Establishment", 
    "LEGAL_NAME": "RENOVACIONES VALLEJO", 
    "STATE": "IL", 
    "DOING_BUSINESS_AS_NAME": "RENOVACIONES VALLEJO", 
    "POP_AT_RISK": 57388, 
    "ZIP": 60629, 
    "ADDRESS": "3809 W 63RD ST", 
    "YEAR": 2016, 
    "LONGITUDE": -87.718278639, 
    "LATTITUDE": 41.778618371
  }, 
  {
    "BUSINESS_TYPE": "Massage Establishment", 
    "LEGAL_NAME": "BARBARA A GODINA", 
    "STATE": "IL", 
    "DOING_BUSINESS_AS_NAME": "CREATIONS TOUCH", 
    "POP_AT_RISK": 17702, 
    "ZIP": 60617, 
    "ADDRESS": "9204 S COMMERCIAL AVE  306", 
    "YEAR": 2016, 
    "LONGITUDE": -87.551357852, 
    "LATTITUDE": 41.728035914
  }, 
  {
    "BUSINESS_TYPE": "Massage Establishment", 
    "LEGAL_NAME": "T. J AARON INC.", 
    "STATE": "IL", 
    "DOING_BUSINESS_AS_NAME": "B. D. MASSAGE", 
    "POP_AT_RISK": 30246, 
    "ZIP": 60659, 
    "ADDRESS": "6320 N LINCOLN AVE 1ST B", 
    "YEAR": 2016, 
    "LONGITUDE": -87.716968345, 
    "LATTITUDE": 41.996139331
  }, 
  {
    "BUSINESS_TYPE": "Massage Establishment", 
    "LEGAL_NAME": "MARYNA MITSKO-SCHLITZ", 
    "STATE": "IL", 
    "DOING_BUSINESS_AS_NAME": "MASSAGE MIRACLE", 
    "POP_AT_RISK": 15722, 
    "ZIP": 60646, 
    "ADDRESS": "5901 N CICERO AVE  G-11", 
    "YEAR": 2016, 
    "LONGITUDE": -87.748175392, 
    "LATTITUDE": 41.988815533
  }, 
  {
    "BUSINESS_TYPE": "Massage Establishment", 
    "LEGAL_NAME": "CARMEN Y WONG", 
    "STATE": "IL", 
    "DOING_BUSINESS_AS_NAME": "ARIES MASSAGE", 
    "POP_AT_RISK": 68230, 
    "ZIP": 60641, 
    "ADDRESS": "3022 N PULASKI RD", 
    "YEAR": 2016, 
    "LONGITUDE": -87.727244524, 
    "LATTITUDE": 41.936082098
  }, 
  {
    "BUSINESS_TYPE": "Massage Establishment", 
    "LEGAL_NAME": "CHICAGO SWEATLODGE L.L.C.", 
    "STATE": "IL", 
    "DOING_BUSINESS_AS_NAME": "REHYDRATE WATER BAR & CAFE", 
    "POP_AT_RISK": 53911, 
    "ZIP": 60641, 
    "ADDRESS": "3500-3504 N CICERO AVE 1", 
    "YEAR": 2016, 
    "LONGITUDE": -87.747161464, 
    "LATTITUDE": 41.944316998
  }, 
  {
    "BUSINESS_TYPE": "Massage Establishment", 
    "LEGAL_NAME": "VEOLA JAMES", 
    "STATE": "IL", 
    "DOING_BUSINESS_AS_NAME": "VEOLA'S BOUTIQUE & DAY SPA", 
    "POP_AT_RISK": 15755, 
    "ZIP": 60643, 
    "ADDRESS": "2150 W 95TH ST  1", 
    "YEAR": 2016, 
    "LONGITUDE": -87.676850673, 
    "LATTITUDE": 41.721126408
  }, 
  {
    "BUSINESS_TYPE": "Massage Establishment", 
    "LEGAL_NAME": "MACAU SPA INC.", 
    "STATE": "IL", 
    "DOING_BUSINESS_AS_NAME": "MACAU SPA INC.", 
    "POP_AT_RISK": 36167, 
    "ZIP": 60616, 
    "ADDRESS": "2734 S WENTWORTH AVE 1ST A", 
    "YEAR": 2016, 
    "LONGITUDE": -87.63195073, 
    "LATTITUDE": 41.842979981
  }, 
  {
    "BUSINESS_TYPE": "Massage Establishment", 
    "LEGAL_NAME": "SUNNY MASSAGE INC.", 
    "STATE": "IL", 
    "DOING_BUSINESS_AS_NAME": "SUNNY MASSAGE, INC.", 
    "POP_AT_RISK": 67020, 
    "ZIP": 60647, 
    "ADDRESS": "2854 W ARMITAGE AVE 1", 
    "YEAR": 2016, 
    "LONGITUDE": -87.699276773, 
    "LATTITUDE": 41.917579005
  }, 
  {
    "BUSINESS_TYPE": "Massage Establishment", 
    "LEGAL_NAME": "MARIA MATERNA", 
    "STATE": "IL", 
    "DOING_BUSINESS_AS_NAME": "THE FRENCH MANICURE", 
    "POP_AT_RISK": 17956, 
    "ZIP": 60646, 
    "ADDRESS": "6434 N CENTRAL AVE", 
    "YEAR": 2016, 
    "LONGITUDE": -87.763579814, 
    "LATTITUDE": 41.998348713
  }, 
  {
    "BUSINESS_TYPE": "Massage Establishment", 
    "LEGAL_NAME": "SEN GUANG CHEN", 
    "STATE": "IL", 
    "DOING_BUSINESS_AS_NAME": "RELAX MASSAGE", 
    "POP_AT_RISK": 35264, 
    "ZIP": 60616, 
    "ADDRESS": "80 E CERMAK RD 1 A", 
    "YEAR": 2016, 
    "LONGITUDE": -87.623895683, 
    "LATTITUDE": 41.852973826
  }, 
  {
    "BUSINESS_TYPE": "Massage Establishment", 
    "LEGAL_NAME": "ESCAPE TO BEAUTY, INC.", 
    "STATE": "IL", 
    "DOING_BUSINESS_AS_NAME": "PAVILION SALON & SPA", 
    "POP_AT_RISK": 13804, 
    "ZIP": 60656, 
    "ADDRESS": "5441 N EAST RIVER RD", 
    "YEAR": 2016, 
    "LONGITUDE": -87.846315578, 
    "LATTITUDE": 41.978307146
  }, 
  {
    "BUSINESS_TYPE": "Massage Establishment", 
    "LEGAL_NAME": "PATRICIA A WALTON", 
    "STATE": "IL", 
    "DOING_BUSINESS_AS_NAME": "WALTONS URBAN RETREAT", 
    "POP_AT_RISK": 35334, 
    "ZIP": 60615, 
    "ADDRESS": "4800 S CHICAGO BEACH DR LOBBY 1000", 
    "YEAR": 2016, 
    "LONGITUDE": -87.586674355, 
    "LATTITUDE": 41.807254393
  }, 
  {
    "BUSINESS_TYPE": "Massage Establishment", 
    "LEGAL_NAME": "SERENITY SPA AND WELLNESS, INC.", 
    "STATE": "IL", 
    "DOING_BUSINESS_AS_NAME": "Serenity Spa and Wellness, Inc.", 
    "POP_AT_RISK": 9128, 
    "ZIP": 60620, 
    "ADDRESS": "9101 S WESTERN AVE  1 & 2", 
    "YEAR": 2016, 
    "LONGITUDE": -87.682139901, 
    "LATTITUDE": 41.728143888
  }, 
  {
    "BUSINESS_TYPE": "Massage Establishment", 
    "LEGAL_NAME": "ANTONELLA FRANGELLA-QUINN", 
    "STATE": "IL", 
    "DOING_BUSINESS_AS_NAME": "FACE TO FACE", 
    "POP_AT_RISK": 25020, 
    "ZIP": 60655, 
    "ADDRESS": "3502 W 111TH ST", 
    "YEAR": 2016, 
    "LONGITUDE": -87.708299802, 
    "LATTITUDE": 41.691553801
  }, 
  {
    "BUSINESS_TYPE": "Massage Establishment", 
    "LEGAL_NAME": "IRENE'S MASSAGE, INC.", 
    "STATE": "IL", 
    "DOING_BUSINESS_AS_NAME": "IRYNA MARTYN", 
    "POP_AT_RISK": 15272, 
    "ZIP": 60631, 
    "ADDRESS": "7132 N HARLEM AVE 1ST 109", 
    "YEAR": 2016, 
    "LONGITUDE": -87.806793803, 
    "LATTITUDE": 42.010861089
  }, 
  {
    "BUSINESS_TYPE": "Massage Establishment", 
    "LEGAL_NAME": "ONLY BY FAITH, INC.", 
    "STATE": "IL", 
    "DOING_BUSINESS_AS_NAME": "ONLY BY FAITH", 
    "POP_AT_RISK": 47805, 
    "ZIP": 60651, 
    "ADDRESS": "5700 W CHICAGO AVE 2", 
    "YEAR": 2016, 
    "LONGITUDE": -87.768008331, 
    "LATTITUDE": 41.89492663
  }, 
  {
    "BUSINESS_TYPE": "Massage Establishment", 
    "LEGAL_NAME": "RELAX CENTER, INC.", 
    "STATE": "IL", 
    "DOING_BUSINESS_AS_NAME": "RELAX CENTER", 
    "POP_AT_RISK": 16758, 
    "ZIP": 60652, 
    "ADDRESS": "7601 S CICERO AVE  5581", 
    "YEAR": 2016, 
    "LONGITUDE": -87.741384759, 
    "LATTITUDE": 41.754660124
  }, 
  {
    "BUSINESS_TYPE": "Massage Establishment", 
    "LEGAL_NAME": "LIFE CENTER ON THE GREEN, INC", 
    "STATE": "IL", 
    "DOING_BUSINESS_AS_NAME": "GALTER LIFE CENTER", 
    "POP_AT_RISK": 66331, 
    "ZIP": 60625, 
    "ADDRESS": "5157 N FRANCISCO AVE", 
    "YEAR": 2016, 
    "LONGITUDE": -87.701202298, 
    "LATTITUDE": 41.975655883
  }, 
  {
    "BUSINESS_TYPE": "Massage Establishment", 
    "LEGAL_NAME": "BLINK TECHNOLOGY CORP.", 
    "STATE": "IL", 
    "DOING_BUSINESS_AS_NAME": "SALON ECHO", 
    "POP_AT_RISK": 71621, 
    "ZIP": 60660, 
    "ADDRESS": "1134 W BRYN MAWR AVE", 
    "YEAR": 2016, 
    "LONGITUDE": -87.659485292, 
    "LATTITUDE": 41.983742497
  }, 
  {
    "BUSINESS_TYPE": "Massage Establishment", 
    "LEGAL_NAME": "J & T MASSAGE SPA, CORP.", 
    "STATE": "IL", 
    "DOING_BUSINESS_AS_NAME": "ROSE MASSAGE SPA", 
    "POP_AT_RISK": 53653, 
    "ZIP": 60632, 
    "ADDRESS": "4006 S ARCHER AVE 1ST", 
    "YEAR": 2016, 
    "LONGITUDE": -87.693173559, 
    "LATTITUDE": 41.821023083
  }, 
  {
    "BUSINESS_TYPE": "Massage Establishment", 
    "LEGAL_NAME": "BOPPERS, INC.", 
    "STATE": "IL", 
    "DOING_BUSINESS_AS_NAME": "TROPICAL SUNSATION", 
    "POP_AT_RISK": 21672, 
    "ZIP": 60655, 
    "ADDRESS": "2557 W 111TH ST", 
    "YEAR": 2016, 
    "LONGITUDE": -87.685708032, 
    "LATTITUDE": 41.691636466
  }, 
  {
    "BUSINESS_TYPE": "Massage Establishment", 
    "LEGAL_NAME": "SUE S. SHIN", 
    "STATE": "IL", 
    "DOING_BUSINESS_AS_NAME": "GUNNISON SPA", 
    "POP_AT_RISK": 33569, 
    "ZIP": 60630, 
    "ADDRESS": "6338 W GUNNISON ST 1", 
    "YEAR": 2016, 
    "LONGITUDE": -87.787096099, 
    "LATTITUDE": 41.968531628
  }, 
  {
    "BUSINESS_TYPE": "Massage Establishment", 
    "LEGAL_NAME": "SUZEN COOK  MASSAGE THERAPY, INC.", 
    "STATE": "IL", 
    "DOING_BUSINESS_AS_NAME": "LUMBAR LOUNGE", 
    "POP_AT_RISK": 43751, 
    "ZIP": 60626, 
    "ADDRESS": "1445 W JARVIS AVE", 
    "YEAR": 2016, 
    "LONGITUDE": -87.667895811, 
    "LATTITUDE": 42.01594471
  }, 
  {
    "BUSINESS_TYPE": "Massage Establishment", 
    "LEGAL_NAME": "BREATHING ROOM LLC", 
    "STATE": "IL", 
    "DOING_BUSINESS_AS_NAME": "BREATHING ROOM", 
    "POP_AT_RISK": 21690, 
    "ZIP": 60631, 
    "ADDRESS": "6565 N AVONDALE AVE 1ST 1", 
    "YEAR": 2016, 
    "LONGITUDE": -87.814906968, 
    "LATTITUDE": 41.999814291
  }, 
  {
    "BUSINESS_TYPE": "Massage Establishment", 
    "LEGAL_NAME": "ROMAN JONKO & ANNA TOKARSKI", 
    "STATE": "IL", 
    "DOING_BUSINESS_AS_NAME": "THE ART OF HEALING", 
    "POP_AT_RISK": 51268, 
    "ZIP": 60634, 
    "ADDRESS": "6052 W IRVING PARK RD 1ST E & W", 
    "YEAR": 2016, 
    "LONGITUDE": -87.778909961, 
    "LATTITUDE": 41.953126676
  }
]