[
  {
    "BUSINESS_TYPE": "Taxicab Two-Way Dispatch Service License", 
    "LEGAL_NAME": "SUN TAXI ASSOCIATION, INC.", 
    "STATE": "IL", 
    "DOING_BUSINESS_AS_NAME": "SUN TAXI ASSOCIATION, INC.", 
    "POP_AT_RISK": 46544, 
    "ZIP": 60641, 
    "ADDRESS": "4626 W CORNELIA AVE", 
    "YEAR": 2009, 
    "LONGITUDE": -87.74351231, 
    "LATTITUDE": 41.944820739
  }, 
  {
    "BUSINESS_TYPE": "Taxicab Two-Way Dispatch Service License", 
    "LEGAL_NAME": "SERVICE TAXI ASSOCIATION INC.", 
    "STATE": "IL", 
    "DOING_BUSINESS_AS_NAME": "SERVICE TAXI ASSOCIATION", 
    "POP_AT_RISK": 53672, 
    "ZIP": 60659, 
    "ADDRESS": "5765 N LINCOLN AVE  22", 
    "YEAR": 2009, 
    "LONGITUDE": -87.700358332, 
    "LATTITUDE": 41.986351983
  }, 
  {
    "BUSINESS_TYPE": "Taxicab Two-Way Dispatch Service License", 
    "LEGAL_NAME": "KING DRIVE CAB AFFILIATION, INC.", 
    "STATE": "IL", 
    "DOING_BUSINESS_AS_NAME": "KING DRIVE CAB AFFILIATION, INC.", 
    "POP_AT_RISK": 42591, 
    "ZIP": 60619, 
    "ADDRESS": "8000 S DR MARTIN LUTHER KING JR DR", 
    "YEAR": 2009, 
    "LONGITUDE": -87.615064531, 
    "LATTITUDE": 41.749197315
  }, 
  {
    "BUSINESS_TYPE": "Taxicab Two-Way Dispatch Service License", 
    "LEGAL_NAME": "GLOBE TAXI ASSOCIATION, INC.", 
    "STATE": "IL", 
    "DOING_BUSINESS_AS_NAME": "GLOBE TAXI ASSOCIATION, INC.", 
    "POP_AT_RISK": 56881, 
    "ZIP": 60630, 
    "ADDRESS": "4118 W LAWRENCE AVE", 
    "YEAR": 2009, 
    "LONGITUDE": -87.73126904, 
    "LATTITUDE": 41.968314347
  }, 
  {
    "BUSINESS_TYPE": "Taxicab Two-Way Dispatch Service License", 
    "LEGAL_NAME": "KOAM TAXI ASSOCIATION INC.", 
    "STATE": "IL", 
    "DOING_BUSINESS_AS_NAME": "KOAM TAXI ASSOCIATION INC", 
    "POP_AT_RISK": 73420, 
    "ZIP": 60660, 
    "ADDRESS": "6330 N CLARK ST", 
    "YEAR": 2009, 
    "LONGITUDE": -87.670531006, 
    "LATTITUDE": 41.997300917
  }
]