[
  {
    "BUSINESS_TYPE": "Food - Shared Kitchen Short-Term User", 
    "LEGAL_NAME": "GREEN LIGHT MOVEMENT", 
    "STATE": "IL", 
    "DOING_BUSINESS_AS_NAME": "GREEN LIGHT MOVEMENT", 
    "POP_AT_RISK": 32156, 
    "ZIP": 60619, 
    "ADDRESS": "7441 S INDIANA AVE 1ST", 
    "YEAR": 2011, 
    "LONGITUDE": -87.619791156, 
    "LATTITUDE": 41.758922833
  }, 
  {
    "BUSINESS_TYPE": "Food - Shared Kitchen Short-Term User", 
    "LEGAL_NAME": "STEPHANIE ELISE LOCK", 
    "STATE": "IL", 
    "DOING_BUSINESS_AS_NAME": "RUSTIC TART", 
    "POP_AT_RISK": 66012, 
    "ZIP": 60657, 
    "ADDRESS": "3150 N LAKE SHORE DR 29 29A", 
    "YEAR": 2011, 
    "LONGITUDE": -87.638159916, 
    "LATTITUDE": 41.938952908
  }, 
  {
    "BUSINESS_TYPE": "Food - Shared Kitchen Short-Term User", 
    "LEGAL_NAME": "BG CONSORTIUM LLC", 
    "STATE": "IL", 
    "DOING_BUSINESS_AS_NAME": "'LAINE'S BAKE SHOP", 
    "POP_AT_RISK": 28277, 
    "ZIP": 60653, 
    "ADDRESS": "3862 S LAKE PARK AVE  3N", 
    "YEAR": 2011, 
    "LONGITUDE": -87.604228997, 
    "LATTITUDE": 41.825263515
  }, 
  {
    "BUSINESS_TYPE": "Food - Shared Kitchen Short-Term User", 
    "LEGAL_NAME": "BRIDGET CLARIE BODE", 
    "STATE": "IL", 
    "DOING_BUSINESS_AS_NAME": "MMM COOKIE", 
    "POP_AT_RISK": 73163, 
    "ZIP": 60647, 
    "ADDRESS": "1644 N KEDZIE AVE 2ND 2", 
    "YEAR": 2011, 
    "LONGITUDE": -87.706933783, 
    "LATTITUDE": 41.911444999
  }, 
  {
    "BUSINESS_TYPE": "Food - Shared Kitchen Short-Term User", 
    "LEGAL_NAME": "MULROE COMPANY, LLC", 
    "STATE": "IL", 
    "DOING_BUSINESS_AS_NAME": "MULROE COMPANY", 
    "POP_AT_RISK": 11341, 
    "ZIP": 60631, 
    "ADDRESS": "7136 N OLCOTT AVE", 
    "YEAR": 2011, 
    "LONGITUDE": -87.813778138, 
    "LATTITUDE": 42.010820091
  }
]