{
{"STATE":"IL","ZIP":60628,"LATTITUDE":41.69759720559696,"ADDRESS":"10815 S MICHIGAN AVE  1ST F","YEAR":2008,"DOING_BUSINESS_AS_NAME":"MY FRIEND'S PLACE","POP_AT_RISK":299817,"BUSINESS_TYPE":"Tobacco Vending, Individual","LEGAL_NAME":"JOYCE CRYER","LONGITUDE":-87.62071089147835},
{"STATE":"IL","ZIP":60657,"LATTITUDE":41.942470929736956,"ADDRESS":"3320 N HALSTED ST 1 ","YEAR":2008,"DOING_BUSINESS_AS_NAME":"SCARLET BAR","POP_AT_RISK":269109,"BUSINESS_TYPE":"Tobacco Vending, Individual","LEGAL_NAME":"O SPOT, INC.","LONGITUDE":-87.64949678051296},
{"STATE":"IL","ZIP":60645,"LATTITUDE":42.016961012809865,"ADDRESS":"7436 N WESTERN AVE 1ST ","YEAR":2008,"DOING_BUSINESS_AS_NAME":"MARK II LTD","POP_AT_RISK":448515,"BUSINESS_TYPE":"Tobacco Vending, Individual","LEGAL_NAME":"MARK II, LTD.","LONGITUDE":-87.69034725403856},
{"STATE":"IL","ZIP":60626,"LATTITUDE":42.005871902451084,"ADDRESS":"6809-6813 N SHERIDAN RD 1ST ","YEAR":2008,"DOING_BUSINESS_AS_NAME":"OASIS, THE","POP_AT_RISK":795483,"BUSINESS_TYPE":"Tobacco Vending, Individual","LEGAL_NAME":"PRATTFALL INC","LONGITUDE":-87.66085202755195},
{"STATE":"IL","ZIP":60618,"LATTITUDE":41.95731096114492,"ADDRESS":"4156 N ST LOUIS AVE  ","YEAR":2008,"DOING_BUSINESS_AS_NAME":"T & A TOO INC","POP_AT_RISK":357535,"BUSINESS_TYPE":"Tobacco Vending, Individual","LEGAL_NAME":"T & A TOO INC","LONGITUDE":-87.7156179066361},
{"STATE":"IL","ZIP":60647,"LATTITUDE":41.91531012151821,"ADDRESS":"1850 N DAMEN AVE 1ST ","YEAR":2008,"DOING_BUSINESS_AS_NAME":"LEMMINGS","POP_AT_RISK":459048,"BUSINESS_TYPE":"Tobacco Vending, Individual","LEGAL_NAME":"1850 DAMEN INC","LONGITUDE":-87.67771343094232},
{"STATE":"IL","ZIP":60632,"LATTITUDE":41.79800597428108,"ADDRESS":"5221 S CICERO AVE  ","YEAR":2008,"DOING_BUSINESS_AS_NAME":"SUNSET INN,INC","POP_AT_RISK":145840,"BUSINESS_TYPE":"Tobacco Vending, Individual","LEGAL_NAME":"SUNSET INN,INC","LONGITUDE":-87.7427569288057},
{"STATE":"IL","ZIP":60623,"LATTITUDE":41.840922809543144,"ADDRESS":"2758 S SPAULDING AVE  ","YEAR":2008,"DOING_BUSINESS_AS_NAME":"CARMENS PLACE","POP_AT_RISK":301120,"BUSINESS_TYPE":"Tobacco Vending, Individual","LEGAL_NAME":"VILLAGRANA INC","LONGITUDE":-87.707517430604},
{"STATE":"IL","ZIP":60630,"LATTITUDE":41.97032186228699,"ADDRESS":"4906-4908 N PULASKI RD  ","YEAR":2008,"DOING_BUSINESS_AS_NAME":"GAMBLERS","POP_AT_RISK":126406,"BUSINESS_TYPE":"Tobacco Vending, Individual","LEGAL_NAME":"GAMBLERS I, INC.","LONGITUDE":-87.72823518111367},
{"STATE":"IL","ZIP":60618,"LATTITUDE":41.94052991892226,"ADDRESS":"3256 N ELSTON AVE 1ST #","YEAR":2008,"DOING_BUSINESS_AS_NAME":"NELLY'S SALOON, INC.","POP_AT_RISK":288680,"BUSINESS_TYPE":"Tobacco Vending, Individual","LEGAL_NAME":"IOANA BARBULESLU","LONGITUDE":-87.70019492573454},
{"STATE":"IL","ZIP":60640,"LATTITUDE":41.96700507358272,"ADDRESS":"4659 N CLARK ST 1ST ","YEAR":2008,"DOING_BUSINESS_AS_NAME":"CAROL'S PUB INC","POP_AT_RISK":870396,"BUSINESS_TYPE":"Tobacco Vending, Individual","LEGAL_NAME":"CAROL'S PUB, INC.","LONGITUDE":-87.66695423206848},
{"STATE":"IL","ZIP":60608,"LATTITUDE":41.83476431410133,"ADDRESS":"3243 S PAULINA ST  ","YEAR":2008,"DOING_BUSINESS_AS_NAME":"HARRY'S TAP","POP_AT_RISK":285300,"BUSINESS_TYPE":"Tobacco Vending, Individual","LEGAL_NAME":"3243 S PAULINA INC","LONGITUDE":-87.66790838011202},
{"STATE":"IL","ZIP":60630,"LATTITUDE":41.96246973487343,"ADDRESS":"4500 N ELSTON AVE 1ST ","YEAR":2008,"DOING_BUSINESS_AS_NAME":"O'DONNELLS","POP_AT_RISK":54619,"BUSINESS_TYPE":"Tobacco Vending, Individual","LEGAL_NAME":"D. O'D CORPORATION","LONGITUDE":-87.73215028038183},
{"STATE":"IL","ZIP":60655,"LATTITUDE":41.69183626604223,"ADDRESS":"11050 S SPAULDING AVE 1ST ","YEAR":2008,"DOING_BUSINESS_AS_NAME":"Blackthorn","POP_AT_RISK":84012,"BUSINESS_TYPE":"Tobacco Vending, Individual","LEGAL_NAME":"ERIK THE RED, INC.","LONGITUDE":-87.70352239364296},
{"STATE":"IL","ZIP":60643,"LATTITUDE":41.70486871150318,"ADDRESS":"10350 S WESTERN AVE  ","YEAR":2008,"DOING_BUSINESS_AS_NAME":"BREWBAKERS","POP_AT_RISK":221792,"BUSINESS_TYPE":"Tobacco Vending, Individual","LEGAL_NAME":"GORDON LOUNGE, INC","LONGITUDE":-87.68171958749872},
{"STATE":"IL","ZIP":60649,"LATTITUDE":41.751863533921544,"ADDRESS":"2442 E 79TH ST 1ST ","YEAR":2008,"DOING_BUSINESS_AS_NAME":"LEISURE LIFE LOUNGE","POP_AT_RISK":298152,"BUSINESS_TYPE":"Tobacco Vending, Individual","LEGAL_NAME":"SHEILA D. THOMPSON","LONGITUDE":-87.56454224278873},
{"STATE":"IL","ZIP":60617,"LATTITUDE":41.72672309390813,"ADDRESS":"9273 S SOUTH CHICAGO AVE  ","YEAR":2008,"DOING_BUSINESS_AS_NAME":"ROMA'S REST","POP_AT_RISK":152831,"BUSINESS_TYPE":"Tobacco Vending, Individual","LEGAL_NAME":"PALIATSOS & SON CO.","LONGITUDE":-87.55094326211272},
{"STATE":"IL","ZIP":60629,"LATTITUDE":41.78654849218397,"ADDRESS":"2710 W 59TH ST 1 ","YEAR":2008,"DOING_BUSINESS_AS_NAME":"EL FOCO ROJO","POP_AT_RISK":766260,"BUSINESS_TYPE":"Tobacco Vending, Individual","LEGAL_NAME":"REGGIES LOUNGE LTD.","LONGITUDE":-87.69167741710028},
{"STATE":"IL","ZIP":60605,"LATTITUDE":41.87305557644521,"ADDRESS":"701 S STATE ST  ","YEAR":2008,"DOING_BUSINESS_AS_NAME":"SOUTH LOOP CLUB INC","POP_AT_RISK":128394,"BUSINESS_TYPE":"Tobacco Vending, Individual","LEGAL_NAME":"SOUTH LOOP CLUB INC","LONGITUDE":-87.62741781254495},
{"STATE":"IL","ZIP":60657,"LATTITUDE":41.93972219199107,"ADDRESS":"3159 N SOUTHPORT AVE  1","YEAR":2008,"DOING_BUSINESS_AS_NAME":"SCHUBAS TAVERN\/HARMONY GRILL","POP_AT_RISK":893002,"BUSINESS_TYPE":"Tobacco Vending, Individual","LEGAL_NAME":"SOUTHMONT CORPORATION","LONGITUDE":-87.66367244899654},
{"STATE":"IL","ZIP":60647,"LATTITUDE":41.920921282115486,"ADDRESS":"2210 N MILWAUKEE AVE 1ST ","YEAR":2008,"DOING_BUSINESS_AS_NAME":"EL NUEVO NARANJO LOUNGE","POP_AT_RISK":167454,"BUSINESS_TYPE":"Tobacco Vending, Individual","LEGAL_NAME":"EL NUEVO NARANJO, INC.","LONGITUDE":-87.69434880817748},
{"STATE":"IL","ZIP":60640,"LATTITUDE":41.978291592499495,"ADDRESS":"1064 W BERWYN AVE  ","YEAR":2008,"DOING_BUSINESS_AS_NAME":"OLLIES","POP_AT_RISK":704520,"BUSINESS_TYPE":"Tobacco Vending, Individual","LEGAL_NAME":"BURTONS TAP & GRILL INC","LONGITUDE":-87.65764127563683},
{"STATE":"IL","ZIP":60630,"LATTITUDE":41.96864190649567,"ADDRESS":"6000 W GUNNISON ST  ","YEAR":2008,"DOING_BUSINESS_AS_NAME":"CHARLOTTE'S BAR AND GRILL","POP_AT_RISK":440020,"BUSINESS_TYPE":"Tobacco Vending, Individual","LEGAL_NAME":"CRYSTAL RESTAURANT, INC.","LONGITUDE":-87.77830163616822},
{"STATE":"IL","ZIP":60647,"LATTITUDE":41.927250990177676,"ADDRESS":"2521 N MILWAUKEE AVE 1ST ","YEAR":2008,"DOING_BUSINESS_AS_NAME":"THE OWL BAR","POP_AT_RISK":330715,"BUSINESS_TYPE":"Tobacco Vending, Individual","LEGAL_NAME":"COLON AND BRUNO CORPORATION","LONGITUDE":-87.7042033510881},
{"STATE":"IL","ZIP":60610,"LATTITUDE":41.892290858543895,"ADDRESS":"151 W OHIO ST LL ","YEAR":2008,"DOING_BUSINESS_AS_NAME":"RUBY","POP_AT_RISK":72484,"BUSINESS_TYPE":"Tobacco Vending, Individual","LEGAL_NAME":"MCDUFFY'S ENTERPRISES, INC.","LONGITUDE":-87.63312249045453},
{"STATE":"IL","ZIP":60632,"LATTITUDE":41.80577977439837,"ADDRESS":"4807-4809 S PULASKI RD 1ST ","YEAR":2008,"DOING_BUSINESS_AS_NAME":"BLUE SKY RESTAURANT","POP_AT_RISK":190422,"BUSINESS_TYPE":"Tobacco Vending, Individual","LEGAL_NAME":"GENE & SOPHIE'S LOUNGE, INC.","LONGITUDE":-87.72337496234026},
{"STATE":"IL","ZIP":60641,"LATTITUDE":41.94587969801943,"ADDRESS":"5223 W ADDISON ST  1","YEAR":2008,"DOING_BUSINESS_AS_NAME":"TED'S & MIKE'S LIQUOR INC","POP_AT_RISK":222505,"BUSINESS_TYPE":"Tobacco Vending, Individual","LEGAL_NAME":"TED'S & MIKE'S LIQUORS, INC.","LONGITUDE":-87.75787930696465},
{"STATE":"IL","ZIP":60639,"LATTITUDE":41.931374091845875,"ADDRESS":"5616 W DIVERSEY AVE # 1ST","YEAR":2008,"DOING_BUSINESS_AS_NAME":"JEDYNKA","POP_AT_RISK":576972,"BUSINESS_TYPE":"Tobacco Vending, Individual","LEGAL_NAME":"PETER'S ONE TWO THREE LOUNGE I","LONGITUDE":-87.76703855660186},
{"STATE":"IL","ZIP":60661,"LATTITUDE":41.878172571606136,"ADDRESS":"233 S HALSTED ST  ","YEAR":2008,"DOING_BUSINESS_AS_NAME":"SPECTRUM SPORTS BAR & GRILL","POP_AT_RISK":210295,"BUSINESS_TYPE":"Tobacco Vending, Individual","LEGAL_NAME":"SPECTRUM SPORTS BAR & GRILL, INC.","LONGITUDE":-87.64709973557522},
}