[
  {
    "BUSINESS_TYPE": "Animal Exhibition", 
    "LEGAL_NAME": "SCALES TO TAILS, INC.", 
    "STATE": "IL", 
    "DOING_BUSINESS_AS_NAME": "AMAZING ANIMALS BY SAMANTHA", 
    "POP_AT_RISK": 53400, 
    "ZIP": 60641, 
    "ADDRESS": "3555 N MILWAUKEE AVE  FRONT", 
    "YEAR": 2010, 
    "LONGITUDE": -87.733942132, 
    "LATTITUDE": 41.945385824
  }, 
  {
    "BUSINESS_TYPE": "Animal Exhibition", 
    "LEGAL_NAME": "SHEDD AQUARIUM SOCIETY", 
    "STATE": "IL", 
    "DOING_BUSINESS_AS_NAME": "SHEDD AQUARIUM SOCIETY", 
    "POP_AT_RISK": 34626, 
    "ZIP": 60605, 
    "ADDRESS": "1200 S LAKE SHORE DR  LEVEL", 
    "YEAR": 2010, 
    "LONGITUDE": -87.619150383, 
    "LATTITUDE": 41.867484227
  }, 
  {
    "BUSINESS_TYPE": "Animal Exhibition", 
    "LEGAL_NAME": "BETH BISHOP", 
    "STATE": "IL", 
    "DOING_BUSINESS_AS_NAME": "SCALES & TALES", 
    "POP_AT_RISK": 51581, 
    "ZIP": 60608, 
    "ADDRESS": "1804 S RACINE AVE", 
    "YEAR": 2010, 
    "LONGITUDE": -87.656569988, 
    "LATTITUDE": 41.857771196
  }, 
  {
    "BUSINESS_TYPE": "Animal Exhibition", 
    "LEGAL_NAME": "SOUL CIRCUS, INC.", 
    "STATE": "IL", 
    "DOING_BUSINESS_AS_NAME": "SOUL CIRCUS, INC.", 
    "POP_AT_RISK": 30880, 
    "ZIP": 60637, 
    "ADDRESS": "5531 S DR MARTIN LUTHER KING JR DR  WASHI", 
    "YEAR": 2010, 
    "LONGITUDE": -87.615803055, 
    "LATTITUDE": 41.793533064
  }, 
  {
    "BUSINESS_TYPE": "Animal Exhibition", 
    "LEGAL_NAME": "THE COLUMBUS ZOO AND AQUARIUM", 
    "STATE": "IL", 
    "DOING_BUSINESS_AS_NAME": "THE COLUMBUS ZOO AND AQUARIUM", 
    "POP_AT_RISK": 67409, 
    "ZIP": 60610, 
    "ADDRESS": "60 W WALTON ST 1", 
    "YEAR": 2010, 
    "LONGITUDE": -87.630553398, 
    "LATTITUDE": 41.89990829
  }, 
  {
    "BUSINESS_TYPE": "Animal Exhibition", 
    "LEGAL_NAME": "AL G. KELLY-MILLER BROS. CIRCUS LTD.", 
    "STATE": "IL", 
    "DOING_BUSINESS_AS_NAME": "KELLY-MILLER BROTHERS CIRCUS", 
    "POP_AT_RISK": 20824, 
    "ZIP": 60631, 
    "ADDRESS": "5900 N NINA AVE", 
    "YEAR": 2010, 
    "LONGITUDE": -87.802992071, 
    "LATTITUDE": 41.988181358
  }, 
  {
    "BUSINESS_TYPE": "Animal Exhibition", 
    "LEGAL_NAME": "ED AND ANNETTES MONKEYS & MORE", 
    "STATE": "IL", 
    "DOING_BUSINESS_AS_NAME": "MONKEYS AND MORE EXOTIC ANIMAL RESCUE", 
    "POP_AT_RISK": 27802, 
    "ZIP": 60632, 
    "ADDRESS": "4301 W 47TH ST", 
    "YEAR": 2010, 
    "LONGITUDE": -87.731136148, 
    "LATTITUDE": 41.807666255
  }, 
  {
    "BUSINESS_TYPE": "Animal Exhibition", 
    "LEGAL_NAME": "ANIMAL RENTALS INC", 
    "STATE": "IL", 
    "DOING_BUSINESS_AS_NAME": "ANIMAL RENTALS INC", 
    "POP_AT_RISK": 54617, 
    "ZIP": 60639, 
    "ADDRESS": "5742 W GRAND AVE # 1ST", 
    "YEAR": 2010, 
    "LONGITUDE": -87.769814634, 
    "LATTITUDE": 41.919607411
  }, 
  {
    "BUSINESS_TYPE": "Animal Exhibition", 
    "LEGAL_NAME": "FELD ENTERTAINMENT, INC.", 
    "STATE": "IL", 
    "DOING_BUSINESS_AS_NAME": "RINGLING BROS. - BARNUM & BAILEY", 
    "POP_AT_RISK": 38652, 
    "ZIP": 60612, 
    "ADDRESS": "1901 W MADISON ST", 
    "YEAR": 2010, 
    "LONGITUDE": -87.674282534, 
    "LATTITUDE": 41.881241457
  }
]