[
  {
    "BUSINESS_TYPE": "Affiliation", 
    "LEGAL_NAME": "KING DRIVE CAB AFFILIATION, INC.", 
    "STATE": "IL", 
    "DOING_BUSINESS_AS_NAME": "KING DRIVE CAB AFFILIATION, INC.", 
    "POP_AT_RISK": 42591, 
    "ZIP": 60619, 
    "ADDRESS": "8000 S DR MARTIN LUTHER KING JR DR", 
    "YEAR": 2014, 
    "LONGITUDE": -87.615064531, 
    "LATTITUDE": 41.749197315
  }, 
  {
    "BUSINESS_TYPE": "Affiliation", 
    "LEGAL_NAME": "E-CAB TAXI AFFILIATION, INC.", 
    "STATE": "IL", 
    "DOING_BUSINESS_AS_NAME": "ACE CAB", 
    "POP_AT_RISK": 35899, 
    "ZIP": 60612, 
    "ADDRESS": "2738 W FULTON ST", 
    "YEAR": 2014, 
    "LONGITUDE": -87.695438702, 
    "LATTITUDE": 41.886658173
  }, 
  {
    "BUSINESS_TYPE": "Affiliation", 
    "LEGAL_NAME": "CHOICE TAXI ASSOCIATION, INC.", 
    "STATE": "IL", 
    "DOING_BUSINESS_AS_NAME": "Choice Taxi Association Inc.", 
    "POP_AT_RISK": 61300, 
    "ZIP": 60626, 
    "ADDRESS": "6550 N CLARK ST", 
    "YEAR": 2014, 
    "LONGITUDE": -87.671897761, 
    "LATTITUDE": 42.001384896
  }, 
  {
    "BUSINESS_TYPE": "Affiliation", 
    "LEGAL_NAME": "GOLD COAST TAXI ASSOCIATION LLC", 
    "STATE": "IL", 
    "DOING_BUSINESS_AS_NAME": "GOLD COAST TAXI ASSOCIATION LLC", 
    "POP_AT_RISK": 66513, 
    "ZIP": 60640, 
    "ADDRESS": "4542 N BROADWAY", 
    "YEAR": 2014, 
    "LONGITUDE": -87.657228721, 
    "LATTITUDE": 41.964760948
  }, 
  {
    "BUSINESS_TYPE": "Affiliation", 
    "LEGAL_NAME": "SUN TAXI ASSOCIATION, INC.", 
    "STATE": "IL", 
    "DOING_BUSINESS_AS_NAME": "SUN TAXI ASSOCIATION, INC.", 
    "POP_AT_RISK": 46544, 
    "ZIP": 60641, 
    "ADDRESS": "4626 W CORNELIA AVE", 
    "YEAR": 2014, 
    "LONGITUDE": -87.74351231, 
    "LATTITUDE": 41.944820739
  }, 
  {
    "BUSINESS_TYPE": "Affiliation", 
    "LEGAL_NAME": "GLOBE TAXI ASSOCIATION, INC.", 
    "STATE": "IL", 
    "DOING_BUSINESS_AS_NAME": "GLOBE TAXI ASSOCIATION, INC.", 
    "POP_AT_RISK": 56881, 
    "ZIP": 60630, 
    "ADDRESS": "4118 W LAWRENCE AVE", 
    "YEAR": 2014, 
    "LONGITUDE": -87.73126904, 
    "LATTITUDE": 41.968314347
  }, 
  {
    "BUSINESS_TYPE": "Affiliation", 
    "LEGAL_NAME": "24 SEVEN TAXI ASSN., INC", 
    "STATE": "IL", 
    "DOING_BUSINESS_AS_NAME": "24 SEVEN TAXI AFFILIATION", 
    "POP_AT_RISK": 67106, 
    "ZIP": 60640, 
    "ADDRESS": "5416 N BROADWAY  1", 
    "YEAR": 2014, 
    "LONGITUDE": -87.660130507, 
    "LATTITUDE": 41.980513858
  }, 
  {
    "BUSINESS_TYPE": "Affiliation", 
    "LEGAL_NAME": "SERVICE TAXI ASSOCIATION INC.", 
    "STATE": "IL", 
    "DOING_BUSINESS_AS_NAME": "SERVICE TAXI ASSOCIATION", 
    "POP_AT_RISK": 53672, 
    "ZIP": 60659, 
    "ADDRESS": "5765 N LINCOLN AVE  22", 
    "YEAR": 2014, 
    "LONGITUDE": -87.700358332, 
    "LATTITUDE": 41.986351983
  }
]