{
{"STATE":"IL","ZIP":60621,"LATTITUDE":41.77885417721719,"ADDRESS":"6331 S LOWE AVE  ","YEAR":2013,"DOING_BUSINESS_AS_NAME":"TASTE DISCO & STEAK HOUSE","POP_AT_RISK":360030,"BUSINESS_TYPE":"Public Place of Amusement","LEGAL_NAME":"TASTE INC","LONGITUDE":-87.64069495645147},
{"STATE":"IL","ZIP":60609,"LATTITUDE":41.822954294113735,"ADDRESS":"3900-3906 S WESTERN AVE 1 ","YEAR":2013,"DOING_BUSINESS_AS_NAME":"INFERNO C","POP_AT_RISK":45493,"BUSINESS_TYPE":"Public Place of Amusement","LEGAL_NAME":"CLAFEL, INC.","LONGITUDE":-87.68501298600604},
{"STATE":"IL","ZIP":60619,"LATTITUDE":41.7259581808161,"ADDRESS":"1200 E 93RD ST 1ST ","YEAR":2013,"DOING_BUSINESS_AS_NAME":"WOODLAWN GARDENS","POP_AT_RISK":32542,"BUSINESS_TYPE":"Public Place of Amusement","LEGAL_NAME":"HARRIET WATT","LONGITUDE":-87.59481759727105},
{"STATE":"IL","ZIP":60659,"LATTITUDE":41.997133350542754,"ADDRESS":"3939 W DEVON AVE 1ST ","YEAR":2013,"DOING_BUSINESS_AS_NAME":"MONASTERO'S RISTORANTE","POP_AT_RISK":80056,"BUSINESS_TYPE":"Public Place of Amusement","LEGAL_NAME":"LA CANOPY INC","LONGITUDE":-87.72785031804918},
{"STATE":"IL","ZIP":60645,"LATTITUDE":42.016961012809865,"ADDRESS":"7436-7442 N WESTERN AVE 1ST ","YEAR":2013,"DOING_BUSINESS_AS_NAME":"MARK II, LTD","POP_AT_RISK":149505,"BUSINESS_TYPE":"Public Place of Amusement","LEGAL_NAME":"MARK II, LTD.","LONGITUDE":-87.69034725403856},
{"STATE":"IL","ZIP":60633,"LATTITUDE":41.64818877792674,"ADDRESS":"13601 S CALHOUN AVE 1 ","YEAR":2013,"DOING_BUSINESS_AS_NAME":"PAPICHULO","POP_AT_RISK":2798,"BUSINESS_TYPE":"Public Place of Amusement","LEGAL_NAME":"PAPICHULO, LLC","LONGITUDE":-87.56157337119949},
{"STATE":"IL","ZIP":60623,"LATTITUDE":41.844319676878946,"ADDRESS":"4078 W 26TH ST  ","YEAR":2013,"DOING_BUSINESS_AS_NAME":"LUCKY GREEN POOL HALL","POP_AT_RISK":49934,"BUSINESS_TYPE":"Public Place of Amusement","LEGAL_NAME":"RITA JO GARCIA","LONGITUDE":-87.72775492142739},
{"STATE":"IL","ZIP":60609,"LATTITUDE":41.81432611672509,"ADDRESS":"4403 S WALLACE ST 1ST ","YEAR":2013,"DOING_BUSINESS_AS_NAME":"KELLY'S TAVERN","POP_AT_RISK":37658,"BUSINESS_TYPE":"Public Place of Amusement","LEGAL_NAME":"BILL BABS, INC.","LONGITUDE":-87.64066843784394},
{"STATE":"IL","ZIP":60655,"LATTITUDE":41.691406189233774,"ADDRESS":"3908 W 111TH ST  1","YEAR":2013,"DOING_BUSINESS_AS_NAME":"T R'S PUB","POP_AT_RISK":78644,"BUSINESS_TYPE":"Public Place of Amusement","LEGAL_NAME":"LEANN-CAOL CORP","LONGITUDE":-87.71830607808162},
{"STATE":"IL","ZIP":60631,"LATTITUDE":41.98118072487806,"ADDRESS":"8500 W BRYN MAWR AVE  ","YEAR":2013,"DOING_BUSINESS_AS_NAME":"RENAISSANCE CHICAGO O'HARE HOTEL AS OF 7\/25\/2013 Paying under account 381630","POP_AT_RISK":21169,"BUSINESS_TYPE":"Public Place of Amusement","LEGAL_NAME":"RCO Hotel, Inc.","LONGITUDE":-87.83916755770461},
{"STATE":"IL","ZIP":60632,"LATTITUDE":41.796369658416275,"ADDRESS":"5315-5317 S PULASKI RD 1ST ","YEAR":2013,"DOING_BUSINESS_AS_NAME":"TAQUERIA EL TENAMPA","POP_AT_RISK":39186,"BUSINESS_TYPE":"Public Place of Amusement","LEGAL_NAME":"RODGA S.A. INC.","LONGITUDE":-87.7231036884829},
{"STATE":"IL","ZIP":60609,"LATTITUDE":41.81135198728592,"ADDRESS":"4529-4531 S ASHLAND AVE  1ST","YEAR":2013,"DOING_BUSINESS_AS_NAME":"MEXICO POOL HALL","POP_AT_RISK":239820,"BUSINESS_TYPE":"Public Place of Amusement","LEGAL_NAME":"ANTONIO RODIGUEZ","LONGITUDE":-87.66489602696268},
{"STATE":"IL","ZIP":60634,"LATTITUDE":41.95248836107066,"ADDRESS":"7455 W IRVING PARK RD  ","YEAR":2013,"DOING_BUSINESS_AS_NAME":"BIJE'S","POP_AT_RISK":61786,"BUSINESS_TYPE":"Public Place of Amusement","LEGAL_NAME":"BIJE'S, LIMITED.","LONGITUDE":-87.81440271000294},
{"STATE":"IL","ZIP":60638,"LATTITUDE":41.77784067500845,"ADDRESS":"6250 W 63RD ST 1ST ","YEAR":2013,"DOING_BUSINESS_AS_NAME":"NEW WARSAW RESTAURANT","POP_AT_RISK":110496,"BUSINESS_TYPE":"Public Place of Amusement","LEGAL_NAME":"CHEF'S INN, LTD.","LONGITUDE":-87.77842839051569},
{"STATE":"IL","ZIP":60643,"LATTITUDE":41.68489908536175,"ADDRESS":"1640 W 115TH ST 1 ","YEAR":2013,"DOING_BUSINESS_AS_NAME":"BLACK CAT LOUNGE","POP_AT_RISK":46974,"BUSINESS_TYPE":"Public Place of Amusement","LEGAL_NAME":"TAVERN ONE, INC.","LONGITUDE":-87.66335206643785},
{"STATE":"IL","ZIP":60638,"LATTITUDE":41.7947531566514,"ADDRESS":"6072 S ARCHER AVE  GROUN","YEAR":2013,"DOING_BUSINESS_AS_NAME":"THE MAYFIELD  INC","POP_AT_RISK":24391,"BUSINESS_TYPE":"Public Place of Amusement","LEGAL_NAME":"THE MAYFIELD INC","LONGITUDE":-87.76937662292175},
{"STATE":"IL","ZIP":60637,"LATTITUDE":41.77891251190159,"ADDRESS":"6351-6359 S COTTAGE GROVE AVE  ","YEAR":2013,"DOING_BUSINESS_AS_NAME":"THE BALLROOM","POP_AT_RISK":36103,"BUSINESS_TYPE":"Public Place of Amusement","LEGAL_NAME":"THE BALLROOM, LLC","LONGITUDE":-87.60575071895529},
{"STATE":"IL","ZIP":60620,"LATTITUDE":41.736217960782156,"ADDRESS":"210 W 87TH ST 1 ","YEAR":2013,"DOING_BUSINESS_AS_NAME":"DFL MANAGEMENT LLC","POP_AT_RISK":160769,"BUSINESS_TYPE":"Public Place of Amusement","LEGAL_NAME":"DFL MANAGEMENT LLC","LONGITUDE":-87.62931043653778},
{"STATE":"IL","ZIP":60623,"LATTITUDE":41.836913225394206,"ADDRESS":"4254 W 31ST ST  ","YEAR":2013,"DOING_BUSINESS_AS_NAME":"HOME RUN INN","POP_AT_RISK":38049,"BUSINESS_TYPE":"Public Place of Amusement","LEGAL_NAME":"HOME RUN INN, INC.","LONGITUDE":-87.73141129560165},
{"STATE":"IL","ZIP":60624,"LATTITUDE":41.880877207827346,"ADDRESS":"3840 W MADISON ST 1 ","YEAR":2013,"DOING_BUSINESS_AS_NAME":"JE'NIA","POP_AT_RISK":186745,"BUSINESS_TYPE":"Public Place of Amusement","LEGAL_NAME":"JE'NIA CORPORATION","LONGITUDE":-87.72233099647727},
{"STATE":"IL","ZIP":60629,"LATTITUDE":41.76982954323323,"ADDRESS":"6750 S PULASKI RD  ","YEAR":2013,"DOING_BUSINESS_AS_NAME":"LAWN BOWLING","POP_AT_RISK":284235,"BUSINESS_TYPE":"Public Place of Amusement","LEGAL_NAME":"LAWN BOWLING, INC.","LONGITUDE":-87.72268098507774},
{"STATE":"IL","ZIP":60651,"LATTITUDE":41.90840198981698,"ADDRESS":"1508 N PULASKI RD  ","YEAR":2013,"DOING_BUSINESS_AS_NAME":"NORFORD HOTEL INC SRO","POP_AT_RISK":131236,"BUSINESS_TYPE":"Public Place of Amusement","LEGAL_NAME":"NORFORD HOTEL, INC","LONGITUDE":-87.72661887512912},
{"STATE":"IL","ZIP":60643,"LATTITUDE":41.683532137968754,"ADDRESS":"11532 S WESTERN AVE 1ST ","YEAR":2013,"DOING_BUSINESS_AS_NAME":"BEVERLY WOODS RESTAURANT","POP_AT_RISK":29404,"BUSINESS_TYPE":"Public Place of Amusement","LEGAL_NAME":"BOWLER-MCGANN CORP.","LONGITUDE":-87.68104527469114},
{"STATE":"IL","ZIP":60630,"LATTITUDE":41.97566222712531,"ADDRESS":"5242 -5250 N NORTHWEST HWY 1ST ","YEAR":2013,"DOING_BUSINESS_AS_NAME":"HABETLER BOWL INC","POP_AT_RISK":101268,"BUSINESS_TYPE":"Public Place of Amusement","LEGAL_NAME":"HABETLER BOWL, INC.","LONGITUDE":-87.76952928845782},
{"STATE":"IL","ZIP":60628,"LATTITUDE":41.67489441998742,"ADDRESS":"12050-12054 S DOTY AVE  ","YEAR":2013,"DOING_BUSINESS_AS_NAME":"THE FACTORY A GENTLEMEN'S CLUB","POP_AT_RISK":26061,"BUSINESS_TYPE":"Public Place of Amusement","LEGAL_NAME":"THE GOATEE GROUP LP","LONGITUDE":-87.60172305228825},
{"STATE":"IL","ZIP":60617,"LATTITUDE":41.71488533977168,"ADDRESS":"9915-9939 S TORRENCE AVE 1ST ","YEAR":2013,"DOING_BUSINESS_AS_NAME":"SKYWAY BOWL","POP_AT_RISK":45246,"BUSINESS_TYPE":"Public Place of Amusement","LEGAL_NAME":"THE SIX GRANDS, CO.","LONGITUDE":-87.55962172308115},
{"STATE":"IL","ZIP":60628,"LATTITUDE":41.66920524810207,"ADDRESS":"12345 S HALSTED ST  ","YEAR":2013,"DOING_BUSINESS_AS_NAME":"HALSTED BOWL","POP_AT_RISK":185922,"BUSINESS_TYPE":"Public Place of Amusement","LEGAL_NAME":"THE SIX GRANDS, CO.","LONGITUDE":-87.6414739367472},
{"STATE":"IL","ZIP":60707,"LATTITUDE":41.923010423191435,"ADDRESS":"2366-2370 N NEVA AVE  ","YEAR":2013,"DOING_BUSINESS_AS_NAME":"ABRAM GALE","POP_AT_RISK":46315,"BUSINESS_TYPE":"Public Place of Amusement","LEGAL_NAME":"EURO STAR CAFE, INC.","LONGITUDE":-87.80453642340093},
{"STATE":"IL","ZIP":60631,"LATTITUDE":41.99148225930689,"ADDRESS":"6064-6070 N NORTHWEST HWY 1 ","YEAR":2013,"DOING_BUSINESS_AS_NAME":"MO DAILEY'S PUB & GRILLE","POP_AT_RISK":46142,"BUSINESS_TYPE":"Public Place of Amusement","LEGAL_NAME":"CREAMER & DAILEY, INC.","LONGITUDE":-87.7978116394828},
{"STATE":"IL","ZIP":60620,"LATTITUDE":41.735691078577986,"ADDRESS":"1543 W 87TH ST  ","YEAR":2013,"DOING_BUSINESS_AS_NAME":"MR G SUPPER CLUB","POP_AT_RISK":388010,"BUSINESS_TYPE":"Public Place of Amusement","LEGAL_NAME":"M. V. ONE INCORPORATED","LONGITUDE":-87.66232767688463},
{"STATE":"IL","ZIP":60629,"LATTITUDE":41.78652676834002,"ADDRESS":"2748 W 59TH ST  ","YEAR":2013,"DOING_BUSINESS_AS_NAME":"RITCHIE'S","POP_AT_RISK":510840,"BUSINESS_TYPE":"Public Place of Amusement","LEGAL_NAME":"RICK'S THAT'S IT, LTD.","LONGITUDE":-87.69311455891014},
{"STATE":"IL","ZIP":60617,"LATTITUDE":41.738790203816635,"ADDRESS":"8615 S BURLEY AVE OUTDOOR ","YEAR":2013,"DOING_BUSINESS_AS_NAME":"LAKESIDE VELO WORKS INC","POP_AT_RISK":173632,"BUSINESS_TYPE":"Public Place of Amusement","LEGAL_NAME":"LAKESIDE VELO WORKS INC","LONGITUDE":-87.54520304865015},
{"STATE":"IL","ZIP":60619,"LATTITUDE":41.76053016467859,"ADDRESS":"7401 S SOUTH CHICAGO AVE  ","YEAR":2013,"DOING_BUSINESS_AS_NAME":"LEE'S UNLEADED BLUES CLUB","POP_AT_RISK":34159,"BUSINESS_TYPE":"Public Place of Amusement","LEGAL_NAME":"7401 SOUTH CHICAGO CORP.","LONGITUDE":-87.59792396776683},
{"STATE":"IL","ZIP":60612,"LATTITUDE":41.88123342371891,"ADDRESS":"2550 W MADISON ST 1ST - 3RD ","YEAR":2013,"DOING_BUSINESS_AS_NAME":"JOHNNY'S ICE HOUSE","POP_AT_RISK":125296,"BUSINESS_TYPE":"Public Place of Amusement","LEGAL_NAME":"JOHNNY'S ICE HOUSE, INC.","LONGITUDE":-87.69038958620825},
{"STATE":"IL","ZIP":60619,"LATTITUDE":41.736972872974235,"ADDRESS":"1420 E 87TH ST  1ST","YEAR":2013,"DOING_BUSINESS_AS_NAME":"MIDWEST BRIDGE UNIT, INC","POP_AT_RISK":57268,"BUSINESS_TYPE":"Public Place of Amusement","LEGAL_NAME":"MIDWEST BRIDGE UNIT INC.","LONGITUDE":-87.58939464020219},
{"STATE":"IL","ZIP":60628,"LATTITUDE":41.69074200662608,"ADDRESS":"11203 S CORLISS AVE 1 ","YEAR":2013,"DOING_BUSINESS_AS_NAME":"111TH STREET OTB","POP_AT_RISK":42012,"BUSINESS_TYPE":"Public Place of Amusement","LEGAL_NAME":"POST TIME CATERING, INC.","LONGITUDE":-87.60067790215122},
{"STATE":"IL","ZIP":60620,"LATTITUDE":41.75594978114761,"ADDRESS":"1219 W 76TH ST  ","YEAR":2013,"DOING_BUSINESS_AS_NAME":"DR. MLK, JR. PARK AND FAMILY ENTERTAINMENT CENTER","POP_AT_RISK":403830,"BUSINESS_TYPE":"Public Place of Amusement","LEGAL_NAME":"CHICAGO CITY SKATING, LLC","LONGITUDE":-87.65466615567901},
{"STATE":"IL","ZIP":60623,"LATTITUDE":41.859528939715666,"ADDRESS":"1539 S PULASKI RD  ","YEAR":2013,"DOING_BUSINESS_AS_NAME":"Livin' Clean Entertainment","POP_AT_RISK":121221,"BUSINESS_TYPE":"Public Place of Amusement","LEGAL_NAME":"CLEAN CUT BARBERSHOP P.C.","LONGITUDE":-87.72482717905926},
{"STATE":"IL","ZIP":60617,"LATTITUDE":41.67851714188012,"ADDRESS":"11919 S AVENUE O  1ST ","YEAR":2013,"DOING_BUSINESS_AS_NAME":"EASTSIDE SOCCER DOME, INC.","POP_AT_RISK":2544,"BUSINESS_TYPE":"Public Place of Amusement","LEGAL_NAME":"EASTSIDE SOCCER DOME, INC.","LONGITUDE":-87.53989365304756},
{"STATE":"IL","ZIP":60652,"LATTITUDE":41.75466012439374,"ADDRESS":"7601 S CICERO AVE  ","YEAR":2013,"DOING_BUSINESS_AS_NAME":"AMC THEATRES FORD CITY 14","POP_AT_RISK":51644,"BUSINESS_TYPE":"Public Place of Amusement","LEGAL_NAME":"AMERICAN MULTI-CINEMA, INC.","LONGITUDE":-87.74138475860521},
{"STATE":"IL","ZIP":60622,"LATTITUDE":41.89938196589096,"ADDRESS":"1002 N CALIFORNIA AVE 1ST ","YEAR":2013,"DOING_BUSINESS_AS_NAME":"THE CLIPPER","POP_AT_RISK":50952,"BUSINESS_TYPE":"Public Place of Amusement","LEGAL_NAME":"THE CALIFORNIA CLIPPER CORP.","LONGITUDE":-87.69694004377007},
{"STATE":"IL","ZIP":60646,"LATTITUDE":42.01209195019808,"ADDRESS":"6000 W TOUHY AVE  ","YEAR":2013,"DOING_BUSINESS_AS_NAME":"FROZEN ROPES OF  CHICAGO, INC","POP_AT_RISK":32259,"BUSINESS_TYPE":"Public Place of Amusement","LEGAL_NAME":"FROZEN ROPES  OF CHICAGO, INC","LONGITUDE":-87.77702766484066},
{"STATE":"IL","ZIP":60617,"LATTITUDE":41.70920921884732,"ADDRESS":"10226-10236 S AVENUE N  1 ","YEAR":2013,"DOING_BUSINESS_AS_NAME":"SOUTHEAST CHICAGO SOCCER","POP_AT_RISK":78908,"BUSINESS_TYPE":"Public Place of Amusement","LEGAL_NAME":"SOUTHEAST CHICAGO SOCCER, INC.","LONGITUDE":-87.53905097430159},
{"STATE":"IL","ZIP":60666,"LATTITUDE":42.008058189255244,"ADDRESS":"12521 W TOUHY AVE ADULTWORLD ","YEAR":2013,"DOING_BUSINESS_AS_NAME":"TOUHY AVENUE VIDEO STORE","POP_AT_RISK":15272,"BUSINESS_TYPE":"Public Place of Amusement","LEGAL_NAME":"TOUHY AVENUE OPERATING COMPANY","LONGITUDE":-87.93397650361851},
{"STATE":"IL","ZIP":60624,"LATTITUDE":41.880709192327906,"ADDRESS":"4422 W MADISON ST 1 ","YEAR":2013,"DOING_BUSINESS_AS_NAME":"BRICKS SPORTS BAR & GRILL","POP_AT_RISK":128680,"BUSINESS_TYPE":"Public Place of Amusement","LEGAL_NAME":"B & B MADISON ENTERTAIMENT CORP.","LONGITUDE":-87.73643717633821},
{"STATE":"IL","ZIP":60632,"LATTITUDE":41.807649252190316,"ADDRESS":"4335 W 47TH ST  ","YEAR":2013,"DOING_BUSINESS_AS_NAME":"CHICAGO SPORTS BAR & GRILL, INC.","POP_AT_RISK":55604,"BUSINESS_TYPE":"Public Place of Amusement","LEGAL_NAME":"CHICAGO SPORTS BAR & GRILL, INC.","LONGITUDE":-87.73242906054888},
{"STATE":"IL","ZIP":60639,"LATTITUDE":41.91093116886587,"ADDRESS":"1643-1647 N CICERO AVE 1 & 2 BANQU","YEAR":2013,"DOING_BUSINESS_AS_NAME":"EL MEXICO MODERN BALLROOM INC","POP_AT_RISK":103456,"BUSINESS_TYPE":"Public Place of Amusement","LEGAL_NAME":"EL MEXICO MODERNO BALLROOM, INC.","LONGITUDE":-87.74575021004954},
{"STATE":"IL","ZIP":60649,"LATTITUDE":41.77866211331481,"ADDRESS":"6401 S RICHARDS DR 1ST ","YEAR":2013,"DOING_BUSINESS_AS_NAME":"JACKSON PARK GOLF COURSE","POP_AT_RISK":60438,"BUSINESS_TYPE":"Public Place of Amusement","LEGAL_NAME":"JACKSON PARK GOLF MANAGEMENT, LLC","LONGITUDE":-87.57939999096837},
{"STATE":"IL","ZIP":60639,"LATTITUDE":41.93124872462609,"ADDRESS":"5319 W DIVERSEY AVE  ","YEAR":2013,"DOING_BUSINESS_AS_NAME":"REGENCY INN","POP_AT_RISK":70067,"BUSINESS_TYPE":"Public Place of Amusement","LEGAL_NAME":"ROBERT & ALLEN'S REGENCY INN,  INC.","LONGITUDE":-87.75968066162403},
{"STATE":"IL","ZIP":60626,"LATTITUDE":42.018812793757284,"ADDRESS":"7537-7539 N CLARK ST 1ST ","YEAR":2013,"DOING_BUSINESS_AS_NAME":"ETHIOPIAN DIAMOND II RESTAURANT INC.","POP_AT_RISK":62574,"BUSINESS_TYPE":"Public Place of Amusement","LEGAL_NAME":"ETHIOPIAN DIAMOND II RESTAURANT INC.","LONGITUDE":-87.67592023089395},
{"STATE":"IL","ZIP":60656,"LATTITUDE":41.980205241957265,"ADDRESS":"7021 W HIGGINS AVE  ","YEAR":2013,"DOING_BUSINESS_AS_NAME":"MUSCLE BURGER","POP_AT_RISK":88842,"BUSINESS_TYPE":"Public Place of Amusement","LEGAL_NAME":"Sandy's Restaurant & Banquette, Inc.","LONGITUDE":-87.8033156853807},
}