[
  {
    "BUSINESS_TYPE": "Commercial Garage", 
    "LEGAL_NAME": "MEGA PROPERTIES INC", 
    "STATE": "IL", 
    "DOING_BUSINESS_AS_NAME": "MEGA PROPERTIES INC", 
    "POP_AT_RISK": 38079, 
    "ZIP": 60630, 
    "ADDRESS": "4849 N MILWAUKEE AVE 1ST", 
    "YEAR": 2007, 
    "LONGITUDE": -87.76171988, 
    "LATTITUDE": 41.969196776
  }, 
  {
    "BUSINESS_TYPE": "Commercial Garage", 
    "LEGAL_NAME": "ABM INDUSTRY GROUPS, LLC", 
    "STATE": "IL", 
    "DOING_BUSINESS_AS_NAME": "SYSTEM PARKING INC", 
    "POP_AT_RISK": 65324, 
    "ZIP": 60626, 
    "ADDRESS": "1677 W FARWELL AVE", 
    "YEAR": 2007, 
    "LONGITUDE": -87.672866032, 
    "LATTITUDE": 42.00645843
  }, 
  {
    "BUSINESS_TYPE": "Commercial Garage", 
    "LEGAL_NAME": "CAPITAL COUNSELORS LIMITED", 
    "STATE": "IL", 
    "DOING_BUSINESS_AS_NAME": "MIDWAY PARK SAVER", 
    "POP_AT_RISK": 35522, 
    "ZIP": 60629, 
    "ADDRESS": "4607 W 59TH ST", 
    "YEAR": 2007, 
    "LONGITUDE": -87.738042416, 
    "LATTITUDE": 41.785627961
  }, 
  {
    "BUSINESS_TYPE": "Commercial Garage", 
    "LEGAL_NAME": "PRESENCE CHICAGO HOSPITALS NETWORK", 
    "STATE": "IL", 
    "DOING_BUSINESS_AS_NAME": "PRESENCE ST. MARY OF NAZARETH HOSPITAL", 
    "POP_AT_RISK": 73308, 
    "ZIP": 60622, 
    "ADDRESS": "2233 W DIVISION ST", 
    "YEAR": 2007, 
    "LONGITUDE": -87.683484931, 
    "LATTITUDE": 41.902971912
  }, 
  {
    "BUSINESS_TYPE": "Commercial Garage", 
    "LEGAL_NAME": "AIRWAYS PARKING CORP", 
    "STATE": "IL", 
    "DOING_BUSINESS_AS_NAME": "AIRWAYS PARKING", 
    "POP_AT_RISK": 40956, 
    "ZIP": 60632, 
    "ADDRESS": "4532 W 55TH ST  OUTDO", 
    "YEAR": 2007, 
    "LONGITUDE": -87.73684553, 
    "LATTITUDE": 41.793192663
  }, 
  {
    "BUSINESS_TYPE": "Commercial Garage", 
    "LEGAL_NAME": "ABM INDUSTRY GROUPS, LLC", 
    "STATE": "IL", 
    "DOING_BUSINESS_AS_NAME": "SYSTEM PARKING INC.", 
    "POP_AT_RISK": 44151, 
    "ZIP": 60608, 
    "ADDRESS": "2705 W 15TH ST", 
    "YEAR": 2007, 
    "LONGITUDE": -87.693684708, 
    "LATTITUDE": 41.860937298
  }, 
  {
    "BUSINESS_TYPE": "Commercial Garage", 
    "LEGAL_NAME": "INTERPARK LLC", 
    "STATE": "IL", 
    "DOING_BUSINESS_AS_NAME": "INTERPARK", 
    "POP_AT_RISK": 36489, 
    "ZIP": 60615, 
    "ADDRESS": "500 E 51ST ST  INDOO", 
    "YEAR": 2007, 
    "LONGITUDE": -87.613995727, 
    "LATTITUDE": 41.80223871
  }, 
  {
    "BUSINESS_TYPE": "Commercial Garage", 
    "LEGAL_NAME": "JOHN STILP", 
    "STATE": "IL", 
    "DOING_BUSINESS_AS_NAME": "AUTOTRUCK PARKING & STOR INC", 
    "POP_AT_RISK": 30060, 
    "ZIP": 60621, 
    "ADDRESS": "6629 S WENTWORTH AVE  1", 
    "YEAR": 2007, 
    "LONGITUDE": -87.629850238, 
    "LATTITUDE": 41.773651275
  }, 
  {
    "BUSINESS_TYPE": "Commercial Garage", 
    "LEGAL_NAME": "ABM INDUSTRY GROUPS, LLC", 
    "STATE": "IL", 
    "DOING_BUSINESS_AS_NAME": "AMPCO SYSTEM PARKING, INC.", 
    "POP_AT_RISK": 57485, 
    "ZIP": 60660, 
    "ADDRESS": "5900 N WINTHROP AVE", 
    "YEAR": 2007, 
    "LONGITUDE": -87.658333422, 
    "LATTITUDE": 41.989157342
  }, 
  {
    "BUSINESS_TYPE": "Commercial Garage", 
    "LEGAL_NAME": "INTERPARK LLC", 
    "STATE": "IL", 
    "DOING_BUSINESS_AS_NAME": "INTERPARK", 
    "POP_AT_RISK": 43318, 
    "ZIP": 60624, 
    "ADDRESS": "3436 W VAN BUREN ST  PARKI", 
    "YEAR": 2007, 
    "LONGITUDE": -87.712508717, 
    "LATTITUDE": 41.875551305
  }, 
  {
    "BUSINESS_TYPE": "Commercial Garage", 
    "LEGAL_NAME": "AIRPORT PARKING EXPRESS CO.", 
    "STATE": "IL", 
    "DOING_BUSINESS_AS_NAME": "AIRPORT PARKING", 
    "POP_AT_RISK": 20478, 
    "ZIP": 60638, 
    "ADDRESS": "4832 - 34 W 47TH ST", 
    "YEAR": 2007, 
    "LONGITUDE": -87.744439515, 
    "LATTITUDE": 41.80771214
  }, 
  {
    "BUSINESS_TYPE": "Commercial Garage", 
    "LEGAL_NAME": "PROGRESSIVE BAPTIST CHURCH INC OF CHICAGO", 
    "STATE": "IL", 
    "DOING_BUSINESS_AS_NAME": "PROGRESSIVE BAPTIST CHURCH INC OF CHICAGO", 
    "POP_AT_RISK": 31100, 
    "ZIP": 60609, 
    "ADDRESS": "3658 S WENTWORTH AVE", 
    "YEAR": 2007, 
    "LONGITUDE": -87.63156879, 
    "LATTITUDE": 41.82733982
  }, 
  {
    "BUSINESS_TYPE": "Commercial Garage", 
    "LEGAL_NAME": "M & M USA TRUCKING, INC.", 
    "STATE": "IL", 
    "DOING_BUSINESS_AS_NAME": "M & M USA TRUCKING, INC.", 
    "POP_AT_RISK": 51818, 
    "ZIP": 60623, 
    "ADDRESS": "2842 S KEDZIE AVE 1", 
    "YEAR": 2007, 
    "LONGITUDE": -87.705040966, 
    "LATTITUDE": 41.839643584
  }, 
  {
    "BUSINESS_TYPE": "Commercial Garage", 
    "LEGAL_NAME": "KERASOTES SHOWPLACE THEATRES, LLC", 
    "STATE": "IL", 
    "DOING_BUSINESS_AS_NAME": "CITY NORTH 14", 
    "POP_AT_RISK": 51137, 
    "ZIP": 60647, 
    "ADDRESS": "2600 N WESTERN AVE", 
    "YEAR": 2007, 
    "LONGITUDE": -87.687922236, 
    "LATTITUDE": 41.92866979
  }, 
  {
    "BUSINESS_TYPE": "Commercial Garage", 
    "LEGAL_NAME": "VALET PARKING SERVICE, INC.", 
    "STATE": "IL", 
    "DOING_BUSINESS_AS_NAME": "VALET PARKING SERVICES", 
    "POP_AT_RISK": 38939, 
    "ZIP": 60615, 
    "ADDRESS": "5307 S LAKE PARK AVE", 
    "YEAR": 2007, 
    "LONGITUDE": -87.587134142, 
    "LATTITUDE": 41.799317592
  }, 
  {
    "BUSINESS_TYPE": "Commercial Garage", 
    "LEGAL_NAME": "PREMIER VALET-CHICAGO INC.", 
    "STATE": "IL", 
    "DOING_BUSINESS_AS_NAME": "PREMIER VALET CHICAGO, INC.", 
    "POP_AT_RISK": 40177, 
    "ZIP": 60607, 
    "ADDRESS": "1434-1446 W FILLMORE ST", 
    "YEAR": 2007, 
    "LONGITUDE": -87.663027487, 
    "LATTITUDE": 41.868634433
  }, 
  {
    "BUSINESS_TYPE": "Commercial Garage", 
    "LEGAL_NAME": "RCO Hotel, Inc.", 
    "STATE": "IL", 
    "DOING_BUSINESS_AS_NAME": "RENAISSANCE CHICAGO O'HARE HOTEL AS OF 7/25/2013 Paying under account 381630", 
    "POP_AT_RISK": 19154, 
    "ZIP": 60631, 
    "ADDRESS": "8500 W BRYN MAWR AVE", 
    "YEAR": 2007, 
    "LONGITUDE": -87.839167558, 
    "LATTITUDE": 41.981180725
  }, 
  {
    "BUSINESS_TYPE": "Commercial Garage", 
    "LEGAL_NAME": "ALLS STORAGE LCC.", 
    "STATE": "IL", 
    "DOING_BUSINESS_AS_NAME": "ALLS STORAGE L.L.C.", 
    "POP_AT_RISK": 52265, 
    "ZIP": 60641, 
    "ADDRESS": "4625 W WELLINGTON AVE", 
    "YEAR": 2007, 
    "LONGITUDE": -87.743221597, 
    "LATTITUDE": 41.935119358
  }, 
  {
    "BUSINESS_TYPE": "Commercial Garage", 
    "LEGAL_NAME": "ABM INDUSTRY GROUPS, LLC", 
    "STATE": "IL", 
    "DOING_BUSINESS_AS_NAME": "SYSTEM PARKING INC.", 
    "POP_AT_RISK": 57219, 
    "ZIP": 60625, 
    "ADDRESS": "4950 N AVERS AVE", 
    "YEAR": 2007, 
    "LONGITUDE": -87.724641388, 
    "LATTITUDE": 41.97160605
  }, 
  {
    "BUSINESS_TYPE": "Commercial Garage", 
    "LEGAL_NAME": "JOSEPH M RAMEL", 
    "STATE": "IL", 
    "DOING_BUSINESS_AS_NAME": "RAMEL PHILLIPS 66", 
    "POP_AT_RISK": 34228, 
    "ZIP": 60609, 
    "ADDRESS": "3501 S EMERALD AVE", 
    "YEAR": 2007, 
    "LONGITUDE": -87.644740558, 
    "LATTITUDE": 41.830676971
  }, 
  {
    "BUSINESS_TYPE": "Commercial Garage", 
    "LEGAL_NAME": "ABM INDUSTRY GROUPS, LLC", 
    "STATE": "IL", 
    "DOING_BUSINESS_AS_NAME": "SYSTEM PARKING, INC.", 
    "POP_AT_RISK": 26401, 
    "ZIP": 60643, 
    "ADDRESS": "9510 S PROSPECT AVE", 
    "YEAR": 2007, 
    "LONGITUDE": -87.665585257, 
    "LATTITUDE": 41.720781522
  }, 
  {
    "BUSINESS_TYPE": "Commercial Garage", 
    "LEGAL_NAME": "SP PLUS CORPORATION", 
    "STATE": "IL", 
    "DOING_BUSINESS_AS_NAME": "STANDARD PARKING", 
    "POP_AT_RISK": 24680, 
    "ZIP": 60656, 
    "ADDRESS": "5550 N HARLEM AVE  1600", 
    "YEAR": 2007, 
    "LONGITUDE": -87.807088468, 
    "LATTITUDE": 41.982215733
  }
]