[
  {
    "BUSINESS_TYPE": "Automatic Amusement Device Operator", 
    "LEGAL_NAME": "ALLEN CHARLESTON", 
    "STATE": "IL", 
    "DOING_BUSINESS_AS_NAME": "ILLINOIS AMUSEMENT", 
    "POP_AT_RISK": 21726, 
    "ZIP": 60619, 
    "ADDRESS": "9255 S STATE ST  1ST", 
    "YEAR": 2004, 
    "LONGITUDE": -87.623691053, 
    "LATTITUDE": 41.725592771
  }, 
  {
    "BUSINESS_TYPE": "Automatic Amusement Device Operator", 
    "LEGAL_NAME": "SHAMROCK AMUSEMENT CO, INC.", 
    "STATE": "IL", 
    "DOING_BUSINESS_AS_NAME": "SHAMROCK AMUSEMENT CO", 
    "POP_AT_RISK": 24012, 
    "ZIP": 60655, 
    "ADDRESS": "11118 S KEDZIE AVE  1ST", 
    "YEAR": 2004, 
    "LONGITUDE": -87.700948242, 
    "LATTITUDE": 41.691010687
  }, 
  {
    "BUSINESS_TYPE": "Automatic Amusement Device Operator", 
    "LEGAL_NAME": "XIU FEN CHEN", 
    "STATE": "IL", 
    "DOING_BUSINESS_AS_NAME": "V L AMUSEMENT", 
    "POP_AT_RISK": 32959, 
    "ZIP": 60616, 
    "ADDRESS": "266 W 26TH ST", 
    "YEAR": 2004, 
    "LONGITUDE": -87.63445005, 
    "LATTITUDE": 41.845597924
  }, 
  {
    "BUSINESS_TYPE": "Automatic Amusement Device Operator", 
    "LEGAL_NAME": "J NOMDEN & SONS CORPORATION", 
    "STATE": "IL", 
    "DOING_BUSINESS_AS_NAME": "J NOMDEN & SONS CORP", 
    "POP_AT_RISK": 15722, 
    "ZIP": 60646, 
    "ADDRESS": "5906 N KNOX AVE", 
    "YEAR": 2004, 
    "LONGITUDE": -87.745507178, 
    "LATTITUDE": 41.988632547
  }, 
  {
    "BUSINESS_TYPE": "Automatic Amusement Device Operator", 
    "LEGAL_NAME": "LEISURE TIME VENDING, INC.", 
    "STATE": "IN", 
    "DOING_BUSINESS_AS_NAME": "LEISURE TIME VENDING INC", 
    "POP_AT_RISK": 41402, 
    "ZIP": 46319, 
    "ADDRESS": "1943 W 45TH AVE 1ST", 
    "YEAR": 2004, 
    "LONGITUDE": -87.674062099, 
    "LATTITUDE": 41.812045356
  }, 
  {
    "BUSINESS_TYPE": "Automatic Amusement Device Operator", 
    "LEGAL_NAME": "ALEXANDER GIENKO", 
    "STATE": "IL", 
    "DOING_BUSINESS_AS_NAME": "DIAL AMUSEMENT CO", 
    "POP_AT_RISK": 45732, 
    "ZIP": 60612, 
    "ADDRESS": "2007 W GRAND AVE", 
    "YEAR": 2004, 
    "LONGITUDE": -87.677255351, 
    "LATTITUDE": 41.89070737
  }, 
  {
    "BUSINESS_TYPE": "Automatic Amusement Device Operator", 
    "LEGAL_NAME": "KEUM SOON KIM", 
    "STATE": "IL", 
    "DOING_BUSINESS_AS_NAME": "CHICAGO NO RA BANG", 
    "POP_AT_RISK": 55796, 
    "ZIP": 60625, 
    "ADDRESS": "5320 N KEDZIE AVE 1ST", 
    "YEAR": 2004, 
    "LONGITUDE": -87.708890002, 
    "LATTITUDE": 41.978241394
  }, 
  {
    "BUSINESS_TYPE": "Automatic Amusement Device Operator", 
    "LEGAL_NAME": "WAYNE LEE STEELS", 
    "STATE": "IL", 
    "DOING_BUSINESS_AS_NAME": "SOULFUL STRUT MUSIC", 
    "POP_AT_RISK": 31578, 
    "ZIP": 60616, 
    "ADDRESS": "2001 S MICHIGAN AVE  18-A", 
    "YEAR": 2004, 
    "LONGITUDE": -87.623728216, 
    "LATTITUDE": 41.855431999
  }, 
  {
    "BUSINESS_TYPE": "Automatic Amusement Device Operator", 
    "LEGAL_NAME": "QUAD ENTERPRISES INC", 
    "STATE": "IL", 
    "DOING_BUSINESS_AS_NAME": "QUAD ENTERPRISES INC", 
    "POP_AT_RISK": 73932, 
    "ZIP": 60639, 
    "ADDRESS": "5516 W FULLERTON AVE", 
    "YEAR": 2004, 
    "LONGITUDE": -87.764226902, 
    "LATTITUDE": 41.924114076
  }, 
  {
    "BUSINESS_TYPE": "Automatic Amusement Device Operator", 
    "LEGAL_NAME": "HOUSE OF KICKS, LLC", 
    "STATE": "IL", 
    "DOING_BUSINESS_AS_NAME": "HOUSE OF KICKS LLC", 
    "POP_AT_RISK": 19317, 
    "ZIP": 60619, 
    "ADDRESS": "901 E 95TH ST 1ST", 
    "YEAR": 2004, 
    "LONGITUDE": -87.60190589, 
    "LATTITUDE": 41.721973866
  }, 
  {
    "BUSINESS_TYPE": "Automatic Amusement Device Operator", 
    "LEGAL_NAME": "FRANK SCHMIDT", 
    "STATE": "IL", 
    "DOING_BUSINESS_AS_NAME": "FRANK SCHMIDT", 
    "POP_AT_RISK": 28635, 
    "ZIP": 60630, 
    "ADDRESS": "4939 N MASON AVE  1ST", 
    "YEAR": 2004, 
    "LONGITUDE": -87.776905098, 
    "LATTITUDE": 41.971416396
  }, 
  {
    "BUSINESS_TYPE": "Automatic Amusement Device Operator", 
    "LEGAL_NAME": "DOLORES TOOLIS", 
    "STATE": "IL", 
    "DOING_BUSINESS_AS_NAME": "D & R AMUSEMENT", 
    "POP_AT_RISK": 48121, 
    "ZIP": 60644, 
    "ADDRESS": "4709 W KINZIE ST", 
    "YEAR": 2004, 
    "LONGITUDE": -87.743498736, 
    "LATTITUDE": 41.887484264
  }, 
  {
    "BUSINESS_TYPE": "Automatic Amusement Device Operator", 
    "LEGAL_NAME": "WM. J. HONQUEST & CO.", 
    "STATE": "IL", 
    "DOING_BUSINESS_AS_NAME": "WM J HONQUEST & CO INC", 
    "POP_AT_RISK": 34985, 
    "ZIP": 60707, 
    "ADDRESS": "6869 W GRAND AVE", 
    "YEAR": 2004, 
    "LONGITUDE": -87.797818415, 
    "LATTITUDE": 41.923469119
  }, 
  {
    "BUSINESS_TYPE": "Automatic Amusement Device Operator", 
    "LEGAL_NAME": "PAVEL STRUGACH", 
    "STATE": "IL", 
    "DOING_BUSINESS_AS_NAME": "AMUSEMENT VIDEO GAMES", 
    "POP_AT_RISK": 38016, 
    "ZIP": 60607, 
    "ADDRESS": "312 N MAY ST", 
    "YEAR": 2004, 
    "LONGITUDE": -87.655832331, 
    "LATTITUDE": 41.887132363
  }, 
  {
    "BUSINESS_TYPE": "Automatic Amusement Device Operator", 
    "LEGAL_NAME": "G & A AMUSEMENT LIMITED", 
    "STATE": "IL", 
    "DOING_BUSINESS_AS_NAME": "G & A AMUSEMENT LTD", 
    "POP_AT_RISK": 19762, 
    "ZIP": 60634, 
    "ADDRESS": "7545 W ADDISON ST 1ST", 
    "YEAR": 2004, 
    "LONGITUDE": -87.816139519, 
    "LATTITUDE": 41.945010112
  }, 
  {
    "BUSINESS_TYPE": "Automatic Amusement Device Operator", 
    "LEGAL_NAME": "B&O PHONOGRAPH, INC.", 
    "STATE": "IL", 
    "DOING_BUSINESS_AS_NAME": "B & O PHONOGRAPH INC", 
    "POP_AT_RISK": 42499, 
    "ZIP": 60642, 
    "ADDRESS": "816 N MAY ST", 
    "YEAR": 2004, 
    "LONGITUDE": -87.655393436, 
    "LATTITUDE": 41.896831696
  }, 
  {
    "BUSINESS_TYPE": "Automatic Amusement Device Operator", 
    "LEGAL_NAME": "ANTHONY O. JAMES", 
    "STATE": "IL", 
    "DOING_BUSINESS_AS_NAME": "JAMES AMUSEMENTS", 
    "POP_AT_RISK": 42824, 
    "ZIP": 60636, 
    "ADDRESS": "1825 W 59TH ST", 
    "YEAR": 2004, 
    "LONGITUDE": -87.670238981, 
    "LATTITUDE": 41.786564006
  }, 
  {
    "BUSINESS_TYPE": "Automatic Amusement Device Operator", 
    "LEGAL_NAME": "ZURLA SALES INC", 
    "STATE": "IL", 
    "DOING_BUSINESS_AS_NAME": "ZURLA SALES INCORPORATED", 
    "POP_AT_RISK": 55096, 
    "ZIP": 60618, 
    "ADDRESS": "3012 N CLYBOURN AVE  1ST", 
    "YEAR": 2004, 
    "LONGITUDE": -87.683676194, 
    "LATTITUDE": 41.936144684
  }, 
  {
    "BUSINESS_TYPE": "Automatic Amusement Device Operator", 
    "LEGAL_NAME": "DONALD DODSON", 
    "STATE": "IL", 
    "DOING_BUSINESS_AS_NAME": "DODSONS", 
    "POP_AT_RISK": 6628, 
    "ZIP": 60472, 
    "ADDRESS": "3327 W 135 ST 1ST", 
    "YEAR": 2004, 
    "LONGITUDE": -87.542369882, 
    "LATTITUDE": 41.649914324
  }, 
  {
    "BUSINESS_TYPE": "Automatic Amusement Device Operator", 
    "LEGAL_NAME": "CYNTHIA L SICILIANO", 
    "STATE": "IL", 
    "DOING_BUSINESS_AS_NAME": "CYNTHIA L SICILIANO", 
    "POP_AT_RISK": 64817, 
    "ZIP": 60618, 
    "ADDRESS": "3534 W BELMONT AVE", 
    "YEAR": 2004, 
    "LONGITUDE": -87.716397185, 
    "LATTITUDE": 41.939338049
  }, 
  {
    "BUSINESS_TYPE": "Automatic Amusement Device Operator", 
    "LEGAL_NAME": "BIG C VENDING CO, INC", 
    "STATE": "IL", 
    "DOING_BUSINESS_AS_NAME": "BIG C VENDING CO INC", 
    "POP_AT_RISK": 64871, 
    "ZIP": 60618, 
    "ADDRESS": "3124 N DAMEN AVE", 
    "YEAR": 2004, 
    "LONGITUDE": -87.678470884, 
    "LATTITUDE": 41.938549044
  }, 
  {
    "BUSINESS_TYPE": "Automatic Amusement Device Operator", 
    "LEGAL_NAME": "THOMAS R STETANSKI", 
    "STATE": "IL", 
    "DOING_BUSINESS_AS_NAME": "A-1 ALL AMERICAN AMUSEMENT", 
    "POP_AT_RISK": 57650, 
    "ZIP": 60651, 
    "ADDRESS": "1429 N KEATING AVE", 
    "YEAR": 2004, 
    "LONGITUDE": -87.744639078, 
    "LATTITUDE": 41.906916879
  }, 
  {
    "BUSINESS_TYPE": "Automatic Amusement Device Operator", 
    "LEGAL_NAME": "ILLINOIS BAR & GRILL INC", 
    "STATE": "IL", 
    "DOING_BUSINESS_AS_NAME": "ILLINOIS OPERATOR", 
    "POP_AT_RISK": 40177, 
    "ZIP": 60607, 
    "ADDRESS": "1421 W TAYLOR ST", 
    "YEAR": 2004, 
    "LONGITUDE": -87.662493891, 
    "LATTITUDE": 41.86921678
  }, 
  {
    "BUSINESS_TYPE": "Automatic Amusement Device Operator", 
    "LEGAL_NAME": "TED KNUP", 
    "STATE": "IL", 
    "DOING_BUSINESS_AS_NAME": "TED KNUP", 
    "POP_AT_RISK": 66750, 
    "ZIP": 60622, 
    "ADDRESS": "947 N DAMEN AVE  1ST", 
    "YEAR": 2004, 
    "LONGITUDE": -87.676997382, 
    "LATTITUDE": 41.899159355
  }, 
  {
    "BUSINESS_TYPE": "Automatic Amusement Device Operator", 
    "LEGAL_NAME": "ALL SEASONS AMUSEMENTS, INC.", 
    "STATE": "IL", 
    "DOING_BUSINESS_AS_NAME": "ALL SEASONS AMUSEMENTS, INC.", 
    "POP_AT_RISK": 62013, 
    "ZIP": 60647, 
    "ADDRESS": "1814 N WESTERN AVE", 
    "YEAR": 2004, 
    "LONGITUDE": -87.687473075, 
    "LATTITUDE": 41.914406751
  }, 
  {
    "BUSINESS_TYPE": "Automatic Amusement Device Operator", 
    "LEGAL_NAME": "THEODORE J. CATTONI JR.", 
    "STATE": "IL", 
    "DOING_BUSINESS_AS_NAME": "T'S VENDING", 
    "POP_AT_RISK": 10918, 
    "ZIP": 60617, 
    "ADDRESS": "9801 S EWING AVE", 
    "YEAR": 2004, 
    "LONGITUDE": -87.535134848, 
    "LATTITUDE": 41.717651427
  }, 
  {
    "BUSINESS_TYPE": "Automatic Amusement Device Operator", 
    "LEGAL_NAME": "ANGELO VALENTE VALCO VEND CO", 
    "STATE": "IL", 
    "DOING_BUSINESS_AS_NAME": "VALCO VENDING,INC", 
    "POP_AT_RISK": 18897, 
    "ZIP": 60628, 
    "ADDRESS": "313 E 115TH ST 1ST", 
    "YEAR": 2004, 
    "LONGITUDE": -87.615092323, 
    "LATTITUDE": 41.685294377
  }, 
  {
    "BUSINESS_TYPE": "Automatic Amusement Device Operator", 
    "LEGAL_NAME": "SIDNEY VANCHIERS & JOS RIGGIO", 
    "STATE": "IL", 
    "DOING_BUSINESS_AS_NAME": "SIDNEY VANCHIERS & JOS RIGGIO", 
    "POP_AT_RISK": 29867, 
    "ZIP": 60632, 
    "ADDRESS": "5210 S ARCHER AVE", 
    "YEAR": 2004, 
    "LONGITUDE": -87.734968874, 
    "LATTITUDE": 41.800034054
  }, 
  {
    "BUSINESS_TYPE": "Automatic Amusement Device Operator", 
    "LEGAL_NAME": "VIDEO - TECH INC", 
    "STATE": "IL", 
    "DOING_BUSINESS_AS_NAME": "FRONTIER AMUSEMENT", 
    "POP_AT_RISK": 62348, 
    "ZIP": 60622, 
    "ADDRESS": "1748 W NORTH AVE 1ST", 
    "YEAR": 2004, 
    "LONGITUDE": -87.672047911, 
    "LATTITUDE": 41.910678154
  }, 
  {
    "BUSINESS_TYPE": "Automatic Amusement Device Operator", 
    "LEGAL_NAME": "EARNEST THOMPSON", 
    "STATE": "IL", 
    "DOING_BUSINESS_AS_NAME": "EARNEST THOMPSON", 
    "POP_AT_RISK": 30249, 
    "ZIP": 60651, 
    "ADDRESS": "1404 N MASON AVE", 
    "YEAR": 2004, 
    "LONGITUDE": -87.774421388, 
    "LATTITUDE": 41.90584292
  }, 
  {
    "BUSINESS_TYPE": "Automatic Amusement Device Operator", 
    "LEGAL_NAME": "K & R AMUSEMENT CO INC", 
    "STATE": "IL", 
    "DOING_BUSINESS_AS_NAME": "K & R AMUSEMENT CO INC", 
    "POP_AT_RISK": 40251, 
    "ZIP": 60608, 
    "ADDRESS": "3430 S MORGAN ST 1ST", 
    "YEAR": 2004, 
    "LONGITUDE": -87.651139933, 
    "LATTITUDE": 41.831823857
  }, 
  {
    "BUSINESS_TYPE": "Automatic Amusement Device Operator", 
    "LEGAL_NAME": "ALL SEASONS AMUSEMENTS, INC.", 
    "STATE": "IL", 
    "DOING_BUSINESS_AS_NAME": "ALL SEASONS AMUSEMENTS", 
    "POP_AT_RISK": 63284, 
    "ZIP": 60007, 
    "ADDRESS": "2001  ESTES AVE", 
    "YEAR": 2004, 
    "LONGITUDE": -87.680346231, 
    "LATTITUDE": 42.011198344
  }, 
  {
    "BUSINESS_TYPE": "Automatic Amusement Device Operator", 
    "LEGAL_NAME": "RENAISSANCE MAN, INCORPORATED", 
    "STATE": "IL", 
    "DOING_BUSINESS_AS_NAME": "NICK P VERROS", 
    "POP_AT_RISK": 12033, 
    "ZIP": 60706, 
    "ADDRESS": "8548 W LAWRENCE", 
    "YEAR": 2004, 
    "LONGITUDE": -87.841299995, 
    "LATTITUDE": 41.966622279
  }, 
  {
    "BUSINESS_TYPE": "Automatic Amusement Device Operator", 
    "LEGAL_NAME": "PROMOTIONAL VENDING INC", 
    "STATE": "IL", 
    "DOING_BUSINESS_AS_NAME": "PROMOTIONAL VENDING", 
    "POP_AT_RISK": 62181, 
    "ZIP": 60618, 
    "ADDRESS": "4160 N ELSTON AVE 1ST", 
    "YEAR": 2004, 
    "LONGITUDE": -87.723444903, 
    "LATTITUDE": 41.956485356
  }, 
  {
    "BUSINESS_TYPE": "Automatic Amusement Device Operator", 
    "LEGAL_NAME": "OTTIE SNIPE", 
    "STATE": "IL", 
    "DOING_BUSINESS_AS_NAME": "SNIPE & SONS", 
    "POP_AT_RISK": 36332, 
    "ZIP": 60637, 
    "ADDRESS": "6630 S DR MARTIN LUTHER KING JR DR", 
    "YEAR": 2004, 
    "LONGITUDE": -87.615618022, 
    "LATTITUDE": 41.773847746
  }, 
  {
    "BUSINESS_TYPE": "Automatic Amusement Device Operator", 
    "LEGAL_NAME": "EDWARD HASKINS", 
    "STATE": "IL", 
    "DOING_BUSINESS_AS_NAME": "FAST EDDIE JUKE BOX SERVICE", 
    "POP_AT_RISK": 31065, 
    "ZIP": 60619, 
    "ADDRESS": "8536 S CALUMET AVE 1ST", 
    "YEAR": 2004, 
    "LONGITUDE": -87.616355635, 
    "LATTITUDE": 41.739018445
  }, 
  {
    "BUSINESS_TYPE": "Automatic Amusement Device Operator", 
    "LEGAL_NAME": "VALUE VENDING AND AMUSEMENTS, INC.", 
    "STATE": "IL", 
    "DOING_BUSINESS_AS_NAME": "VALUE VENDING", 
    "POP_AT_RISK": 47205, 
    "ZIP": 60651, 
    "ADDRESS": "4435 W DIVISION ST", 
    "YEAR": 2004, 
    "LONGITUDE": -87.737516848, 
    "LATTITUDE": 41.902378229
  }, 
  {
    "BUSINESS_TYPE": "Automatic Amusement Device Operator", 
    "LEGAL_NAME": "JANUSZ WNUK & ANDRZEJ OSEKA", 
    "STATE": "IL", 
    "DOING_BUSINESS_AS_NAME": "A & J AMUSEMENT", 
    "POP_AT_RISK": 63338, 
    "ZIP": 60641, 
    "ADDRESS": "2957 N CICERO AVE # 1ST", 
    "YEAR": 2004, 
    "LONGITUDE": -87.746589378, 
    "LATTITUDE": 41.935075358
  }, 
  {
    "BUSINESS_TYPE": "Automatic Amusement Device Operator", 
    "LEGAL_NAME": "BARBARA J PRATT", 
    "STATE": "IL", 
    "DOING_BUSINESS_AS_NAME": "PRATT'S BILLIARDS & ECT.", 
    "POP_AT_RISK": 38859, 
    "ZIP": 60620, 
    "ADDRESS": "400 W 76TH ST  130", 
    "YEAR": 2004, 
    "LONGITUDE": -87.634503816, 
    "LATTITUDE": 41.756362527
  }, 
  {
    "BUSINESS_TYPE": "Automatic Amusement Device Operator", 
    "LEGAL_NAME": "CEC ENTERTAINMENT, INC.", 
    "STATE": "IL", 
    "DOING_BUSINESS_AS_NAME": "CHUCK 'E' CHEESE'S", 
    "POP_AT_RISK": 53920, 
    "ZIP": 60632, 
    "ADDRESS": "5030 S KEDZIE AVE", 
    "YEAR": 2004, 
    "LONGITUDE": -87.703938362, 
    "LATTITUDE": 41.801670035
  }, 
  {
    "BUSINESS_TYPE": "Automatic Amusement Device Operator", 
    "LEGAL_NAME": "EDWARD CZYZOWICZ", 
    "STATE": "IL", 
    "DOING_BUSINESS_AS_NAME": "INTER CITY AMUSEMENT", 
    "POP_AT_RISK": 68120, 
    "ZIP": 60657, 
    "ADDRESS": "3470 N LAKE SHORE DR", 
    "YEAR": 2004, 
    "LONGITUDE": -87.641954552, 
    "LATTITUDE": 41.945745706
  }, 
  {
    "BUSINESS_TYPE": "Automatic Amusement Device Operator", 
    "LEGAL_NAME": "KING AMUSEMENTS, INC", 
    "STATE": "IL", 
    "DOING_BUSINESS_AS_NAME": "KING AMUSEMENTS INC.", 
    "POP_AT_RISK": 17702, 
    "ZIP": 60617, 
    "ADDRESS": "9019 S COMMERCIAL AVE", 
    "YEAR": 2004, 
    "LONGITUDE": -87.55113956, 
    "LATTITUDE": 41.731302578
  }, 
  {
    "BUSINESS_TYPE": "Automatic Amusement Device Operator", 
    "LEGAL_NAME": "MARIAN JANICZEK", 
    "STATE": "IL", 
    "DOING_BUSINESS_AS_NAME": "DARMAR AMUSEMENT SERVICE", 
    "POP_AT_RISK": 52534, 
    "ZIP": 60634, 
    "ADDRESS": "5758 W ADDISON ST 1ST", 
    "YEAR": 2004, 
    "LONGITUDE": -87.771509385, 
    "LATTITUDE": 41.94593543
  }, 
  {
    "BUSINESS_TYPE": "Automatic Amusement Device Operator", 
    "LEGAL_NAME": "VELASQUEZ AUTOMATIC MUSIC COMPANY, INC.", 
    "STATE": "IL", 
    "DOING_BUSINESS_AS_NAME": "VELASQUEZ AUTOMATIC", 
    "POP_AT_RISK": 36250, 
    "ZIP": 60609, 
    "ADDRESS": "4541 S ASHLAND AVE", 
    "YEAR": 2004, 
    "LONGITUDE": -87.664887797, 
    "LATTITUDE": 41.811016655
  }, 
  {
    "BUSINESS_TYPE": "Automatic Amusement Device Operator", 
    "LEGAL_NAME": "DON LINDY INC.", 
    "STATE": "IL", 
    "DOING_BUSINESS_AS_NAME": "DON LINDY INC", 
    "POP_AT_RISK": 55296, 
    "ZIP": 60629, 
    "ADDRESS": "5756 S PULASKI RD", 
    "YEAR": 2004, 
    "LONGITUDE": -87.723157978, 
    "LATTITUDE": 41.787863141
  }, 
  {
    "BUSINESS_TYPE": "Automatic Amusement Device Operator", 
    "LEGAL_NAME": "STAR MUSIC, INC.", 
    "STATE": "IL", 
    "DOING_BUSINESS_AS_NAME": "STAR MUSIC INC", 
    "POP_AT_RISK": 46139, 
    "ZIP": 60634, 
    "ADDRESS": "3943 N AUSTIN AVE", 
    "YEAR": 2004, 
    "LONGITUDE": -87.776609037, 
    "LATTITUDE": 41.952487219
  }, 
  {
    "BUSINESS_TYPE": "Automatic Amusement Device Operator", 
    "LEGAL_NAME": "JAMES FLEMING", 
    "STATE": "IL", 
    "DOING_BUSINESS_AS_NAME": "SOUTHWAY MUSIC CO", 
    "POP_AT_RISK": 38927, 
    "ZIP": 60637, 
    "ADDRESS": "1547 E 67TH PL", 
    "YEAR": 2004, 
    "LONGITUDE": -87.586872778, 
    "LATTITUDE": 41.772310688
  }
]