[
  {
    "BUSINESS_TYPE": "Tobacco Dealer Wholesale", 
    "LEGAL_NAME": "EAST-WEST TRADING CORPORATION, LTD.", 
    "STATE": "IL", 
    "DOING_BUSINESS_AS_NAME": "EAST WEST TRADING CORP", 
    "POP_AT_RISK": 55796, 
    "ZIP": 60625, 
    "ADDRESS": "5343 N KEDZIE AVE 1", 
    "YEAR": 2013, 
    "LONGITUDE": -87.708608839, 
    "LATTITUDE": 41.978762701
  }, 
  {
    "BUSINESS_TYPE": "Tobacco Dealer Wholesale", 
    "LEGAL_NAME": "DEARBORN WHOLESALE GROCERS LP", 
    "STATE": "IL", 
    "DOING_BUSINESS_AS_NAME": "DEARBORN WHOLESALE GROCER LP", 
    "POP_AT_RISK": 30690, 
    "ZIP": 60624, 
    "ADDRESS": "4525 W MADISON ST 1 #", 
    "YEAR": 2013, 
    "LONGITUDE": -87.738896577, 
    "LATTITUDE": 41.880460999
  }, 
  {
    "BUSINESS_TYPE": "Tobacco Dealer Wholesale", 
    "LEGAL_NAME": "COSTCO WHOLESALE CORPORATION", 
    "STATE": "IL", 
    "DOING_BUSINESS_AS_NAME": "COSTCO WHOLESALE", 
    "POP_AT_RISK": 43417, 
    "ZIP": 60521, 
    "ADDRESS": "1901 W 22ND ST  1ST", 
    "YEAR": 2013, 
    "LONGITUDE": -87.67351036, 
    "LATTITUDE": 41.852099675
  }, 
  {
    "BUSINESS_TYPE": "Tobacco Dealer Wholesale", 
    "LEGAL_NAME": "STOP N LOOK FOOD & DELI INC.", 
    "STATE": "IL", 
    "DOING_BUSINESS_AS_NAME": "STOP N LOOK FOOD & DELI", 
    "POP_AT_RISK": 36599, 
    "ZIP": 60623, 
    "ADDRESS": "4310 W 16TH ST 1ST", 
    "YEAR": 2013, 
    "LONGITUDE": -87.732774981, 
    "LATTITUDE": 41.858868389
  }, 
  {
    "BUSINESS_TYPE": "Tobacco Dealer Wholesale", 
    "LEGAL_NAME": "DEARBORN WHOLESALE GROCERS LP", 
    "STATE": "IL", 
    "DOING_BUSINESS_AS_NAME": "DEARBORN MARKETPLACE", 
    "POP_AT_RISK": 36350, 
    "ZIP": 60608, 
    "ADDRESS": "2455 S DAMEN AVE 1ST", 
    "YEAR": 2013, 
    "LONGITUDE": -87.675558611, 
    "LATTITUDE": 41.846990998
  }, 
  {
    "BUSINESS_TYPE": "Tobacco Dealer Wholesale", 
    "LEGAL_NAME": "LOGAN BUSINESS INC.", 
    "STATE": "IL", 
    "DOING_BUSINESS_AS_NAME": "JD - WAREHOUSE", 
    "POP_AT_RISK": 53363, 
    "ZIP": 60647, 
    "ADDRESS": "2627 N WESTERN AVE BAS& 1ST", 
    "YEAR": 2013, 
    "LONGITUDE": -87.687662849, 
    "LATTITUDE": 41.929614006
  }, 
  {
    "BUSINESS_TYPE": "Tobacco Dealer Wholesale", 
    "LEGAL_NAME": "SUPERVALU INC.", 
    "STATE": "IL", 
    "DOING_BUSINESS_AS_NAME": "SUPERVALU INC.", 
    "POP_AT_RISK": 76172, 
    "ZIP": 61802, 
    "ADDRESS": "2611 N LINCOLN", 
    "YEAR": 2013, 
    "LONGITUDE": -87.653996869, 
    "LATTITUDE": 41.929336759
  }, 
  {
    "BUSINESS_TYPE": "Tobacco Dealer Wholesale", 
    "LEGAL_NAME": "L & P WHOLESALE CANDY", 
    "STATE": "IL", 
    "DOING_BUSINESS_AS_NAME": "L & P WHOLESALE CANDY", 
    "POP_AT_RISK": 36237, 
    "ZIP": 60637, 
    "ADDRESS": "7047 S STATE ST  1ST", 
    "YEAR": 2013, 
    "LONGITUDE": -87.624776326, 
    "LATTITUDE": 41.766025605
  }, 
  {
    "BUSINESS_TYPE": "Tobacco Dealer Wholesale", 
    "LEGAL_NAME": "MIDWAY WHOLESALERS, INC.", 
    "STATE": "IL", 
    "DOING_BUSINESS_AS_NAME": "MIDWAY WHOLESALERS", 
    "POP_AT_RISK": 35159, 
    "ZIP": 60620, 
    "ADDRESS": "41 W 84TH ST  1ST", 
    "YEAR": 2013, 
    "LONGITUDE": -87.625976311, 
    "LATTITUDE": 41.741705076
  }, 
  {
    "BUSINESS_TYPE": "Tobacco Dealer Wholesale", 
    "LEGAL_NAME": "EXPRESS WHOLESALE GROCERS INC", 
    "STATE": "IL", 
    "DOING_BUSINESS_AS_NAME": "EXPRESS WHOLESALE GROCERS INC", 
    "POP_AT_RISK": 38266, 
    "ZIP": 60619, 
    "ADDRESS": "7729 S STATE ST 1ST 1NORTH", 
    "YEAR": 2013, 
    "LONGITUDE": -87.624479155, 
    "LATTITUDE": 41.753712851
  }, 
  {
    "BUSINESS_TYPE": "Tobacco Dealer Wholesale", 
    "LEGAL_NAME": "A&D CANDY, INC.", 
    "STATE": "IL", 
    "DOING_BUSINESS_AS_NAME": "A&D CANDY, INC.", 
    "POP_AT_RISK": 56126, 
    "ZIP": 60639, 
    "ADDRESS": "4545 W ARMITAGE AVE", 
    "YEAR": 2013, 
    "LONGITUDE": -87.740547911, 
    "LATTITUDE": 41.916885062
  }, 
  {
    "BUSINESS_TYPE": "Tobacco Dealer Wholesale", 
    "LEGAL_NAME": "DEARBORN WHOLESALE GROCERS LP", 
    "STATE": "IL", 
    "DOING_BUSINESS_AS_NAME": "DEARBORN WHOLESALE GROCER LP", 
    "POP_AT_RISK": 29702, 
    "ZIP": 60620, 
    "ADDRESS": "1841 W 79TH ST 1 #", 
    "YEAR": 2013, 
    "LONGITUDE": -87.669889517, 
    "LATTITUDE": 41.750161677
  }, 
  {
    "BUSINESS_TYPE": "Tobacco Dealer Wholesale", 
    "LEGAL_NAME": "YASIR CORPORATION", 
    "STATE": "IL", 
    "DOING_BUSINESS_AS_NAME": "YASIR CORPORATION", 
    "POP_AT_RISK": 67350, 
    "ZIP": 60625, 
    "ADDRESS": "3620 W LAWRENCE AVE 1ST", 
    "YEAR": 2013, 
    "LONGITUDE": -87.719163003, 
    "LATTITUDE": 41.968447574
  }, 
  {
    "BUSINESS_TYPE": "Tobacco Dealer Wholesale", 
    "LEGAL_NAME": "EMPIRE DISTRIBUTORS, INC.", 
    "STATE": "IL", 
    "DOING_BUSINESS_AS_NAME": "EMPIRE DISTRIBUTOR INC", 
    "POP_AT_RISK": 60577, 
    "ZIP": 60641, 
    "ADDRESS": "4120 W BELMONT AVE 1ST", 
    "YEAR": 2013, 
    "LONGITUDE": -87.730508483, 
    "LATTITUDE": 41.9391613
  }, 
  {
    "BUSINESS_TYPE": "Tobacco Dealer Wholesale", 
    "LEGAL_NAME": "ELSTON SELF SERVICE", 
    "STATE": "IL", 
    "DOING_BUSINESS_AS_NAME": "ELSTON SELF SERVICE", 
    "POP_AT_RISK": 59410, 
    "ZIP": 60618, 
    "ADDRESS": "3761 N ELSTON AVE", 
    "YEAR": 2013, 
    "LONGITUDE": -87.713454828, 
    "LATTITUDE": 41.949937557
  }, 
  {
    "BUSINESS_TYPE": "Tobacco Dealer Wholesale", 
    "LEGAL_NAME": "DEARBORN WHOLESALE GROCERS LP", 
    "STATE": "IL", 
    "DOING_BUSINESS_AS_NAME": "DEARBORN WHOLESALE GROCERS INC", 
    "POP_AT_RISK": 74302, 
    "ZIP": 60613, 
    "ADDRESS": "918 W MONTROSE AVE 1ST #", 
    "YEAR": 2013, 
    "LONGITUDE": -87.653127379, 
    "LATTITUDE": 41.961909845
  }, 
  {
    "BUSINESS_TYPE": "Tobacco Dealer Wholesale", 
    "LEGAL_NAME": "DEARBORN WHOLESALE GROCERS LP", 
    "STATE": "IL", 
    "DOING_BUSINESS_AS_NAME": "DEARBORN WHOLESALE GROCER LP", 
    "POP_AT_RISK": 27650, 
    "ZIP": 60608, 
    "ADDRESS": "2801 S WESTERN AVE", 
    "YEAR": 2013, 
    "LONGITUDE": -87.685132035, 
    "LATTITUDE": 41.841114992
  }, 
  {
    "BUSINESS_TYPE": "Tobacco Dealer Wholesale", 
    "LEGAL_NAME": "COSTCO WHOLESALE CORPORATION", 
    "STATE": "IL", 
    "DOING_BUSINESS_AS_NAME": "Costco Wholesale # 380", 
    "POP_AT_RISK": 62702, 
    "ZIP": 60614, 
    "ADDRESS": "2746 N CLYBOURN AVE", 
    "YEAR": 2013, 
    "LONGITUDE": -87.676864018, 
    "LATTITUDE": 41.931021006
  }, 
  {
    "BUSINESS_TYPE": "Tobacco Dealer Wholesale", 
    "LEGAL_NAME": "MIDWESTERN CASH AND CARRY, LLC", 
    "STATE": "IL", 
    "DOING_BUSINESS_AS_NAME": "CASH & CARRY WHOLESALE", 
    "POP_AT_RISK": 65033, 
    "ZIP": 60647, 
    "ADDRESS": "2577 W ARMITAGE AVE 1ST", 
    "YEAR": 2013, 
    "LONGITUDE": -87.692211807, 
    "LATTITUDE": 41.917422762
  }, 
  {
    "BUSINESS_TYPE": "Tobacco Dealer Wholesale", 
    "LEGAL_NAME": "COSTCO WHOLESALE CORPORATION", 
    "STATE": "IL", 
    "DOING_BUSINESS_AS_NAME": "COSTCO BUSINESS CENTER #580", 
    "POP_AT_RISK": 4421, 
    "ZIP": 60629, 
    "ADDRESS": "7300 S CICERO AVE  381", 
    "YEAR": 2013, 
    "LONGITUDE": -87.741920032, 
    "LATTITUDE": 41.760377499
  }, 
  {
    "BUSINESS_TYPE": "Tobacco Dealer Wholesale", 
    "LEGAL_NAME": "PULASKI DISCOUNT INC.", 
    "STATE": "IL", 
    "DOING_BUSINESS_AS_NAME": "PULASKI DISCOUNT INC.", 
    "POP_AT_RISK": 58807, 
    "ZIP": 60641, 
    "ADDRESS": "4159 W MONTROSE AVE 1ST", 
    "YEAR": 2013, 
    "LONGITUDE": -87.731898899, 
    "LATTITUDE": 41.960791551
  }, 
  {
    "BUSINESS_TYPE": "Tobacco Dealer Wholesale", 
    "LEGAL_NAME": "CHAMBERS & OWEN, INC.", 
    "STATE": "WI", 
    "DOING_BUSINESS_AS_NAME": "CHAMBERS & OWEN, INC.", 
    "POP_AT_RISK": 65641, 
    "ZIP": 53545, 
    "ADDRESS": "1733  MORSE ST", 
    "YEAR": 2013, 
    "LONGITUDE": -87.67360154, 
    "LATTITUDE": 42.007667272
  }, 
  {
    "BUSINESS_TYPE": "Tobacco Dealer Wholesale", 
    "LEGAL_NAME": "NADER WHOLESALE GROCERS INC", 
    "STATE": "IL", 
    "DOING_BUSINESS_AS_NAME": "NADER WHOLESALE GROCERS INC", 
    "POP_AT_RISK": 27493, 
    "ZIP": 60652, 
    "ADDRESS": "3636 W 83RD PL", 
    "YEAR": 2013, 
    "LONGITUDE": -87.71354242, 
    "LATTITUDE": 41.741506927
  }, 
  {
    "BUSINESS_TYPE": "Tobacco Dealer Wholesale", 
    "LEGAL_NAME": "PAK DISCOUNT INC.", 
    "STATE": "IL", 
    "DOING_BUSINESS_AS_NAME": "PAK DISCOUNT INC.", 
    "POP_AT_RISK": 71120, 
    "ZIP": 60625, 
    "ADDRESS": "3823 W LAWRENCE AVE 1", 
    "YEAR": 2013, 
    "LONGITUDE": -87.724149454, 
    "LATTITUDE": 41.968173604
  }
]