[
  {
    "BUSINESS_TYPE": "Secondhand Dealer", 
    "LEGAL_NAME": "MY SISTER'S CLOSET, LTD.", 
    "STATE": "IL", 
    "DOING_BUSINESS_AS_NAME": "MY SISTER'S CLOSET", 
    "POP_AT_RISK": 17956, 
    "ZIP": 60646, 
    "ADDRESS": "5413 W DEVON AVE 1ST", 
    "YEAR": 2005, 
    "LONGITUDE": -87.764322939, 
    "LATTITUDE": 41.997218562
  }, 
  {
    "BUSINESS_TYPE": "Secondhand Dealer", 
    "LEGAL_NAME": "BLOCKBUSTER INC.", 
    "STATE": "IL", 
    "DOING_BUSINESS_AS_NAME": "BLOCKBUSTER VIDEO #17320", 
    "POP_AT_RISK": 22813, 
    "ZIP": 60638, 
    "ADDRESS": "5907 S ARCHER AVE", 
    "YEAR": 2005, 
    "LONGITUDE": -87.763123506, 
    "LATTITUDE": 41.795485521
  }, 
  {
    "BUSINESS_TYPE": "Secondhand Dealer", 
    "LEGAL_NAME": "BLOCKBUSTER INC.", 
    "STATE": "IL", 
    "DOING_BUSINESS_AS_NAME": "BLOCKBUSTER VIDEO #17046", 
    "POP_AT_RISK": 33756, 
    "ZIP": 60630, 
    "ADDRESS": "5316 N MILWAUKEE AVE", 
    "YEAR": 2005, 
    "LONGITUDE": -87.769074312, 
    "LATTITUDE": 41.976936888
  }, 
  {
    "BUSINESS_TYPE": "Secondhand Dealer", 
    "LEGAL_NAME": "BLOCKBUSTER INC.", 
    "STATE": "IL", 
    "DOING_BUSINESS_AS_NAME": "BLOCKBUSTER VIDEO #17262", 
    "POP_AT_RISK": 43283, 
    "ZIP": 60615, 
    "ADDRESS": "5052 S COTTAGE GROVE AVE", 
    "YEAR": 2005, 
    "LONGITUDE": -87.606561735, 
    "LATTITUDE": 41.802483716
  }, 
  {
    "BUSINESS_TYPE": "Secondhand Dealer", 
    "LEGAL_NAME": "BLOCKBUSTER INC.", 
    "STATE": "IL", 
    "DOING_BUSINESS_AS_NAME": "BLOCKBUSTER VIDEO #17319", 
    "POP_AT_RISK": 32474, 
    "ZIP": 60616, 
    "ADDRESS": "3349 S DR MARTIN LUTHER KING JR DR  1ST", 
    "YEAR": 2005, 
    "LONGITUDE": -87.616867477, 
    "LATTITUDE": 41.833519374
  }, 
  {
    "BUSINESS_TYPE": "Secondhand Dealer", 
    "LEGAL_NAME": "REO MOVERS & VAN LINES, INC.", 
    "STATE": "IL", 
    "DOING_BUSINESS_AS_NAME": "REO MOVERS & VAN LINES", 
    "POP_AT_RISK": 35442, 
    "ZIP": 60637, 
    "ADDRESS": "7000 S SOUTH CHICAGO AVE 1ST", 
    "YEAR": 2005, 
    "LONGITUDE": -87.608573155, 
    "LATTITUDE": 41.76785686
  }, 
  {
    "BUSINESS_TYPE": "Secondhand Dealer", 
    "LEGAL_NAME": "HOLLYWOOD ENTERTAINMENT CORPORATION", 
    "STATE": "IL", 
    "DOING_BUSINESS_AS_NAME": "GAME CRAZY #113950", 
    "POP_AT_RISK": 26743, 
    "ZIP": 60628, 
    "ADDRESS": "11438 S MICHIGAN AVE  MAIN", 
    "YEAR": 2005, 
    "LONGITUDE": -87.620973181, 
    "LATTITUDE": 41.685954108
  }, 
  {
    "BUSINESS_TYPE": "Secondhand Dealer", 
    "LEGAL_NAME": "MOHAMED ALSHAIKH", 
    "STATE": "IL", 
    "DOING_BUSINESS_AS_NAME": "YALU", 
    "POP_AT_RISK": 47738, 
    "ZIP": 60623, 
    "ADDRESS": "4024 W 16TH ST", 
    "YEAR": 2005, 
    "LONGITUDE": -87.726123263, 
    "LATTITUDE": 41.8589623
  }, 
  {
    "BUSINESS_TYPE": "Secondhand Dealer", 
    "LEGAL_NAME": "BLOCKBUSTER INC.", 
    "STATE": "IL", 
    "DOING_BUSINESS_AS_NAME": "BLOCKBUSTER VIDEO #17353", 
    "POP_AT_RISK": 32659, 
    "ZIP": 60608, 
    "ADDRESS": "3145 S ASHLAND AVE", 
    "YEAR": 2005, 
    "LONGITUDE": -87.665566902, 
    "LATTITUDE": 41.836468348
  }, 
  {
    "BUSINESS_TYPE": "Secondhand Dealer", 
    "LEGAL_NAME": "GUILLERMINA RESTREPO", 
    "STATE": "IL", 
    "DOING_BUSINESS_AS_NAME": "MANERSS JEWELRY", 
    "POP_AT_RISK": 42572, 
    "ZIP": 60632, 
    "ADDRESS": "4336 S ARCHER AVE 1ST", 
    "YEAR": 2005, 
    "LONGITUDE": -87.703567538, 
    "LATTITUDE": 41.814647678
  }, 
  {
    "BUSINESS_TYPE": "Secondhand Dealer", 
    "LEGAL_NAME": "BLOCKBUSTER INC.", 
    "STATE": "IL", 
    "DOING_BUSINESS_AS_NAME": "BLOCKBUSTER VIDEO #17370", 
    "POP_AT_RISK": 12033, 
    "ZIP": 60656, 
    "ADDRESS": "4626 N CUMBERLAND AVE", 
    "YEAR": 2005, 
    "LONGITUDE": -87.836838655, 
    "LATTITUDE": 41.963837023
  }, 
  {
    "BUSINESS_TYPE": "Secondhand Dealer", 
    "LEGAL_NAME": "GAMESTOP, INC.", 
    "STATE": "IL", 
    "DOING_BUSINESS_AS_NAME": "GAMESTOP #573", 
    "POP_AT_RISK": 17656, 
    "ZIP": 60652, 
    "ADDRESS": "7945 S CICERO AVE", 
    "YEAR": 2005, 
    "LONGITUDE": -87.741158465, 
    "LATTITUDE": 41.748194203
  }, 
  {
    "BUSINESS_TYPE": "Secondhand Dealer", 
    "LEGAL_NAME": "BLOCKBUSTER INC.", 
    "STATE": "IL", 
    "DOING_BUSINESS_AS_NAME": "BLOCKBUSTER VIDEO #17276", 
    "POP_AT_RISK": 41511, 
    "ZIP": 60620, 
    "ADDRESS": "7927 S ASHLAND AVE", 
    "YEAR": 2005, 
    "LONGITUDE": -87.663271885, 
    "LATTITUDE": 41.749528734
  }, 
  {
    "BUSINESS_TYPE": "Secondhand Dealer", 
    "LEGAL_NAME": "CHICAGO COIN CO INC", 
    "STATE": "IL", 
    "DOING_BUSINESS_AS_NAME": "CHICAGO COIN CO INC", 
    "POP_AT_RISK": 30725, 
    "ZIP": 60638, 
    "ADDRESS": "6455 W ARCHER AVE", 
    "YEAR": 2005, 
    "LONGITUDE": -87.784016967, 
    "LATTITUDE": 41.792189169
  }, 
  {
    "BUSINESS_TYPE": "Secondhand Dealer", 
    "LEGAL_NAME": "WORLD COINS & ANTIQUES CORP", 
    "STATE": "IL", 
    "DOING_BUSINESS_AS_NAME": "WORLD COINS & ANTIQUES CORP", 
    "POP_AT_RISK": 44070, 
    "ZIP": 60634, 
    "ADDRESS": "6053 W IRVING PARK RD", 
    "YEAR": 2005, 
    "LONGITUDE": -87.778921414, 
    "LATTITUDE": 41.952906894
  }, 
  {
    "BUSINESS_TYPE": "Secondhand Dealer", 
    "LEGAL_NAME": "SELECT FURNITURE INC.", 
    "STATE": "IL", 
    "DOING_BUSINESS_AS_NAME": "SELECT FURNITURE INC", 
    "POP_AT_RISK": 29055, 
    "ZIP": 60620, 
    "ADDRESS": "9401 S ASHLAND AVE", 
    "YEAR": 2005, 
    "LONGITUDE": -87.662569845, 
    "LATTITUDE": 41.722943435
  }, 
  {
    "BUSINESS_TYPE": "Secondhand Dealer", 
    "LEGAL_NAME": "MARGARET A. CATO", 
    "STATE": "IL", 
    "DOING_BUSINESS_AS_NAME": "CATO'S RESALE SHOP", 
    "POP_AT_RISK": 30068, 
    "ZIP": 60643, 
    "ADDRESS": "9912 S VINCENNES AVE 1ST", 
    "YEAR": 2005, 
    "LONGITUDE": -87.653625279, 
    "LATTITUDE": 41.713667681
  }, 
  {
    "BUSINESS_TYPE": "Secondhand Dealer", 
    "LEGAL_NAME": "GAMESTOP, INC.", 
    "STATE": "IL", 
    "DOING_BUSINESS_AS_NAME": "GAMESTOP #1569", 
    "POP_AT_RISK": 22258, 
    "ZIP": 60609, 
    "ADDRESS": "5401 S WENTWORTH AVE", 
    "YEAR": 2005, 
    "LONGITUDE": -87.630404924, 
    "LATTITUDE": 41.796234875
  }, 
  {
    "BUSINESS_TYPE": "Secondhand Dealer", 
    "LEGAL_NAME": "CHUN JA CHA", 
    "STATE": "IL", 
    "DOING_BUSINESS_AS_NAME": "C & J FINE JEWELRY", 
    "POP_AT_RISK": 31674, 
    "ZIP": 60628, 
    "ADDRESS": "11215 S MICHIGAN AVE 1ST", 
    "YEAR": 2005, 
    "LONGITUDE": -87.620876017, 
    "LATTITUDE": 41.690311625
  }, 
  {
    "BUSINESS_TYPE": "Secondhand Dealer", 
    "LEGAL_NAME": "HELIX LIMITED", 
    "STATE": "IL", 
    "DOING_BUSINESS_AS_NAME": "HELIX LIMITED-COLOR SERVICE- SPEEDOTRON CORP", 
    "POP_AT_RISK": 39868, 
    "ZIP": 60607, 
    "ADDRESS": "310 S RACINE AVE 1-4", 
    "YEAR": 2005, 
    "LONGITUDE": -87.657157985, 
    "LATTITUDE": 41.877430702
  }, 
  {
    "BUSINESS_TYPE": "Secondhand Dealer", 
    "LEGAL_NAME": "BLOCKBUSTER INC.", 
    "STATE": "IL", 
    "DOING_BUSINESS_AS_NAME": "BLOCKBUSTER VIDEO #17464", 
    "POP_AT_RISK": 24821, 
    "ZIP": 60643, 
    "ADDRESS": "10911 S WESTERN AVE", 
    "YEAR": 2005, 
    "LONGITUDE": -87.68111373, 
    "LATTITUDE": 41.695053434
  }, 
  {
    "BUSINESS_TYPE": "Secondhand Dealer", 
    "LEGAL_NAME": "NANCY ELLA SMITH", 
    "STATE": "IL", 
    "DOING_BUSINESS_AS_NAME": "THE FURNITURE EDGE", 
    "POP_AT_RISK": 37537, 
    "ZIP": 60619, 
    "ADDRESS": "449 E 79TH ST", 
    "YEAR": 2005, 
    "LONGITUDE": -87.612978895, 
    "LATTITUDE": 41.751041828
  }, 
  {
    "BUSINESS_TYPE": "Secondhand Dealer", 
    "LEGAL_NAME": "J & K BUY AND SELL JEWELERS, INC.", 
    "STATE": "IL", 
    "DOING_BUSINESS_AS_NAME": "J & K BUY AND SELL JEWELERS, INC.", 
    "POP_AT_RISK": 61269, 
    "ZIP": 60629, 
    "ADDRESS": "2606 W 59TH ST", 
    "YEAR": 2005, 
    "LONGITUDE": -87.689056546, 
    "LATTITUDE": 41.786591747
  }, 
  {
    "BUSINESS_TYPE": "Secondhand Dealer", 
    "LEGAL_NAME": "SHIRLEY MCGARY", 
    "STATE": "IL", 
    "DOING_BUSINESS_AS_NAME": "LANDMARK LIQUIDATIONS", 
    "POP_AT_RISK": 27135, 
    "ZIP": 60621, 
    "ADDRESS": "5853 S HALSTED ST", 
    "YEAR": 2005, 
    "LONGITUDE": -87.644828446, 
    "LATTITUDE": 41.787243514
  }, 
  {
    "BUSINESS_TYPE": "Secondhand Dealer", 
    "LEGAL_NAME": "BLOCKBUSTER INC.", 
    "STATE": "IL", 
    "DOING_BUSINESS_AS_NAME": "BLOCKBUSTER VIDEO #17446", 
    "POP_AT_RISK": 34675, 
    "ZIP": 60628, 
    "ADDRESS": "11107 S HALSTED ST 1ST", 
    "YEAR": 2005, 
    "LONGITUDE": -87.64222571, 
    "LATTITUDE": 41.692097716
  }, 
  {
    "BUSINESS_TYPE": "Secondhand Dealer", 
    "LEGAL_NAME": "HOLLYWOOD ENTERTAINMENT CORPORATION", 
    "STATE": "IL", 
    "DOING_BUSINESS_AS_NAME": "HOLLYWOOD VIDEO #013-944", 
    "POP_AT_RISK": 33992, 
    "ZIP": 60620, 
    "ADDRESS": "2000 W 79TH ST", 
    "YEAR": 2005, 
    "LONGITUDE": -87.673196898, 
    "LATTITUDE": 41.750340437
  }, 
  {
    "BUSINESS_TYPE": "Secondhand Dealer", 
    "LEGAL_NAME": "SALAM E MANSOUR", 
    "STATE": "IL", 
    "DOING_BUSINESS_AS_NAME": "SALAM E MANSOUR", 
    "POP_AT_RISK": 20340, 
    "ZIP": 60609, 
    "ADDRESS": "4100 S ASHLAND AVE  4-5", 
    "YEAR": 2005, 
    "LONGITUDE": -87.665375545, 
    "LATTITUDE": 41.819441426
  }, 
  {
    "BUSINESS_TYPE": "Secondhand Dealer", 
    "LEGAL_NAME": "GAMESTOP, INC.", 
    "STATE": "IL", 
    "DOING_BUSINESS_AS_NAME": "GAMESTOP #476", 
    "POP_AT_RISK": 31157, 
    "ZIP": 60607, 
    "ADDRESS": "1252 S CANAL ST", 
    "YEAR": 2005, 
    "LONGITUDE": -87.639348601, 
    "LATTITUDE": 41.865808024
  }, 
  {
    "BUSINESS_TYPE": "Secondhand Dealer", 
    "LEGAL_NAME": "A NICHE IN TIME, INC", 
    "STATE": "IL", 
    "DOING_BUSINESS_AS_NAME": "A NICHE IN TIME ANTIQUES & COL", 
    "POP_AT_RISK": 26137, 
    "ZIP": 60631, 
    "ADDRESS": "6052 N AVONDALE AVE 1ST", 
    "YEAR": 2005, 
    "LONGITUDE": -87.799546882, 
    "LATTITUDE": 41.991161792
  }, 
  {
    "BUSINESS_TYPE": "Secondhand Dealer", 
    "LEGAL_NAME": "SERGIO V. JEWELRY, LTD.", 
    "STATE": "IL", 
    "DOING_BUSINESS_AS_NAME": "SERGIO VAZQUEZ", 
    "POP_AT_RISK": 62644, 
    "ZIP": 60629, 
    "ADDRESS": "3143 W 63RD ST 1ST", 
    "YEAR": 2005, 
    "LONGITUDE": -87.702397905, 
    "LATTITUDE": 41.778872897
  }, 
  {
    "BUSINESS_TYPE": "Secondhand Dealer", 
    "LEGAL_NAME": "RAYMOND A RAMSEY", 
    "STATE": "IL", 
    "DOING_BUSINESS_AS_NAME": "CASH MONEY BUYERS", 
    "POP_AT_RISK": 41136, 
    "ZIP": 60624, 
    "ADDRESS": "20 S PULASKI RD", 
    "YEAR": 2005, 
    "LONGITUDE": -87.725794052, 
    "LATTITUDE": 41.880024024
  }, 
  {
    "BUSINESS_TYPE": "Secondhand Dealer", 
    "LEGAL_NAME": "NUTEMP, INC", 
    "STATE": "IL", 
    "DOING_BUSINESS_AS_NAME": "NUTEMP INC", 
    "POP_AT_RISK": 33046, 
    "ZIP": 60623, 
    "ADDRESS": "3348 S PULASKI RD", 
    "YEAR": 2005, 
    "LONGITUDE": -87.724395923, 
    "LATTITUDE": 41.832144031
  }, 
  {
    "BUSINESS_TYPE": "Secondhand Dealer", 
    "LEGAL_NAME": "FRANCISCO MERAZ", 
    "STATE": "IL", 
    "DOING_BUSINESS_AS_NAME": "SOUTH CHICAGO USED APPLIANCE", 
    "POP_AT_RISK": 13632, 
    "ZIP": 60617, 
    "ADDRESS": "9654 S EWING AVE", 
    "YEAR": 2005, 
    "LONGITUDE": -87.535435199, 
    "LATTITUDE": 41.719751197
  }, 
  {
    "BUSINESS_TYPE": "Secondhand Dealer", 
    "LEGAL_NAME": "DAE WOO KIM", 
    "STATE": "IL", 
    "DOING_BUSINESS_AS_NAME": "PAGER TEK", 
    "POP_AT_RISK": 21745, 
    "ZIP": 60609, 
    "ADDRESS": "4666 S HALSTED ST", 
    "YEAR": 2005, 
    "LONGITUDE": -87.645689641, 
    "LATTITUDE": 41.809000375
  }, 
  {
    "BUSINESS_TYPE": "Secondhand Dealer", 
    "LEGAL_NAME": "SUZANNE LAZER", 
    "STATE": "IL", 
    "DOING_BUSINESS_AS_NAME": "THE ANTIQUE & RESALE SHOPPE", 
    "POP_AT_RISK": 13900, 
    "ZIP": 60631, 
    "ADDRESS": "7214 N HARLEM AVE 1ST", 
    "YEAR": 2005, 
    "LONGITUDE": -87.806779876, 
    "LATTITUDE": 42.012198711
  }, 
  {
    "BUSINESS_TYPE": "Secondhand Dealer", 
    "LEGAL_NAME": "RUSSELL  A.  RICOBENE", 
    "STATE": "IL", 
    "DOING_BUSINESS_AS_NAME": "RUSSELL  A. RICOBENE", 
    "POP_AT_RISK": 32959, 
    "ZIP": 60616, 
    "ADDRESS": "268 W 26TH ST 1ST", 
    "YEAR": 2005, 
    "LONGITUDE": -87.634594271, 
    "LATTITUDE": 41.845595732
  }
]