[
  {
    "BUSINESS_TYPE": "Retail Computing Center", 
    "LEGAL_NAME": "MATHER SENIOR OPTIONS", 
    "STATE": "IL", 
    "DOING_BUSINESS_AS_NAME": "MATHER'S-MORE THAN A CAFE", 
    "POP_AT_RISK": 59744, 
    "ZIP": 60634, 
    "ADDRESS": "3235 N CENTRAL AVE", 
    "YEAR": 2002, 
    "LONGITUDE": -87.766390515, 
    "LATTITUDE": 41.939654264
  }, 
  {
    "BUSINESS_TYPE": "Retail Computing Center", 
    "LEGAL_NAME": "CYBERPAD INC.", 
    "STATE": "IL", 
    "DOING_BUSINESS_AS_NAME": "CYPERPAD INC.", 
    "POP_AT_RISK": 64526, 
    "ZIP": 60622, 
    "ADDRESS": "2024 W CHICAGO AVE", 
    "YEAR": 2002, 
    "LONGITUDE": -87.678089832, 
    "LATTITUDE": 41.896001993
  }, 
  {
    "BUSINESS_TYPE": "Retail Computing Center", 
    "LEGAL_NAME": "SEUNG YUL CHOE", 
    "STATE": "IL", 
    "DOING_BUSINESS_AS_NAME": "METAL TECH", 
    "POP_AT_RISK": 65249, 
    "ZIP": 60618, 
    "ADDRESS": "3751 N WESTERN AVE", 
    "YEAR": 2002, 
    "LONGITUDE": -87.688202988, 
    "LATTITUDE": 41.950063077
  }, 
  {
    "BUSINESS_TYPE": "Retail Computing Center", 
    "LEGAL_NAME": "Armando Gallo", 
    "STATE": "IL", 
    "DOING_BUSINESS_AS_NAME": "PC DOC COMPUTER", 
    "POP_AT_RISK": 66544, 
    "ZIP": 60660, 
    "ADDRESS": "6361 N BROADWAY  1 1", 
    "YEAR": 2002, 
    "LONGITUDE": -87.660389669, 
    "LATTITUDE": 41.998106288
  }, 
  {
    "BUSINESS_TYPE": "Retail Computing Center", 
    "LEGAL_NAME": "CYBERNET CAFE INC", 
    "STATE": "IL", 
    "DOING_BUSINESS_AS_NAME": "CYBERNET", 
    "POP_AT_RISK": 12033, 
    "ZIP": 60656, 
    "ADDRESS": "4740 N CUMBERLAND AVE", 
    "YEAR": 2002, 
    "LONGITUDE": -87.836830505, 
    "LATTITUDE": 41.966204365
  }, 
  {
    "BUSINESS_TYPE": "Retail Computing Center", 
    "LEGAL_NAME": "GNXPERT NEURAL TECHNOLOGIES, INC.", 
    "STATE": "IL", 
    "DOING_BUSINESS_AS_NAME": "COMPUCLUB", 
    "POP_AT_RISK": 54698, 
    "ZIP": 60622, 
    "ADDRESS": "2306 W CHICAGO AVE", 
    "YEAR": 2002, 
    "LONGITUDE": -87.684750043, 
    "LATTITUDE": 41.895888935
  }, 
  {
    "BUSINESS_TYPE": "Retail Computing Center", 
    "LEGAL_NAME": "CYBERTECHK COMPUTER REPAIR INC", 
    "STATE": "IL", 
    "DOING_BUSINESS_AS_NAME": "CYBERTECHK COMPUTER REPAIR INC", 
    "POP_AT_RISK": 67708, 
    "ZIP": 60647, 
    "ADDRESS": "2359 N CALIFORNIA AVE", 
    "YEAR": 2002, 
    "LONGITUDE": -87.697258587, 
    "LATTITUDE": 41.924534154
  }, 
  {
    "BUSINESS_TYPE": "Retail Computing Center", 
    "LEGAL_NAME": "JAMES L TAYLOR", 
    "STATE": "IL", 
    "DOING_BUSINESS_AS_NAME": "J T'S COMPUTER CENTER", 
    "POP_AT_RISK": 41511, 
    "ZIP": 60620, 
    "ADDRESS": "1648 W 79TH ST 1ST", 
    "YEAR": 2002, 
    "LONGITUDE": -87.66538577, 
    "LATTITUDE": 41.750438575
  }, 
  {
    "BUSINESS_TYPE": "Retail Computing Center", 
    "LEGAL_NAME": "SCREENZ-LINCOLN, LLC.", 
    "STATE": "IL", 
    "DOING_BUSINESS_AS_NAME": "SCREENZ LINCOLN PARK LLC", 
    "POP_AT_RISK": 86707, 
    "ZIP": 60614, 
    "ADDRESS": "2717 N CLARK ST", 
    "YEAR": 2002, 
    "LONGITUDE": -87.644421828, 
    "LATTITUDE": 41.931862898
  }, 
  {
    "BUSINESS_TYPE": "Retail Computing Center", 
    "LEGAL_NAME": "RELIABLE CONSULTING INC", 
    "STATE": "IL", 
    "DOING_BUSINESS_AS_NAME": "THE RELIABLE COMPUTER TRAINING SCHOOL", 
    "POP_AT_RISK": 43632, 
    "ZIP": 60630, 
    "ADDRESS": "5015 W LAWRENCE AVE", 
    "YEAR": 2002, 
    "LONGITUDE": -87.753340416, 
    "LATTITUDE": 41.967849032
  }, 
  {
    "BUSINESS_TYPE": "Retail Computing Center", 
    "LEGAL_NAME": "CYBERNET CAFE INC", 
    "STATE": "IL", 
    "DOING_BUSINESS_AS_NAME": "CYBERNET", 
    "POP_AT_RISK": 51736, 
    "ZIP": 60659, 
    "ADDRESS": "3222 W BRYN MAWR AVE", 
    "YEAR": 2002, 
    "LONGITUDE": -87.709784398, 
    "LATTITUDE": 41.983170261
  }, 
  {
    "BUSINESS_TYPE": "Retail Computing Center", 
    "LEGAL_NAME": "SURF' N THE NET CAFE'", 
    "STATE": "IL", 
    "DOING_BUSINESS_AS_NAME": "SURF'N THE NET CAFE'", 
    "POP_AT_RISK": 77198, 
    "ZIP": 60613, 
    "ADDRESS": "3710 N HALSTED ST", 
    "YEAR": 2002, 
    "LONGITUDE": -87.64970047, 
    "LATTITUDE": 41.94946514
  }, 
  {
    "BUSINESS_TYPE": "Retail Computing Center", 
    "LEGAL_NAME": "ADVANCE DYNAMIC SOLUTION INC.", 
    "STATE": "IL", 
    "DOING_BUSINESS_AS_NAME": "CYBER LAB", 
    "POP_AT_RISK": 29877, 
    "ZIP": 60616, 
    "ADDRESS": "2306 S WENTWORTH AVE", 
    "YEAR": 2002, 
    "LONGITUDE": -87.632115357, 
    "LATTITUDE": 41.850747688
  }, 
  {
    "BUSINESS_TYPE": "Retail Computing Center", 
    "LEGAL_NAME": "MATHER SENIOR OPTIONS", 
    "STATE": "IL", 
    "DOING_BUSINESS_AS_NAME": "MATHER'S-MORE THAN A CAFE", 
    "POP_AT_RISK": 24680, 
    "ZIP": 60656, 
    "ADDRESS": "7134 W HIGGINS AVE", 
    "YEAR": 2002, 
    "LONGITUDE": -87.805905466, 
    "LATTITUDE": 41.981000342
  }, 
  {
    "BUSINESS_TYPE": "Retail Computing Center", 
    "LEGAL_NAME": "FABIAN VIERA, SR.", 
    "STATE": "IL", 
    "DOING_BUSINESS_AS_NAME": "NC TECHNOLOGIE", 
    "POP_AT_RISK": 31517, 
    "ZIP": 60629, 
    "ADDRESS": "4342 W 63RD ST", 
    "YEAR": 2002, 
    "LONGITUDE": -87.731789971, 
    "LATTITUDE": 41.77866132
  }, 
  {
    "BUSINESS_TYPE": "Retail Computing Center", 
    "LEGAL_NAME": "ANDREW ASUNMO", 
    "STATE": "IL", 
    "DOING_BUSINESS_AS_NAME": "COMPUFIND", 
    "POP_AT_RISK": 65699, 
    "ZIP": 60640, 
    "ADDRESS": "4711 N BROADWAY  1", 
    "YEAR": 2002, 
    "LONGITUDE": -87.658760768, 
    "LATTITUDE": 41.967662976
  }, 
  {
    "BUSINESS_TYPE": "Retail Computing Center", 
    "LEGAL_NAME": "FEDEX OFFICE AND PRINT SERVICES, INC.", 
    "STATE": "IL", 
    "DOING_BUSINESS_AS_NAME": "FEDEX OFFICE AND PRINT SVCS, INC.", 
    "POP_AT_RISK": 74829, 
    "ZIP": 60610, 
    "ADDRESS": "1201 N DEARBORN ST  1", 
    "YEAR": 2002, 
    "LONGITUDE": -87.629841921, 
    "LATTITUDE": 41.904019547
  }, 
  {
    "BUSINESS_TYPE": "Retail Computing Center", 
    "LEGAL_NAME": "FEDEX OFFICE AND PRINT SERVICES, INC.", 
    "STATE": "IL", 
    "DOING_BUSINESS_AS_NAME": "FEDEX OFFICE AND PRINT SVCS, INC.", 
    "POP_AT_RISK": 65112, 
    "ZIP": 60622, 
    "ADDRESS": "1800 W NORTH AVE  1", 
    "YEAR": 2002, 
    "LONGITUDE": -87.672639081, 
    "LATTITUDE": 41.910670457
  }, 
  {
    "BUSINESS_TYPE": "Retail Computing Center", 
    "LEGAL_NAME": "FEDEX OFFICE AND PRINT SERVICES, INC.", 
    "STATE": "IL", 
    "DOING_BUSINESS_AS_NAME": "FEDEX OFFICE AND PRINT SVCS, INC.", 
    "POP_AT_RISK": 63679, 
    "ZIP": 60614, 
    "ADDRESS": "2300 N CLYBOURN AVE  1ST &", 
    "YEAR": 2002, 
    "LONGITUDE": -87.667428203, 
    "LATTITUDE": 41.923635406
  }, 
  {
    "BUSINESS_TYPE": "Retail Computing Center", 
    "LEGAL_NAME": "ROBERT EDWARD SMITH", 
    "STATE": "IL", 
    "DOING_BUSINESS_AS_NAME": "BEANNET INTERACTIVE", 
    "POP_AT_RISK": 23970, 
    "ZIP": 60628, 
    "ADDRESS": "547 E 103RD ST", 
    "YEAR": 2002, 
    "LONGITUDE": -87.60956738, 
    "LATTITUDE": 41.707269107
  }, 
  {
    "BUSINESS_TYPE": "Retail Computing Center", 
    "LEGAL_NAME": "WIRED", 
    "STATE": "IL", 
    "DOING_BUSINESS_AS_NAME": "WIRED", 
    "POP_AT_RISK": 44378, 
    "ZIP": 60608, 
    "ADDRESS": "1625 S BLUE ISLAND AVE", 
    "YEAR": 2002, 
    "LONGITUDE": -87.659996174, 
    "LATTITUDE": 41.859012085
  }, 
  {
    "BUSINESS_TYPE": "Retail Computing Center", 
    "LEGAL_NAME": "KIERKEN CORPORATION", 
    "STATE": "IL", 
    "DOING_BUSINESS_AS_NAME": "COMPUTERS BY THE HOUR & COPYING TOO", 
    "POP_AT_RISK": 39464, 
    "ZIP": 60619, 
    "ADDRESS": "358 E 79TH ST 1", 
    "YEAR": 2002, 
    "LONGITUDE": -87.615830187, 
    "LATTITUDE": 41.751211575
  }, 
  {
    "BUSINESS_TYPE": "Retail Computing Center", 
    "LEGAL_NAME": "INOSENTE SALGADO", 
    "STATE": "IL", 
    "DOING_BUSINESS_AS_NAME": "POSTAL CONNECTIONS", 
    "POP_AT_RISK": 10254, 
    "ZIP": 60638, 
    "ADDRESS": "5401 S HARLEM AVE", 
    "YEAR": 2002, 
    "LONGITUDE": -87.801442112, 
    "LATTITUDE": 41.793922946
  }, 
  {
    "BUSINESS_TYPE": "Retail Computing Center", 
    "LEGAL_NAME": "CHARISSE PARHAM", 
    "STATE": "IL", 
    "DOING_BUSINESS_AS_NAME": "FUTURE WORLD", 
    "POP_AT_RISK": 29206, 
    "ZIP": 60615, 
    "ADDRESS": "1744 E 55TH ST 1ST", 
    "YEAR": 2002, 
    "LONGITUDE": -87.582220608, 
    "LATTITUDE": 41.795356009
  }, 
  {
    "BUSINESS_TYPE": "Retail Computing Center", 
    "LEGAL_NAME": "CYBERNET CHICAGO INC", 
    "STATE": "IL", 
    "DOING_BUSINESS_AS_NAME": "CYBERNET CHICAGO INC.", 
    "POP_AT_RISK": 62328, 
    "ZIP": 60634, 
    "ADDRESS": "5743 W BELMONT AVE", 
    "YEAR": 2002, 
    "LONGITUDE": -87.770669224, 
    "LATTITUDE": 41.938409615
  }, 
  {
    "BUSINESS_TYPE": "Retail Computing Center", 
    "LEGAL_NAME": "HENRY B GRAY JR", 
    "STATE": "IL", 
    "DOING_BUSINESS_AS_NAME": "CHATHAM BUSINESS CENTER", 
    "POP_AT_RISK": 28423, 
    "ZIP": 60638, 
    "ADDRESS": "5700 S CICERO AVE", 
    "YEAR": 2002, 
    "LONGITUDE": -87.741645644, 
    "LATTITUDE": 41.789329323
  }, 
  {
    "BUSINESS_TYPE": "Retail Computing Center", 
    "LEGAL_NAME": "FEDEX OFFICE AND PRINT SERVICES, INC.", 
    "STATE": "IL", 
    "DOING_BUSINESS_AS_NAME": "FEDEX OFFICE AND PRINT SVCS, INC.", 
    "POP_AT_RISK": 78756, 
    "ZIP": 60657, 
    "ADDRESS": "3524 N SOUTHPORT AVE  1ST F", 
    "YEAR": 2002, 
    "LONGITUDE": -87.664133284, 
    "LATTITUDE": 41.945933742
  }, 
  {
    "BUSINESS_TYPE": "Retail Computing Center", 
    "LEGAL_NAME": "NEW HORIZONS COMPUTER LEARNING", 
    "STATE": "IL", 
    "DOING_BUSINESS_AS_NAME": "NEW HORIZONS COMPUTER LEARNING", 
    "POP_AT_RISK": 19154, 
    "ZIP": 60631, 
    "ADDRESS": "8550 W BRYN MAWR AVE  400", 
    "YEAR": 2002, 
    "LONGITUDE": -87.841087375, 
    "LATTITUDE": 41.981143964
  }, 
  {
    "BUSINESS_TYPE": "Retail Computing Center", 
    "LEGAL_NAME": "COMPUTER ETCETERA", 
    "STATE": "IL", 
    "DOING_BUSINESS_AS_NAME": "COMPUTER ETCETERA", 
    "POP_AT_RISK": 42738, 
    "ZIP": 60607, 
    "ADDRESS": "1517 W TAYLOR ST", 
    "YEAR": 2002, 
    "LONGITUDE": -87.664827759, 
    "LATTITUDE": 41.869179457
  }, 
  {
    "BUSINESS_TYPE": "Retail Computing Center", 
    "LEGAL_NAME": "DIANA J RUDER", 
    "STATE": "IL", 
    "DOING_BUSINESS_AS_NAME": "MINI MALL/PUERTA AL INTERNET", 
    "POP_AT_RISK": 49064, 
    "ZIP": 60623, 
    "ADDRESS": "4058 W 26TH ST", 
    "YEAR": 2002, 
    "LONGITUDE": -87.72694215, 
    "LATTITUDE": 41.844331601
  }, 
  {
    "BUSINESS_TYPE": "Retail Computing Center", 
    "LEGAL_NAME": "INTERNET WORLD, INC.", 
    "STATE": "IL", 
    "DOING_BUSINESS_AS_NAME": "INTERNET WORLD INC.", 
    "POP_AT_RISK": 47384, 
    "ZIP": 60645, 
    "ADDRESS": "2356 W TOUHY AVE", 
    "YEAR": 2002, 
    "LONGITUDE": -87.689856331, 
    "LATTITUDE": 42.012388457
  }, 
  {
    "BUSINESS_TYPE": "Retail Computing Center", 
    "LEGAL_NAME": "CHICAGO TECHNICAL SERVICES INC.", 
    "STATE": "IL", 
    "DOING_BUSINESS_AS_NAME": "CHICAGO TECHNICAL SERVICES INC.", 
    "POP_AT_RISK": 79857, 
    "ZIP": 60647, 
    "ADDRESS": "3235 W FULLERTON AVE", 
    "YEAR": 2002, 
    "LONGITUDE": -87.708864344, 
    "LATTITUDE": 41.924591127
  }, 
  {
    "BUSINESS_TYPE": "Retail Computing Center", 
    "LEGAL_NAME": "MATHER SENIOR OPTIONS", 
    "STATE": "IL", 
    "DOING_BUSINESS_AS_NAME": "MATHER'S-MORE THAN A CAFE", 
    "POP_AT_RISK": 26756, 
    "ZIP": 60707, 
    "ADDRESS": "2376 N NEVA AVE # 1ST", 
    "YEAR": 2002, 
    "LONGITUDE": -87.804545589, 
    "LATTITUDE": 41.923340816
  }, 
  {
    "BUSINESS_TYPE": "Retail Computing Center", 
    "LEGAL_NAME": "FEDEX OFFICE AND PRINT SERVICES, INC.", 
    "STATE": "IL", 
    "DOING_BUSINESS_AS_NAME": "FEDEX OFFICE AND PRINT SVCS, INC.", 
    "POP_AT_RISK": 70835, 
    "ZIP": 60610, 
    "ADDRESS": "444 N WELLS ST 1ST", 
    "YEAR": 2002, 
    "LONGITUDE": -87.634188858, 
    "LATTITUDE": 41.890526116
  }, 
  {
    "BUSINESS_TYPE": "Retail Computing Center", 
    "LEGAL_NAME": "FEDEX OFFICE AND PRINT SERVICES, INC.", 
    "STATE": "IL", 
    "DOING_BUSINESS_AS_NAME": "FEDEX OFFICE AND PRINT SVCS, INC.", 
    "POP_AT_RISK": 36853, 
    "ZIP": 60637, 
    "ADDRESS": "1315 E 57TH ST  1", 
    "YEAR": 2002, 
    "LONGITUDE": -87.594187285, 
    "LATTITUDE": 41.791359581
  }
]