[
  {
    "BUSINESS_TYPE": "Consumption on Premises - Incidental Activity", 
    "LEGAL_NAME": "BOBY G INC.", 
    "STATE": "IL", 
    "DOING_BUSINESS_AS_NAME": "BOBY G", 
    "POP_AT_RISK": 63384, 
    "ZIP": 60639, 
    "ADDRESS": "5637-5639 W GRAND AVE", 
    "YEAR": 2018, 
    "LONGITUDE": -87.767321601, 
    "LATTITUDE": 41.918922495
  }, 
  {
    "BUSINESS_TYPE": "Consumption on Premises - Incidental Activity", 
    "LEGAL_NAME": "JACKSON PARK GOLF MANAGEMENT, LLC", 
    "STATE": "IL", 
    "DOING_BUSINESS_AS_NAME": "JACKSON PARK GOLF COURSE", 
    "POP_AT_RISK": 30791, 
    "ZIP": 60649, 
    "ADDRESS": "6401 S RICHARDS DR 1ST", 
    "YEAR": 2018, 
    "LONGITUDE": -87.579399991, 
    "LATTITUDE": 41.778662113
  }, 
  {
    "BUSINESS_TYPE": "Consumption on Premises - Incidental Activity", 
    "LEGAL_NAME": "EL CENTENARIO SPORTS BAR & GRILL INC.", 
    "STATE": "IL", 
    "DOING_BUSINESS_AS_NAME": "EL CENTENARIO SPORTS BAR & GRILL", 
    "POP_AT_RISK": 33607, 
    "ZIP": 60623, 
    "ADDRESS": "4556 W ROOSEVELT RD 1ST", 
    "YEAR": 2018, 
    "LONGITUDE": -87.739769726, 
    "LATTITUDE": 41.866071937
  }, 
  {
    "BUSINESS_TYPE": "Consumption on Premises - Incidental Activity", 
    "LEGAL_NAME": "PAPICHULO, LLC", 
    "STATE": "IL", 
    "DOING_BUSINESS_AS_NAME": "LIGHTHOUSE BAR AND GRILL", 
    "POP_AT_RISK": 2798, 
    "ZIP": 60633, 
    "ADDRESS": "13601 S CALHOUN AVE 1", 
    "YEAR": 2018, 
    "LONGITUDE": -87.561573371, 
    "LATTITUDE": 41.648188778
  }, 
  {
    "BUSINESS_TYPE": "Consumption on Premises - Incidental Activity", 
    "LEGAL_NAME": "SONRISAS, INC.", 
    "STATE": "IL", 
    "DOING_BUSINESS_AS_NAME": "EL SITIO", 
    "POP_AT_RISK": 60113, 
    "ZIP": 60651, 
    "ADDRESS": "1255 N PULASKI RD", 
    "YEAR": 2018, 
    "LONGITUDE": -87.726195486, 
    "LATTITUDE": 41.904309421
  }, 
  {
    "BUSINESS_TYPE": "Consumption on Premises - Incidental Activity", 
    "LEGAL_NAME": "THE NEW LOOK SALON AND RESTAURANT, INC.", 
    "STATE": "IL", 
    "DOING_BUSINESS_AS_NAME": "THE NEW LOOK", 
    "POP_AT_RISK": 40020, 
    "ZIP": 60617, 
    "ADDRESS": "2544 E 83RD ST 1", 
    "YEAR": 2018, 
    "LONGITUDE": -87.561913784, 
    "LATTITUDE": 41.744626104
  }, 
  {
    "BUSINESS_TYPE": "Consumption on Premises - Incidental Activity", 
    "LEGAL_NAME": "ERJ DINING IV, LLC", 
    "STATE": "IL", 
    "DOING_BUSINESS_AS_NAME": "CHILI'S GRILL & BAR", 
    "POP_AT_RISK": 12432, 
    "ZIP": 60643, 
    "ADDRESS": "1750 W 119TH ST 1ST", 
    "YEAR": 2018, 
    "LONGITUDE": -87.665844926, 
    "LATTITUDE": 41.677567307
  }, 
  {
    "BUSINESS_TYPE": "Consumption on Premises - Incidental Activity", 
    "LEGAL_NAME": "JUDI SPORTS BAR & GRILL, INC", 
    "STATE": "IL", 
    "DOING_BUSINESS_AS_NAME": "JUDI'S SPORTS BAR & GRILL", 
    "POP_AT_RISK": 23970, 
    "ZIP": 60628, 
    "ADDRESS": "512 E 103RD ST", 
    "YEAR": 2018, 
    "LONGITUDE": -87.610766505, 
    "LATTITUDE": 41.707469998
  }, 
  {
    "BUSINESS_TYPE": "Consumption on Premises - Incidental Activity", 
    "LEGAL_NAME": "V 75 LIMITED", 
    "STATE": "IL", 
    "DOING_BUSINESS_AS_NAME": "V 75", 
    "POP_AT_RISK": 31766, 
    "ZIP": 60620, 
    "ADDRESS": "125-127 W 75TH ST", 
    "YEAR": 2018, 
    "LONGITUDE": -87.62808285, 
    "LATTITUDE": 41.758070774
  }, 
  {
    "BUSINESS_TYPE": "Consumption on Premises - Incidental Activity", 
    "LEGAL_NAME": "STE-DA, INC.", 
    "STATE": "IL", 
    "DOING_BUSINESS_AS_NAME": "PEPE'S MEXICAN RESTAURANT", 
    "POP_AT_RISK": 62644, 
    "ZIP": 60629, 
    "ADDRESS": "3231  -03237 W 63RD ST 1ST", 
    "YEAR": 2018, 
    "LONGITUDE": -87.704382738, 
    "LATTITUDE": 41.778842938
  }, 
  {
    "BUSINESS_TYPE": "Consumption on Premises - Incidental Activity", 
    "LEGAL_NAME": "GRAND CROSSING MANAGEMENT, LLC", 
    "STATE": "IL", 
    "DOING_BUSINESS_AS_NAME": "CURRENCY EXCHANGE CAFE / BING", 
    "POP_AT_RISK": 29718, 
    "ZIP": 60637, 
    "ADDRESS": "305-307 E GARFIELD BLVD 1ST & BSMT", 
    "YEAR": 2018, 
    "LONGITUDE": -87.618979239, 
    "LATTITUDE": 41.794316562
  }, 
  {
    "BUSINESS_TYPE": "Consumption on Premises - Incidental Activity", 
    "LEGAL_NAME": "ORIGINAL PIZZA, LLC SERIES STONY ISLAND", 
    "STATE": "IL", 
    "DOING_BUSINESS_AS_NAME": "LEONA'S PIZZERIA", 
    "POP_AT_RISK": 15322, 
    "ZIP": 60617, 
    "ADDRESS": "9156 S STONY ISLAND AVE", 
    "YEAR": 2018, 
    "LONGITUDE": -87.585580361, 
    "LATTITUDE": 41.727952378
  }, 
  {
    "BUSINESS_TYPE": "Consumption on Premises - Incidental Activity", 
    "LEGAL_NAME": "LUNA RESTAURANT CORPORATION", 
    "STATE": "IL", 
    "DOING_BUSINESS_AS_NAME": "MARIA'S MEXICAN RESTURANT", 
    "POP_AT_RISK": 14499, 
    "ZIP": 60656, 
    "ADDRESS": "9440 W FOSTER AVE", 
    "YEAR": 2018, 
    "LONGITUDE": -87.863029981, 
    "LATTITUDE": 41.973400958
  }, 
  {
    "BUSINESS_TYPE": "Consumption on Premises - Incidental Activity", 
    "LEGAL_NAME": "ALBA-GR CO., INC.", 
    "STATE": "IL", 
    "DOING_BUSINESS_AS_NAME": "CAFE IL CORTILE RESTAURANTE", 
    "POP_AT_RISK": 12033, 
    "ZIP": 60656, 
    "ADDRESS": "8443-8445 W LAWRENCE AVE 1ST", 
    "YEAR": 2018, 
    "LONGITUDE": -87.838385258, 
    "LATTITUDE": 41.966453173
  }, 
  {
    "BUSINESS_TYPE": "Consumption on Premises - Incidental Activity", 
    "LEGAL_NAME": "GARIFUNA ENTERPRISES, INC.", 
    "STATE": "IL", 
    "DOING_BUSINESS_AS_NAME": "GARIFUNA FLAVA CARIBBEAN RESTAURANT", 
    "POP_AT_RISK": 47861, 
    "ZIP": 60629, 
    "ADDRESS": "2516-2518 W 63RD ST", 
    "YEAR": 2018, 
    "LONGITUDE": -87.686883415, 
    "LATTITUDE": 41.779321682
  }, 
  {
    "BUSINESS_TYPE": "Consumption on Premises - Incidental Activity", 
    "LEGAL_NAME": "M. V. ONE INCORPORATED", 
    "STATE": "IL", 
    "DOING_BUSINESS_AS_NAME": "MR G SUPPER CLUB", 
    "POP_AT_RISK": 38801, 
    "ZIP": 60620, 
    "ADDRESS": "1543 W 87TH ST", 
    "YEAR": 2018, 
    "LONGITUDE": -87.662327677, 
    "LATTITUDE": 41.735691079
  }, 
  {
    "BUSINESS_TYPE": "Consumption on Premises - Incidental Activity", 
    "LEGAL_NAME": "MAJOR CHARLES L. HUNT POST NO. 2024, VETERANS OF FOREIGN WARS OF THE UNITED STATES, INC.", 
    "STATE": "IL", 
    "DOING_BUSINESS_AS_NAME": "MAJOR CHARLES L. HUNT POST NO. 2024", 
    "POP_AT_RISK": 23129, 
    "ZIP": 60628, 
    "ADDRESS": "344 W 119TH ST 1ST", 
    "YEAR": 2018, 
    "LONGITUDE": -87.63163137, 
    "LATTITUDE": 41.678035926
  }, 
  {
    "BUSINESS_TYPE": "Consumption on Premises - Incidental Activity", 
    "LEGAL_NAME": "EL BURRITO FELIZ CORPORATION", 
    "STATE": "IL", 
    "DOING_BUSINESS_AS_NAME": "EL BURRITO FELIZ RESTAURANT", 
    "POP_AT_RISK": 64382, 
    "ZIP": 60623, 
    "ADDRESS": "3219 W CERMAK RD 1ST", 
    "YEAR": 2018, 
    "LONGITUDE": -87.706135151, 
    "LATTITUDE": 41.851646013
  }, 
  {
    "BUSINESS_TYPE": "Consumption on Premises - Incidental Activity", 
    "LEGAL_NAME": "LA FUENTE BANQUET HALL L.L.C.", 
    "STATE": "IL", 
    "DOING_BUSINESS_AS_NAME": "LA FUENTE BANQUET HALL", 
    "POP_AT_RISK": 46845, 
    "ZIP": 60632, 
    "ADDRESS": "2514 W 51ST ST 1", 
    "YEAR": 2018, 
    "LONGITUDE": -87.687386177, 
    "LATTITUDE": 41.801210893
  }, 
  {
    "BUSINESS_TYPE": "Consumption on Premises - Incidental Activity", 
    "LEGAL_NAME": "LOGIQ, LLC", 
    "STATE": "IL", 
    "DOING_BUSINESS_AS_NAME": "SMOKE FILLED ROOM", 
    "POP_AT_RISK": 33540, 
    "ZIP": 60652, 
    "ADDRESS": "3359 W 79TH ST 1ST", 
    "YEAR": 2018, 
    "LONGITUDE": -87.707211112, 
    "LATTITUDE": 41.749557313
  }, 
  {
    "BUSINESS_TYPE": "Consumption on Premises - Incidental Activity", 
    "LEGAL_NAME": "MOVIE GRILL CONCEPTS XXVI, LLC", 
    "STATE": "IL", 
    "DOING_BUSINESS_AS_NAME": "STUDIO MOVIE GRILL", 
    "POP_AT_RISK": 24717, 
    "ZIP": 60620, 
    "ADDRESS": "210 W 87TH ST", 
    "YEAR": 2018, 
    "LONGITUDE": -87.629310437, 
    "LATTITUDE": 41.736217961
  }, 
  {
    "BUSINESS_TYPE": "Consumption on Premises - Incidental Activity", 
    "LEGAL_NAME": "DAMENZO'S BANQUETS INC.", 
    "STATE": "IL", 
    "DOING_BUSINESS_AS_NAME": "DAMENZO'S", 
    "POP_AT_RISK": 29085, 
    "ZIP": 60612, 
    "ADDRESS": "741 S WESTERN AVE 1", 
    "YEAR": 2018, 
    "LONGITUDE": -87.686036846, 
    "LATTITUDE": 41.871853705
  }, 
  {
    "BUSINESS_TYPE": "Consumption on Premises - Incidental Activity", 
    "LEGAL_NAME": "CZERWONE JABLUSZKO REST INC", 
    "STATE": "IL", 
    "DOING_BUSINESS_AS_NAME": "CZERWONE JABLUSZKO RESTAURANT", 
    "POP_AT_RISK": 20191, 
    "ZIP": 60631, 
    "ADDRESS": "6474 N MILWAUKEE AVE", 
    "YEAR": 2018, 
    "LONGITUDE": -87.789541951, 
    "LATTITUDE": 41.998984373
  }, 
  {
    "BUSINESS_TYPE": "Consumption on Premises - Incidental Activity", 
    "LEGAL_NAME": "LA FIESTA, INC.", 
    "STATE": "IL", 
    "DOING_BUSINESS_AS_NAME": "LA FIESTA RESTAURANT", 
    "POP_AT_RISK": 21003, 
    "ZIP": 60655, 
    "ADDRESS": "3333 W 111TH ST 1ST", 
    "YEAR": 2018, 
    "LONGITUDE": -87.704646344, 
    "LATTITUDE": 41.691399886
  }, 
  {
    "BUSINESS_TYPE": "Consumption on Premises - Incidental Activity", 
    "LEGAL_NAME": "HARRIET WATT", 
    "STATE": "IL", 
    "DOING_BUSINESS_AS_NAME": "WOODLAWN GARDENS", 
    "POP_AT_RISK": 16271, 
    "ZIP": 60619, 
    "ADDRESS": "1200 E 93RD ST 1ST", 
    "YEAR": 2018, 
    "LONGITUDE": -87.594817597, 
    "LATTITUDE": 41.725958181
  }, 
  {
    "BUSINESS_TYPE": "Consumption on Premises - Incidental Activity", 
    "LEGAL_NAME": "CITY-LIFE, LTD.", 
    "STATE": "IL", 
    "DOING_BUSINESS_AS_NAME": "CITY-LIFE, LTD.", 
    "POP_AT_RISK": 37593, 
    "ZIP": 60619, 
    "ADDRESS": "712 E 83RD ST 1", 
    "YEAR": 2018, 
    "LONGITUDE": -87.606889988, 
    "LATTITUDE": 41.744044803
  }, 
  {
    "BUSINESS_TYPE": "Consumption on Premises - Incidental Activity", 
    "LEGAL_NAME": "UNEARTHED LLC", 
    "STATE": "IL", 
    "DOING_BUSINESS_AS_NAME": "THE QUARRY EVENT CENTER", 
    "POP_AT_RISK": 46738, 
    "ZIP": 60649, 
    "ADDRESS": "2419-2425 E 75TH ST 1", 
    "YEAR": 2018, 
    "LONGITUDE": -87.565657953, 
    "LATTITUDE": 41.758886518
  }, 
  {
    "BUSINESS_TYPE": "Consumption on Premises - Incidental Activity", 
    "LEGAL_NAME": "MPV INC", 
    "STATE": "IL", 
    "DOING_BUSINESS_AS_NAME": "LA BARCA", 
    "POP_AT_RISK": 32927, 
    "ZIP": 60609, 
    "ADDRESS": "1221 W 47TH ST 1", 
    "YEAR": 2018, 
    "LONGITUDE": -87.656213823, 
    "LATTITUDE": 41.80861135
  }, 
  {
    "BUSINESS_TYPE": "Consumption on Premises - Incidental Activity", 
    "LEGAL_NAME": "THE SIX GRANDS, CO.", 
    "STATE": "IL", 
    "DOING_BUSINESS_AS_NAME": "SKYWAY BOWL", 
    "POP_AT_RISK": 15082, 
    "ZIP": 60617, 
    "ADDRESS": "9915-9939 S TORRENCE AVE 1ST", 
    "YEAR": 2018, 
    "LONGITUDE": -87.559621723, 
    "LATTITUDE": 41.71488534
  }, 
  {
    "BUSINESS_TYPE": "Consumption on Premises - Incidental Activity", 
    "LEGAL_NAME": "BIJE'S, LIMITED.", 
    "STATE": "IL", 
    "DOING_BUSINESS_AS_NAME": "BIJE'S", 
    "POP_AT_RISK": 20680, 
    "ZIP": 60634, 
    "ADDRESS": "7455 W IRVING PARK RD", 
    "YEAR": 2018, 
    "LONGITUDE": -87.81440271, 
    "LATTITUDE": 41.952488361
  }, 
  {
    "BUSINESS_TYPE": "Consumption on Premises - Incidental Activity", 
    "LEGAL_NAME": "FULTON STREET BREWERY, LLC", 
    "STATE": "IL", 
    "DOING_BUSINESS_AS_NAME": "GOOSE ISLAND BEER COMPANY", 
    "POP_AT_RISK": 36262, 
    "ZIP": 60612, 
    "ADDRESS": "603 N SACRAMENTO BLVD 1ST", 
    "YEAR": 2018, 
    "LONGITUDE": -87.701858827, 
    "LATTITUDE": 41.892093024
  }, 
  {
    "BUSINESS_TYPE": "Consumption on Premises - Incidental Activity", 
    "LEGAL_NAME": "THE BALLROOM, LLC", 
    "STATE": "IL", 
    "DOING_BUSINESS_AS_NAME": "THE BALLROOM", 
    "POP_AT_RISK": 36733, 
    "ZIP": 60637, 
    "ADDRESS": "6351-6359 S COTTAGE GROVE AVE 2", 
    "YEAR": 2018, 
    "LONGITUDE": -87.605750719, 
    "LATTITUDE": 41.778912512
  }
]