[
{"STATE":"IL","ZIP":60630,"LATTITUDE":41.9679174064144,"ADDRESS":"5510 W LAWRENCE AVE  1","YEAR":2012,"DOING_BUSINESS_AS_NAME":"PINK POODLE DOG BOUTIQUE","POP_AT_RISK":91226,"BUSINESS_TYPE":"Grooming Facility","LEGAL_NAME":"DORIS GRGIN","LONGITUDE":-87.76548452271193},
{"STATE":"IL","ZIP":60632,"LATTITUDE":41.82098754788502,"ADDRESS":"4008 S ARCHER AVE 1 ","YEAR":2012,"DOING_BUSINESS_AS_NAME":"CACHORRO PET","POP_AT_RISK":509832,"BUSINESS_TYPE":"Grooming Facility","LEGAL_NAME":"JUAN ZARATE","LONGITUDE":-87.6932314725678},
{"STATE":"IL","ZIP":60657,"LATTITUDE":41.93586261644908,"ADDRESS":"2935 N CLARK ST 1ST ","YEAR":2012,"DOING_BUSINESS_AS_NAME":"SCRUB YOUR PUP","POP_AT_RISK":81987,"BUSINESS_TYPE":"Grooming Facility","LEGAL_NAME":"SHEINER INC","LONGITUDE":-87.64719566986746},
{"STATE":"IL","ZIP":60610,"LATTITUDE":41.911053246073564,"ADDRESS":"109 W NORTH AVE  ","YEAR":2012,"DOING_BUSINESS_AS_NAME":"PAWS-A-TIVELY","POP_AT_RISK":63836,"BUSINESS_TYPE":"Grooming Facility","LEGAL_NAME":"BARSHUVAL INC","LONGITUDE":-87.63207656730064},
{"STATE":"IL","ZIP":60631,"LATTITUDE":42.011790966822375,"ADDRESS":"7236 W TOUHY AVE 1ST ","YEAR":2012,"DOING_BUSINESS_AS_NAME":"PAW & CLAW CAT GROOMING","POP_AT_RISK":95800,"BUSINESS_TYPE":"Grooming Facility","LEGAL_NAME":"DIANA DEMPSEY","LONGITUDE":-87.8080824261318},
{"STATE":"IL","ZIP":60617,"LATTITUDE":41.725362607953755,"ADDRESS":"9335 S ESCANABA AVE 1ST ","YEAR":2012,"DOING_BUSINESS_AS_NAME":"PET GROOMERS","POP_AT_RISK":129003,"BUSINESS_TYPE":"Grooming Facility","LEGAL_NAME":"FLORENDO WAIR","LONGITUDE":-87.55375842875418},
{"STATE":"IL","ZIP":60634,"LATTITUDE":41.938076444262066,"ADDRESS":"7500 W BELMONT AVE 1ST ","YEAR":2012,"DOING_BUSINESS_AS_NAME":"POM POM PALACE","POP_AT_RISK":84766,"BUSINESS_TYPE":"Grooming Facility","LEGAL_NAME":"JULIE HERBERT","LONGITUDE":-87.81413766781473},
{"STATE":"IL","ZIP":60657,"LATTITUDE":41.9429740069716,"ADDRESS":"3335 N BROADWAY  1ST ","YEAR":2012,"DOING_BUSINESS_AS_NAME":"HAPPY TAILS","POP_AT_RISK":155796,"BUSINESS_TYPE":"Grooming Facility","LEGAL_NAME":"RAY LISKOWSKI","LONGITUDE":-87.64444482980407},
{"STATE":"IL","ZIP":60611,"LATTITUDE":41.893341296312244,"ADDRESS":"401 E ONTARIO ST 1 ","YEAR":2012,"DOING_BUSINESS_AS_NAME":"STREETVILLE PET SPA & BOUTIQUE","POP_AT_RISK":173247,"BUSINESS_TYPE":"Grooming Facility","LEGAL_NAME":"HYDE PARK INC.","LONGITUDE":-87.61758915120579},
{"STATE":"IL","ZIP":60656,"LATTITUDE":41.97462951006733,"ADDRESS":"7220 W FOSTER AVE 1ST ","YEAR":2012,"DOING_BUSINESS_AS_NAME":"PET SUPPLIES PLUS","POP_AT_RISK":125060,"BUSINESS_TYPE":"Grooming Facility","LEGAL_NAME":"PSP STORES LLC","LONGITUDE":-87.80798109934157},
{"STATE":"IL","ZIP":60609,"LATTITUDE":41.82727787410544,"ADDRESS":"556 W 37TH ST 1ST FL ","YEAR":2012,"DOING_BUSINESS_AS_NAME":"THREE PUPS IN A TUB","POP_AT_RISK":185874,"BUSINESS_TYPE":"Grooming Facility","LEGAL_NAME":"EDWARD SIDABRAS","LONGITUDE":-87.6409992314425},
{"STATE":"IL","ZIP":60629,"LATTITUDE":41.77704369077446,"ADDRESS":"6352 S PULASKI RD N\/A ","YEAR":2012,"DOING_BUSINESS_AS_NAME":"Mr.'s Doggies Pet Grooming Salon","POP_AT_RISK":54952,"BUSINESS_TYPE":"Grooming Facility","LEGAL_NAME":"Hector M Valdez","LONGITUDE":-87.72286709745119},
{"STATE":"IL","ZIP":60625,"LATTITUDE":41.9667779014412,"ADDRESS":"2316 W LELAND AVE 1 ","YEAR":2012,"DOING_BUSINESS_AS_NAME":"SP2","POP_AT_RISK":422478,"BUSINESS_TYPE":"Grooming Facility","LEGAL_NAME":"SOGGY PAWS, INC","LONGITUDE":-87.68811596983174},
{"STATE":"IL","ZIP":60616,"LATTITUDE":41.856013501435896,"ADDRESS":"1925 S ARCHER AVE 1 ","YEAR":2012,"DOING_BUSINESS_AS_NAME":"SOGGY PAWS","POP_AT_RISK":66412,"BUSINESS_TYPE":"Grooming Facility","LEGAL_NAME":"SOGGY PAWS, INC","LONGITUDE":-87.62802795457878},
{"STATE":"IL","ZIP":60640,"LATTITUDE":41.967311213619794,"ADDRESS":"1148 W LELAND AVE  ","YEAR":2012,"DOING_BUSINESS_AS_NAME":"SOGGY  PAWS  INC","POP_AT_RISK":67069,"BUSINESS_TYPE":"Grooming Facility","LEGAL_NAME":"SOGGY PAWS, INC","LONGITUDE":-87.65948778391727},
{"STATE":"IL","ZIP":60647,"LATTITUDE":41.91765358245522,"ADDRESS":"2526 W ARMITAGE AVE 1 ","YEAR":2012,"DOING_BUSINESS_AS_NAME":"SOGGY PAWS, INC.","POP_AT_RISK":58056,"BUSINESS_TYPE":"Grooming Facility","LEGAL_NAME":"SOGGY PAWS, INC","LONGITUDE":-87.69103634902459},
{"STATE":"IL","ZIP":60640,"LATTITUDE":41.979049716032925,"ADDRESS":"1476-78 W SUMMERDALE AVE  ","YEAR":2012,"DOING_BUSINESS_AS_NAME":"Scrub A Dub Dub","POP_AT_RISK":131346,"BUSINESS_TYPE":"Grooming Facility","LEGAL_NAME":"Teresa A. Boris","LONGITUDE":-87.66777435661234},
{"STATE":"IL","ZIP":60645,"LATTITUDE":42.017295118461554,"ADDRESS":"7448 N WESTERN AVE 1ST ","YEAR":2012,"DOING_BUSINESS_AS_NAME":"DOG SPLASH","POP_AT_RISK":199340,"BUSINESS_TYPE":"Grooming Facility","LEGAL_NAME":"WASH N WAG CORP","LONGITUDE":-87.6903452644412},
{"STATE":"IL","ZIP":60641,"LATTITUDE":41.953392106880344,"ADDRESS":"5232 W IRVING PARK RD  ","YEAR":2012,"DOING_BUSINESS_AS_NAME":"BARK OUT LOUD","POP_AT_RISK":95188,"BUSINESS_TYPE":"Grooming Facility","LEGAL_NAME":"ANNE MARIE ZWICK","LONGITUDE":-87.75849574816502},
{"STATE":"IL","ZIP":60637,"LATTITUDE":41.76921322872776,"ADDRESS":"361 E 69TH ST 1ST ","YEAR":2012,"DOING_BUSINESS_AS_NAME":"DOGS ONLY GROOMING SALON","POP_AT_RISK":436020,"BUSINESS_TYPE":"Grooming Facility","LEGAL_NAME":"ARLETTA M BENNETT","LONGITUDE":-87.61623688906927},
{"STATE":"IL","ZIP":60608,"LATTITUDE":41.83609692076121,"ADDRESS":"3203 S HALSTED ST 1ST ","YEAR":2012,"DOING_BUSINESS_AS_NAME":"BROOKLYN'S DOGGIE STYLES","POP_AT_RISK":192515,"BUSINESS_TYPE":"Grooming Facility","LEGAL_NAME":"KELLY L. MARUSARZ","LONGITUDE":-87.64608423691962},
{"STATE":"IL","ZIP":60623,"LATTITUDE":41.851920612971924,"ADDRESS":"3040 W CERMAK RD  ","YEAR":2012,"DOING_BUSINESS_AS_NAME":"ACUARIO PISCIS \/ ESTETICA CANINA","POP_AT_RISK":563120,"BUSINESS_TYPE":"Grooming Facility","LEGAL_NAME":"VICTOR M. PACHECO","LONGITUDE":-87.70201706310796},
{"STATE":"IL","ZIP":60607,"LATTITUDE":41.881532957385105,"ADDRESS":"1135 W MADISON ST 1 ","YEAR":2012,"DOING_BUSINESS_AS_NAME":"Wigglyville","POP_AT_RISK":39639,"BUSINESS_TYPE":"Grooming Facility","LEGAL_NAME":"WIGGLYVILLE, INC.","LONGITUDE":-87.65571994722923},
{"STATE":"IL","ZIP":60643,"LATTITUDE":41.71080448383775,"ADDRESS":"10035 S WESTERN AVE  1","YEAR":2012,"DOING_BUSINESS_AS_NAME":"BEVERLY PET","POP_AT_RISK":75272,"BUSINESS_TYPE":"Grooming Facility","LEGAL_NAME":"AUDREY ANN FISCHER","LONGITUDE":-87.68160723017458},
{"STATE":"IL","ZIP":60629,"LATTITUDE":41.778569004502664,"ADDRESS":"4656 W 63RD ST  ","YEAR":2012,"DOING_BUSINESS_AS_NAME":"Tres Chic Dog Grooming","POP_AT_RISK":25513,"BUSINESS_TYPE":"Grooming Facility","LEGAL_NAME":"Gary E. Paczkowski","LONGITUDE":-87.73970151969735},
{"STATE":"IL","ZIP":60634,"LATTITUDE":41.93781175129148,"ADDRESS":"3138 N AUSTIN AVE 1ST ","YEAR":2012,"DOING_BUSINESS_AS_NAME":"WOOF & MEOW","POP_AT_RISK":162333,"BUSINESS_TYPE":"Grooming Facility","LEGAL_NAME":"LIZANDRO E. MOLINA","LONGITUDE":-87.77634149324408},
{"STATE":"IL","ZIP":60639,"LATTITUDE":41.91698872689966,"ADDRESS":"4914 W ARMITAGE AVE 1ST ","YEAR":2012,"DOING_BUSINESS_AS_NAME":"WOOF & MEOW","POP_AT_RISK":885450,"BUSINESS_TYPE":"Grooming Facility","LEGAL_NAME":"LIZANDRO E. MOLINA","LONGITUDE":-87.7501283540482},
{"STATE":"IL","ZIP":60632,"LATTITUDE":41.80961326807215,"ADDRESS":"4609 S ARCHER AVE 1 1","YEAR":2012,"DOING_BUSINESS_AS_NAME":"VICKY'S PET GROOMING SHOP","POP_AT_RISK":35391,"BUSINESS_TYPE":"Grooming Facility","LEGAL_NAME":"JOSE DAVID GONZALEZ","LONGITUDE":-87.71130770275475},
{"STATE":"IL","ZIP":60630,"LATTITUDE":41.97709066969314,"ADDRESS":"5281 N ELSTON AVE 1 ","YEAR":2012,"DOING_BUSINESS_AS_NAME":"SHEAR CRITTERS","POP_AT_RISK":25353,"BUSINESS_TYPE":"Grooming Facility","LEGAL_NAME":"SHEAR CRITTERS CORP","LONGITUDE":-87.75450854076577},
{"STATE":"IL","ZIP":60632,"LATTITUDE":41.79669850300648,"ADDRESS":"5302 S PULASKI RD  ","YEAR":2012,"DOING_BUSINESS_AS_NAME":"VIANEY'S PET KINGDOM #2","POP_AT_RISK":156744,"BUSINESS_TYPE":"Grooming Facility","LEGAL_NAME":"VIANEY GARCIA-JAIME","LONGITUDE":-87.72340756196249},
{"STATE":"IL","ZIP":60707,"LATTITUDE":41.90913139554721,"ADDRESS":"6804 W NORTH AVE  ","YEAR":2012,"DOING_BUSINESS_AS_NAME":"ONE LUCKY PUPPY, INC.","POP_AT_RISK":28778,"BUSINESS_TYPE":"Grooming Facility","LEGAL_NAME":"ONE LUCKY PUPPY, INC.","LONGITUDE":-87.79516676645979},
{"STATE":"IL","ZIP":60622,"LATTITUDE":41.89807336191457,"ADDRESS":"911 N DAMEN AVE C-1 ","YEAR":2012,"DOING_BUSINESS_AS_NAME":"The Grooming Gallery","POP_AT_RISK":526744,"BUSINESS_TYPE":"Grooming Facility","LEGAL_NAME":"The Playful Pup, Inc.","LONGITUDE":-87.67696729915475},
{"STATE":"IL","ZIP":60641,"LATTITUDE":41.95802527771329,"ADDRESS":"4232 N CICERO AVE 1ST ","YEAR":2012,"DOING_BUSINESS_AS_NAME":"ALL 4 DIRTY PAWS, INC.","POP_AT_RISK":209770,"BUSINESS_TYPE":"Grooming Facility","LEGAL_NAME":"ALL 4 DIRTY PAWS, INC.","LONGITUDE":-87.74759475433692},
{"STATE":"IL","ZIP":60638,"LATTITUDE":41.792120050968975,"ADDRESS":"6621 W ARCHER AVE 1 ","YEAR":2012,"DOING_BUSINESS_AS_NAME":"BARKIN' BEAUTIES","POP_AT_RISK":177690,"BUSINESS_TYPE":"Grooming Facility","LEGAL_NAME":"BARKIN' BEAUTIES, INC.","LONGITUDE":-87.78766374908565},
{"STATE":"IL","ZIP":60628,"LATTITUDE":41.662549681874204,"ADDRESS":"12721 S HALSTED ST 1ST ","YEAR":2012,"DOING_BUSINESS_AS_NAME":"PINK POODLE PALACE","POP_AT_RISK":167321,"BUSINESS_TYPE":"Grooming Facility","LEGAL_NAME":"GLORIA & TRACY MCBRIDE","LONGITUDE":-87.64125124497521},
{"STATE":"IL","ZIP":60643,"LATTITUDE":41.69493985416419,"ADDRESS":"10918 S WESTERN AVE  ","YEAR":2012,"DOING_BUSINESS_AS_NAME":"DAZZLE PET GROOMING","POP_AT_RISK":65016,"BUSINESS_TYPE":"Grooming Facility","LEGAL_NAME":"LORRAINE THERESE LYMAN","LONGITUDE":-87.68140343358414},
{"STATE":"IL","ZIP":60652,"LATTITUDE":41.74602291961784,"ADDRESS":"8057 S CICERO AVE  ","YEAR":2012,"DOING_BUSINESS_AS_NAME":"PET LUV PET CENTER INC","POP_AT_RISK":60333,"BUSINESS_TYPE":"Grooming Facility","LEGAL_NAME":"PET LUV PET CENTER INC","LONGITUDE":-87.7411015602688},
{"STATE":"IL","ZIP":60607,"LATTITUDE":41.86541681298206,"ADDRESS":"1258 S HALSTED ST 1ST ","YEAR":2012,"DOING_BUSINESS_AS_NAME":"HOWLISTIC GROOMING","POP_AT_RISK":181216,"BUSINESS_TYPE":"Grooming Facility","LEGAL_NAME":"HOWLISTIC GROOMER, INC.","LONGITUDE":-87.64701273650405},
{"STATE":"IL","ZIP":60707,"LATTITUDE":41.92394480190854,"ADDRESS":"2411 N NEWLAND AVE 1 ","YEAR":2012,"DOING_BUSINESS_AS_NAME":"PRETTY PAW'S","POP_AT_RISK":100496,"BUSINESS_TYPE":"Grooming Facility","LEGAL_NAME":"PRETTY PAW'S CORPORATION","LONGITUDE":-87.79877077387005},
{"STATE":"IL","ZIP":60647,"LATTITUDE":41.93000745783491,"ADDRESS":"2651 N MILWAUKEE AVE 1ST 1","YEAR":2012,"DOING_BUSINESS_AS_NAME":"LOGAN PETS GROOMING, INC.","POP_AT_RISK":326164,"BUSINESS_TYPE":"Grooming Facility","LEGAL_NAME":"LOGAN PETS GROOMING, INC.","LONGITUDE":-87.70871114016123},
{"STATE":"IL","ZIP":60618,"LATTITUDE":41.94036791167109,"ADDRESS":"3235 N KEDZIE AVE 1ST B","YEAR":2012,"DOING_BUSINESS_AS_NAME":"MARIE'S PET GROOMING INC.","POP_AT_RISK":119140,"BUSINESS_TYPE":"Grooming Facility","LEGAL_NAME":"MARIE'S PET GROOMING INC.","LONGITUDE":-87.70750663001908},
{"STATE":"IL","ZIP":60631,"LATTITUDE":41.99108872833804,"ADDRESS":"6048 N AVONDALE AVE 1ST ","YEAR":2012,"DOING_BUSINESS_AS_NAME":"SMOOCH A POOCH GROOMING LLC","POP_AT_RISK":78411,"BUSINESS_TYPE":"Grooming Facility","LEGAL_NAME":"SMOOCH A POOCH GROOMING LLC","LONGITUDE":-87.7992260923261},
{"STATE":"IL","ZIP":60655,"LATTITUDE":41.69163263867864,"ADDRESS":"3308 W 111TH ST  ","YEAR":2012,"DOING_BUSINESS_AS_NAME":"MIDWEST CANINE CHOPPERS , INC.","POP_AT_RISK":63009,"BUSINESS_TYPE":"Grooming Facility","LEGAL_NAME":"MIDWEST CANINE CHOPPERS, INC.","LONGITUDE":-87.70371420559297},
{"STATE":"IL","ZIP":60647,"LATTITUDE":41.92372019907236,"ADDRESS":"2344 N MILWAUKEE AVE 1ST ","YEAR":2012,"DOING_BUSINESS_AS_NAME":"Temple of the Dog & Meow Lounge","POP_AT_RISK":69815,"BUSINESS_TYPE":"Grooming Facility","LEGAL_NAME":"Temple of the Dog & Meow Lounge","LONGITUDE":-87.69891657803828},
{"STATE":"IL","ZIP":60652,"LATTITUDE":41.744867655481485,"ADDRESS":"8142 S KEDZIE AVE 1 1","YEAR":2012,"DOING_BUSINESS_AS_NAME":"KENIN'S PET GROOMING SHOP","POP_AT_RISK":70275,"BUSINESS_TYPE":"Grooming Facility","LEGAL_NAME":"ANTONIA GARCIA & MARIA ANTONIA JAIME","LONGITUDE":-87.70240428748576},
{"STATE":"IL","ZIP":60652,"LATTITUDE":41.74974620119093,"ADDRESS":"3784 W 79TH ST 1ST ","YEAR":2012,"DOING_BUSINESS_AS_NAME":"DOGGONE RITE","POP_AT_RISK":22174,"BUSINESS_TYPE":"Grooming Facility","LEGAL_NAME":"DOGGONE RITE DOG GROOMING SALON INC.","LONGITUDE":-87.717635828303},
{"STATE":"IL","ZIP":60626,"LATTITUDE":42.009452672651214,"ADDRESS":"7007 N SHERIDAN RD 1ST ","YEAR":2012,"DOING_BUSINESS_AS_NAME":"GROOMING BY GALDY","POP_AT_RISK":522220,"BUSINESS_TYPE":"Grooming Facility","LEGAL_NAME":"RAMON E. BATISTA & CHRISTOPHER J. PALESE","LONGITUDE":-87.66202452898699},
{}]