[
{"STATE":"IL","ZIP":60639,"LATTITUDE":41.91963992911631,"ADDRESS":"5811 W GRAND AVE  ","YEAR":2014,"DOING_BUSINESS_AS_NAME":"ROMANS TIRE SHOP","POP_AT_RISK":188812,"BUSINESS_TYPE":"Tire Facilty Class I (100 - 1,000 Tires)","LEGAL_NAME":"ROMANS TIRE SHOP","LONGITUDE":-87.77122091712528},
{"STATE":"IL","ZIP":60619,"LATTITUDE":41.757133415130944,"ADDRESS":"7549-7557 S COTTAGE GROVE AVE  ","YEAR":2014,"DOING_BUSINESS_AS_NAME":"BAROMAN TIRE SHOP","POP_AT_RISK":346071,"BUSINESS_TYPE":"Tire Facilty Class I (100 - 1,000 Tires)","LEGAL_NAME":"BAROMAN CORPORATION","LONGITUDE":-87.60521070562744},
{"STATE":"IL","ZIP":60609,"LATTITUDE":41.808538775703575,"ADDRESS":"1439-1441 W 47TH ST  ","YEAR":2014,"DOING_BUSINESS_AS_NAME":"BAROMAN TIRE SERVICE","POP_AT_RISK":491335,"BUSINESS_TYPE":"Tire Facilty Class I (100 - 1,000 Tires)","LEGAL_NAME":"BAROMAN CORPORATION","LONGITUDE":-87.66162987183702},
{"STATE":"IL","ZIP":60639,"LATTITUDE":41.91081623087445,"ADDRESS":"4465 W GRAND AVE 1 1","YEAR":2014,"DOING_BUSINESS_AS_NAME":"BRIDGESTONE FIRESTONE","POP_AT_RISK":730534,"BUSINESS_TYPE":"Tire Facilty Class I (100 - 1,000 Tires)","LEGAL_NAME":"SWIFT CAR CARE, INC.","LONGITUDE":-87.73847173178453},
{"STATE":"IL","ZIP":60639,"LATTITUDE":41.90920272512576,"ADDRESS":"5801-09 W NORTH AVE 1 ","YEAR":2014,"DOING_BUSINESS_AS_NAME":"CHICAGO MUFFLER AND BRAKE","POP_AT_RISK":196372,"BUSINESS_TYPE":"Tire Facilty Class I (100 - 1,000 Tires)","LEGAL_NAME":"CHICAGO MUFFLER AND BRAKE CORP.","LONGITUDE":-87.77078676719161},
{}]