[
  {
    "BUSINESS_TYPE": "Indoor Special Event", 
    "LEGAL_NAME": "INDEPENDENT FILMMAKER PROJECT MIDWEST", 
    "STATE": "IL", 
    "DOING_BUSINESS_AS_NAME": "(2016 EVENT #2) FILM FESTIVAL PARTY; JUNE 1, 2016; 10PM-2AM", 
    "POP_AT_RISK": 75266, 
    "ZIP": 60647, 
    "ADDRESS": "3429 W DIVERSEY AVE", 
    "YEAR": 2016, 
    "LONGITUDE": -87.713426626, 
    "LATTITUDE": 41.931847783
  }, 
  {
    "BUSINESS_TYPE": "Indoor Special Event", 
    "LEGAL_NAME": "KO BREAST CANCER", 
    "STATE": "IL", 
    "DOING_BUSINESS_AS_NAME": "KO BREAST CANCER", 
    "POP_AT_RISK": 39485, 
    "ZIP": 60642, 
    "ADDRESS": "1446 W KINZIE ST 1", 
    "YEAR": 2016, 
    "LONGITUDE": -87.6641142, 
    "LATTITUDE": 41.888980411
  }, 
  {
    "BUSINESS_TYPE": "Indoor Special Event", 
    "LEGAL_NAME": "EMERALD SOCIETY OF ILLINOIS", 
    "STATE": "IL", 
    "DOING_BUSINESS_AS_NAME": "ST. PATRICK'S DAY AFTER PARADE CELEBRATION", 
    "POP_AT_RISK": 33102, 
    "ZIP": 60616, 
    "ADDRESS": "2260 S GROVE ST", 
    "YEAR": 2016, 
    "LONGITUDE": -87.640242837, 
    "LATTITUDE": 41.851138977
  }, 
  {
    "BUSINESS_TYPE": "Indoor Special Event", 
    "LEGAL_NAME": "DRIEHAUS DESIGN INITIATIVE", 
    "STATE": "IL", 
    "DOING_BUSINESS_AS_NAME": "DRIEHAUS DESIGN INITIATIVE", 
    "POP_AT_RISK": 42979, 
    "ZIP": 60607, 
    "ADDRESS": "700 S DESPLAINES ST", 
    "YEAR": 2016, 
    "LONGITUDE": -87.644007346, 
    "LATTITUDE": 41.873450653
  }, 
  {
    "BUSINESS_TYPE": "Indoor Special Event", 
    "LEGAL_NAME": "CRIMESTOPPERS PLUS, INC.", 
    "STATE": "IL", 
    "DOING_BUSINESS_AS_NAME": "CRIMESTOPPERS", 
    "POP_AT_RISK": 41559, 
    "ZIP": 60622, 
    "ADDRESS": "1758 W GRAND AVE 1", 
    "YEAR": 2016, 
    "LONGITUDE": -87.671984803, 
    "LATTITUDE": 41.891013897
  }, 
  {
    "BUSINESS_TYPE": "Indoor Special Event", 
    "LEGAL_NAME": "THE ART INSTITUTE OF CHICAGO", 
    "STATE": "IL", 
    "DOING_BUSINESS_AS_NAME": "GRADUATION EXHIBITION", 
    "POP_AT_RISK": 65386, 
    "ZIP": 60602, 
    "ADDRESS": "108 N STATE ST 3RD", 
    "YEAR": 2016, 
    "LONGITUDE": -87.628021652, 
    "LATTITUDE": 41.883422637
  }, 
  {
    "BUSINESS_TYPE": "Indoor Special Event", 
    "LEGAL_NAME": "GATEWAY TO LEARNING", 
    "STATE": "IL", 
    "DOING_BUSINESS_AS_NAME": "GATEWAY TO LEARNING", 
    "POP_AT_RISK": 59153, 
    "ZIP": 60625, 
    "ADDRESS": "4925 N LINCOLN AVE 1ST", 
    "YEAR": 2016, 
    "LONGITUDE": -87.690214627, 
    "LATTITUDE": 41.971466217
  }, 
  {
    "BUSINESS_TYPE": "Indoor Special Event", 
    "LEGAL_NAME": "INDEPENDENT FILMMAKER PROJECT MIDWEST", 
    "STATE": "IL", 
    "DOING_BUSINESS_AS_NAME": "(2016 EVENT #1) FILM FESTIVAL PARTY; JUNE 3, 2016; 10PM-2AM", 
    "POP_AT_RISK": 47176, 
    "ZIP": 60608, 
    "ADDRESS": "1343-1345 W 19TH ST", 
    "YEAR": 2016, 
    "LONGITUDE": -87.660532969, 
    "LATTITUDE": 41.855961418
  }
]