{
{"STATE":"IL","ZIP":60636,"LATTITUDE":41.780052309140245,"ADDRESS":"6233-6235 S WESTERN AVE  ","YEAR":2011,"DOING_BUSINESS_AS_NAME":"BIG PAWN, INC.","POP_AT_RISK":363624,"BUSINESS_TYPE":"Pawnbroker","LEGAL_NAME":"BIG PAWN, INC.","LONGITUDE":-87.68351586601459},
{"STATE":"IL","ZIP":60640,"LATTITUDE":41.96392394157743,"ADDRESS":"4509 N SHERIDAN RD 1ST ","YEAR":2011,"DOING_BUSINESS_AS_NAME":"JUST PAWN INC.","POP_AT_RISK":534632,"BUSINESS_TYPE":"Pawnbroker","LEGAL_NAME":"JUST PAWN INC.","LONGITUDE":-87.65462428360182},
{"STATE":"IL","ZIP":60621,"LATTITUDE":41.79380619916376,"ADDRESS":"5516 S STATE ST  1ST","YEAR":2011,"DOING_BUSINESS_AS_NAME":"CBJ CORPORATION","POP_AT_RISK":125590,"BUSINESS_TYPE":"Pawnbroker","LEGAL_NAME":"CBJ CORPORATION","LONGITUDE":-87.62582503784974},
{"STATE":"IL","ZIP":60623,"LATTITUDE":41.85178581984337,"ADDRESS":"2811 W CERMAK RD  1ST","YEAR":2011,"DOING_BUSINESS_AS_NAME":"CERMAK PAWN & JEWELRY","POP_AT_RISK":123572,"BUSINESS_TYPE":"Pawnbroker","LEGAL_NAME":"KEDZIE PAWN, INC","LONGITUDE":-87.69602496414917},
{"STATE":"IL","ZIP":60605,"LATTITUDE":41.87628277629029,"ADDRESS":"428 S CLARK ST  1ST","YEAR":2011,"DOING_BUSINESS_AS_NAME":"A ROYAL REDEMPTIONS","POP_AT_RISK":43864,"BUSINESS_TYPE":"Pawnbroker","LEGAL_NAME":"A B C RESALE, INC","LONGITUDE":-87.63087817514038},
{"STATE":"IL","ZIP":60639,"LATTITUDE":41.909300256619964,"ADDRESS":"6208  -06210 W NORTH AVE 1ST ","YEAR":2011,"DOING_BUSINESS_AS_NAME":"CROWN ROYAL INC","POP_AT_RISK":208505,"BUSINESS_TYPE":"Pawnbroker","LEGAL_NAME":"CROWN ROYAL, INC.","LONGITUDE":-87.78057309985984},
{"STATE":"IL","ZIP":60622,"LATTITUDE":41.90324702386369,"ADDRESS":"2112 W DIVISION ST  ","YEAR":2011,"DOING_BUSINESS_AS_NAME":"DIVISION GOLD INC.","POP_AT_RISK":69086,"BUSINESS_TYPE":"Pawnbroker","LEGAL_NAME":"DIVISION GOLD INC.","LONGITUDE":-87.68027953469179},
{"STATE":"IL","ZIP":60615,"LATTITUDE":41.80215507163682,"ADDRESS":"224 E 51ST ST 1ST ","YEAR":2011,"DOING_BUSINESS_AS_NAME":"UNITED LOAN CO INC","POP_AT_RISK":59642,"BUSINESS_TYPE":"Pawnbroker","LEGAL_NAME":"UNITED LOAN CO INC","LONGITUDE":-87.61992004591386},
{"STATE":"IL","ZIP":60608,"LATTITUDE":41.85810732330307,"ADDRESS":"1720 S LOOMIS ST  ","YEAR":2011,"DOING_BUSINESS_AS_NAME":"AMIGO LOAN COMPANY","POP_AT_RISK":364400,"BUSINESS_TYPE":"Pawnbroker","LEGAL_NAME":"AMIGO LOAN CO., INC.","LONGITUDE":-87.66147350502278},
{"STATE":"IL","ZIP":60632,"LATTITUDE":41.79875025743268,"ADDRESS":"5160 S PULASKI RD  ","YEAR":2011,"DOING_BUSINESS_AS_NAME":"CASA DE EMPENO","POP_AT_RISK":81404,"BUSINESS_TYPE":"Pawnbroker","LEGAL_NAME":"CASA DE EMPENO, INC.","LONGITUDE":-87.72346641018879},
{"STATE":"IL","ZIP":60659,"LATTITUDE":41.99795834915567,"ADDRESS":"2106 W DEVON AVE  1ST","YEAR":2011,"DOING_BUSINESS_AS_NAME":"DEVON PAWN SHOP, INC.","POP_AT_RISK":581854,"BUSINESS_TYPE":"Pawnbroker","LEGAL_NAME":"DEVON PAWN SHOP, INC.","LONGITUDE":-87.68289150565174},
{"STATE":"IL","ZIP":60610,"LATTITUDE":41.896781435527835,"ADDRESS":"10 W CHICAGO AVE  2900","YEAR":2011,"DOING_BUSINESS_AS_NAME":"CHICAGO STATE LOAN CO","POP_AT_RISK":1064748,"BUSINESS_TYPE":"Pawnbroker","LEGAL_NAME":"CHICAGO STATE LOAN LLC","LONGITUDE":-87.62861445726125},
{"STATE":"IL","ZIP":60620,"LATTITUDE":41.74577418544017,"ADDRESS":"8130 S ASHLAND AVE  ","YEAR":2011,"DOING_BUSINESS_AS_NAME":"BIG PAWN 3","POP_AT_RISK":440847,"BUSINESS_TYPE":"Pawnbroker","LEGAL_NAME":"FREEMAN JEWELERS, INC.","LONGITUDE":-87.66346862058643},
{"STATE":"IL","ZIP":60620,"LATTITUDE":41.73615956889584,"ADDRESS":"111 W 87TH ST  1ST","YEAR":2011,"DOING_BUSINESS_AS_NAME":"FREEMAN JEWELERS, INC.","POP_AT_RISK":220088,"BUSINESS_TYPE":"Pawnbroker","LEGAL_NAME":"FREEMAN JEWELERS, INC.","LONGITUDE":-87.62747171270124},
{"STATE":"IL","ZIP":60639,"LATTITUDE":41.92397484963082,"ADDRESS":"5900 W FULLERTON AVE 1ST ","YEAR":2011,"DOING_BUSINESS_AS_NAME":"FULLERTON JEWELRY & LOAN","POP_AT_RISK":518796,"BUSINESS_TYPE":"Pawnbroker","LEGAL_NAME":"FULLERTON PAWNERS, INC.","LONGITUDE":-87.77334948898178},
{"STATE":"IL","ZIP":60647,"LATTITUDE":41.90993716416665,"ADDRESS":"3413 W NORTH AVE  1ST","YEAR":2011,"DOING_BUSINESS_AS_NAME":"A-AARON JEWELRY & PAWNSHOP","POP_AT_RISK":117730,"BUSINESS_TYPE":"Pawnbroker","LEGAL_NAME":"A-AARON JEWELRY & PAWNSHOP","LONGITUDE":-87.71242997060891},
{"STATE":"IL","ZIP":60653,"LATTITUDE":41.80944685365532,"ADDRESS":"300 E 47TH ST 1ST ","YEAR":2011,"DOING_BUSINESS_AS_NAME":"SHELLY'S LOAN & JEWELRY CO","POP_AT_RISK":235452,"BUSINESS_TYPE":"Pawnbroker","LEGAL_NAME":"SHELLY'S LOAN & JEWELRY CO","LONGITUDE":-87.6195240872256},
{"STATE":"IL","ZIP":60619,"LATTITUDE":41.75112196233065,"ADDRESS":"645-47 E 79TH ST 1 ","YEAR":2011,"DOING_BUSINESS_AS_NAME":"CHATHAM JEWELRY & LOAN, INC.","POP_AT_RISK":371340,"BUSINESS_TYPE":"Pawnbroker","LEGAL_NAME":"CHATHAM JEWELRY & LOAN, INC.","LONGITUDE":-87.60830266825359},
{"STATE":"IL","ZIP":60614,"LATTITUDE":41.93030600192184,"ADDRESS":"2626 N CLARK ST  ","YEAR":2011,"DOING_BUSINESS_AS_NAME":"CLARK PAWNERS & JEWELERS INC","POP_AT_RISK":1409708,"BUSINESS_TYPE":"Pawnbroker","LEGAL_NAME":"CLARK PAWNERS & JEWELERS INC","LONGITUDE":-87.64382376864165},
{"STATE":"IL","ZIP":60624,"LATTITUDE":41.88076110275225,"ADDRESS":"4234 W MADISON ST 1ST ","YEAR":2011,"DOING_BUSINESS_AS_NAME":"INGRAM JEWELERS & PAWNER INC","POP_AT_RISK":561504,"BUSINESS_TYPE":"Pawnbroker","LEGAL_NAME":"INGRAM JEWELERS & PAWNERS INC","LONGITUDE":-87.73199189506212},
{"STATE":"IL","ZIP":60613,"LATTITUDE":41.95276709703117,"ADDRESS":"3900 N BROADWAY   ","YEAR":2011,"DOING_BUSINESS_AS_NAME":"CASH AMERICA JEWELRY & LOAN","POP_AT_RISK":211935,"BUSINESS_TYPE":"Pawnbroker","LEGAL_NAME":"CASH AMERICA, INC. OF ILLINOIS","LONGITUDE":-87.64980143619682},
{"STATE":"IL","ZIP":60657,"LATTITUDE":41.93860669664616,"ADDRESS":"3123 N ASHLAND AVE  ","YEAR":2011,"DOING_BUSINESS_AS_NAME":"CASH AMERICA JEWELRY & LOAN","POP_AT_RISK":1185223,"BUSINESS_TYPE":"Pawnbroker","LEGAL_NAME":"CASH AMERICA, INC. OF ILLINOIS","LONGITUDE":-87.66847691468966},
{"STATE":"IL","ZIP":60651,"LATTITUDE":41.905443604893954,"ADDRESS":"1334 N PULASKI RD 1ST ","YEAR":2011,"DOING_BUSINESS_AS_NAME":"CASH AMERICA JEWELRY & LOAN","POP_AT_RISK":358680,"BUSINESS_TYPE":"Pawnbroker","LEGAL_NAME":"CASH AMERICA, INC. OF ILLINOIS","LONGITUDE":-87.72653462580966},
{"STATE":"IL","ZIP":60632,"LATTITUDE":41.805875923240215,"ADDRESS":"4812 S KEDZIE AVE 1ST ","YEAR":2011,"DOING_BUSINESS_AS_NAME":"CASH AMERICA JEWELRY & LOAN","POP_AT_RISK":325542,"BUSINESS_TYPE":"Pawnbroker","LEGAL_NAME":"CASH AMERICA, INC. OF ILLINOIS","LONGITUDE":-87.70405781430063},
{"STATE":"IL","ZIP":60629,"LATTITUDE":41.77783047517681,"ADDRESS":"6337 -6339 S KEDZIE AVE  ","YEAR":2011,"DOING_BUSINESS_AS_NAME":"CASH AMERICAN JEWLERY & LOAN","POP_AT_RISK":375864,"BUSINESS_TYPE":"Pawnbroker","LEGAL_NAME":"CASH AMERICA, INC. OF ILLINOIS","LONGITUDE":-87.70296402155023},
{"STATE":"IL","ZIP":60647,"LATTITUDE":41.92559667156526,"ADDRESS":"2437 N MILWAUKEE AVE 1 ","YEAR":2011,"DOING_BUSINESS_AS_NAME":"CASH AMERICA JEWLERY & LOAN OF CHICAGO # 13","POP_AT_RISK":421560,"BUSINESS_TYPE":"Pawnbroker","LEGAL_NAME":"CASH AMERICA, INC. OF ILLINOIS","LONGITUDE":-87.70151052423877},
{"STATE":"IL","ZIP":60612,"LATTITUDE":41.88105098894221,"ADDRESS":"2401  -2405 W MADISON ST  1","YEAR":2011,"DOING_BUSINESS_AS_NAME":"CHICAGO PAWNERS & JEWELERS, IN","POP_AT_RISK":442764,"BUSINESS_TYPE":"Pawnbroker","LEGAL_NAME":"CHICAGO PAWNERS & JEWELERS INC","LONGITUDE":-87.6865321682786},
{"STATE":"IL","ZIP":60642,"LATTITUDE":41.904024731015234,"ADDRESS":"1227 N MILWAUKEE AVE 1ST ","YEAR":2011,"DOING_BUSINESS_AS_NAME":"BUCKTOWN PAWN","POP_AT_RISK":158571,"BUSINESS_TYPE":"Pawnbroker","LEGAL_NAME":"SL COHENS JEWELERY & LOAN INC.","LONGITUDE":-87.6672999333717},
{"STATE":"IL","ZIP":60618,"LATTITUDE":41.940531612454336,"ADDRESS":"3271 N MILWAUKEE AVE  ","YEAR":2011,"DOING_BUSINESS_AS_NAME":"WINDY CITY JEWELRY & LOAN LTD.","POP_AT_RISK":159729,"BUSINESS_TYPE":"Pawnbroker","LEGAL_NAME":"WINDY CITY JEWELRY & LOAN LTD.","LONGITUDE":-87.72597369716388},
{"STATE":"IL","ZIP":60649,"LATTITUDE":41.76908328344945,"ADDRESS":"6920 S STONY ISLAND AVE  1","YEAR":2011,"DOING_BUSINESS_AS_NAME":"D. ANGELO PAWNERS & JEWELERS, INC.","POP_AT_RISK":502294,"BUSINESS_TYPE":"Pawnbroker","LEGAL_NAME":"D. ANGELO PAWNERS & JEWELERS, INC.","LONGITUDE":-87.58643748790274},
{"STATE":"IL","ZIP":60632,"LATTITUDE":41.805603701251854,"ADDRESS":"4812 S PULASKI RD 1 ","YEAR":2011,"DOING_BUSINESS_AS_NAME":"Collectors Gallery","POP_AT_RISK":53884,"BUSINESS_TYPE":"Pawnbroker","LEGAL_NAME":"Collectors Gallery & Pawn Shop Inc.","LONGITUDE":-87.7236625178816},
}