[
  {
    "BUSINESS_TYPE": "Day Labor Agency", 
    "LEGAL_NAME": "ELITE LABOR SERVICES ON 55TH, LTD.", 
    "STATE": "IL", 
    "DOING_BUSINESS_AS_NAME": "ELITE LABOR SERVICES ON 55TH, LTD.", 
    "POP_AT_RISK": 54343, 
    "ZIP": 60632, 
    "ADDRESS": "3248-3254 W 55TH ST", 
    "YEAR": 2002, 
    "LONGITUDE": -87.705473754, 
    "LATTITUDE": 41.793594979
  }, 
  {
    "BUSINESS_TYPE": "Day Labor Agency", 
    "LEGAL_NAME": "ASSIST, INC.", 
    "STATE": "IL", 
    "DOING_BUSINESS_AS_NAME": "ASSIST, INC.", 
    "POP_AT_RISK": 79582, 
    "ZIP": 60625, 
    "ADDRESS": "4406 N KEDZIE AVE", 
    "YEAR": 2002, 
    "LONGITUDE": -87.708402605, 
    "LATTITUDE": 41.961398873
  }, 
  {
    "BUSINESS_TYPE": "Day Labor Agency", 
    "LEGAL_NAME": "LABOR TEMPS INC", 
    "STATE": "IL", 
    "DOING_BUSINESS_AS_NAME": "LABOR TEMPS INC", 
    "POP_AT_RISK": 46458, 
    "ZIP": 60608, 
    "ADDRESS": "1157 W 18TH ST", 
    "YEAR": 2002, 
    "LONGITUDE": -87.655425589, 
    "LATTITUDE": 41.857860499
  }, 
  {
    "BUSINESS_TYPE": "Day Labor Agency", 
    "LEGAL_NAME": "LABOR TEMPS INC", 
    "STATE": "IL", 
    "DOING_BUSINESS_AS_NAME": "LABOR TEMPS INC", 
    "POP_AT_RISK": 51132, 
    "ZIP": 60647, 
    "ADDRESS": "2147 N WESTERN AVE", 
    "YEAR": 2002, 
    "LONGITUDE": -87.687380615, 
    "LATTITUDE": 41.921210946
  }, 
  {
    "BUSINESS_TYPE": "Day Labor Agency", 
    "LEGAL_NAME": "FURST SERVICES COMPANY", 
    "STATE": "IL", 
    "DOING_BUSINESS_AS_NAME": "FURST STAFFING", 
    "POP_AT_RISK": 24933, 
    "ZIP": 60656, 
    "ADDRESS": "5509 N CUMBERLAND AVE", 
    "YEAR": 2002, 
    "LONGITUDE": -87.836434501, 
    "LATTITUDE": 41.979624085
  }, 
  {
    "BUSINESS_TYPE": "Day Labor Agency", 
    "LEGAL_NAME": "ASSIST, INC.", 
    "STATE": "IL", 
    "DOING_BUSINESS_AS_NAME": "ASSIST INC", 
    "POP_AT_RISK": 62644, 
    "ZIP": 60629, 
    "ADDRESS": "6237 S KEDZIE AVE 1ST", 
    "YEAR": 2002, 
    "LONGITUDE": -87.703010495, 
    "LATTITUDE": 41.779675073
  }, 
  {
    "BUSINESS_TYPE": "Day Labor Agency", 
    "LEGAL_NAME": "ELITE LABOR SERVICES ON 18TH STREET, LTD.", 
    "STATE": "IL", 
    "DOING_BUSINESS_AS_NAME": "ELITE LABOR SERVICES ON 18TH STREET LTD", 
    "POP_AT_RISK": 40278, 
    "ZIP": 60608, 
    "ADDRESS": "1854 W 18TH ST", 
    "YEAR": 2002, 
    "LONGITUDE": -87.673278956, 
    "LATTITUDE": 41.857805703
  }, 
  {
    "BUSINESS_TYPE": "Day Labor Agency", 
    "LEGAL_NAME": "REMEDIAL ENVIRONMENTAL MANPOWER, INC.", 
    "STATE": "IL", 
    "DOING_BUSINESS_AS_NAME": "REMEDIAL ENVIRONMENTAL MANPOWER, INC.", 
    "POP_AT_RISK": 40688, 
    "ZIP": 60661, 
    "ADDRESS": "178 N HALSTED ST", 
    "YEAR": 2002, 
    "LONGITUDE": -87.647614001, 
    "LATTITUDE": 41.885443161
  }, 
  {
    "BUSINESS_TYPE": "Day Labor Agency", 
    "LEGAL_NAME": "SCOTT LABOR LLC", 
    "STATE": "IL", 
    "DOING_BUSINESS_AS_NAME": "SCOTT LABOR LLC", 
    "POP_AT_RISK": 54079, 
    "ZIP": 60629, 
    "ADDRESS": "6050 S PULASKI RD", 
    "YEAR": 2002, 
    "LONGITUDE": -87.723016826, 
    "LATTITUDE": 41.782590683
  }, 
  {
    "BUSINESS_TYPE": "Day Labor Agency", 
    "LEGAL_NAME": "ELITE LABOR SERVICES, LTD.", 
    "STATE": "IL", 
    "DOING_BUSINESS_AS_NAME": "ELITE LABOR SERVICES LIMITED", 
    "POP_AT_RISK": 72172, 
    "ZIP": 60647, 
    "ADDRESS": "3217-19 W NORTH AVE", 
    "YEAR": 2002, 
    "LONGITUDE": -87.707657761, 
    "LATTITUDE": 41.909997328
  }, 
  {
    "BUSINESS_TYPE": "Day Labor Agency", 
    "LEGAL_NAME": "STAFF ONE, INC", 
    "STATE": "IL", 
    "DOING_BUSINESS_AS_NAME": "CLEARSTAFF, INC.", 
    "POP_AT_RISK": 68230, 
    "ZIP": 60641, 
    "ADDRESS": "3031 N PULASKI RD", 
    "YEAR": 2002, 
    "LONGITUDE": -87.726957328, 
    "LATTITUDE": 41.936307879
  }, 
  {
    "BUSINESS_TYPE": "Day Labor Agency", 
    "LEGAL_NAME": "LABOR POWER INC", 
    "STATE": "IL", 
    "DOING_BUSINESS_AS_NAME": "LABOR POWER INC", 
    "POP_AT_RISK": 57691, 
    "ZIP": 60647, 
    "ADDRESS": "2459 W ARMITAGE AVE  1ST", 
    "YEAR": 2002, 
    "LONGITUDE": -87.689791778, 
    "LATTITUDE": 41.917444659
  }, 
  {
    "BUSINESS_TYPE": "Day Labor Agency", 
    "LEGAL_NAME": "UNISTAFF, INC", 
    "STATE": "IL", 
    "DOING_BUSINESS_AS_NAME": "UNISTAFF, INC", 
    "POP_AT_RISK": 49064, 
    "ZIP": 60623, 
    "ADDRESS": "4068 W 26TH ST 1ST", 
    "YEAR": 2002, 
    "LONGITUDE": -87.727349383, 
    "LATTITUDE": 41.844326013
  }
]