[
  {
    "BUSINESS_TYPE": "Bed-And-Breakfast Establishment", 
    "LEGAL_NAME": "CHICAGO BED & BREAKFAST INC", 
    "STATE": "IL", 
    "DOING_BUSINESS_AS_NAME": "WINDY CITY URBAN INN", 
    "POP_AT_RISK": 71082, 
    "ZIP": 60614, 
    "ADDRESS": "607 W DEMING PL", 
    "YEAR": 2011, 
    "LONGITUDE": -87.644515696, 
    "LATTITUDE": 41.927889072
  }, 
  {
    "BUSINESS_TYPE": "Bed-And-Breakfast Establishment", 
    "LEGAL_NAME": "MONASTERY OF THE HOLY CROSS", 
    "STATE": "IL", 
    "DOING_BUSINESS_AS_NAME": "BENEDINTINE BED & BREAKFAST", 
    "POP_AT_RISK": 45904, 
    "ZIP": 60608, 
    "ADDRESS": "3111 S ABERDEEN ST", 
    "YEAR": 2011, 
    "LONGITUDE": -87.653426532, 
    "LATTITUDE": 41.837590525
  }, 
  {
    "BUSINESS_TYPE": "Bed-And-Breakfast Establishment", 
    "LEGAL_NAME": "LOGAN B&B, LLC", 
    "STATE": "IL", 
    "DOING_BUSINESS_AS_NAME": "LONGMAN & EAGLE", 
    "POP_AT_RISK": 70590, 
    "ZIP": 60647, 
    "ADDRESS": "2657 N KEDZIE AVE 2ND", 
    "YEAR": 2011, 
    "LONGITUDE": -87.707230807, 
    "LATTITUDE": 41.930126115
  }, 
  {
    "BUSINESS_TYPE": "Bed-And-Breakfast Establishment", 
    "LEGAL_NAME": "HOUSE 5863, INC.", 
    "STATE": "IL", 
    "DOING_BUSINESS_AS_NAME": "HOUSE 5863, INC.", 
    "POP_AT_RISK": 66350, 
    "ZIP": 60660, 
    "ADDRESS": "5863 N GLENWOOD AVE 2", 
    "YEAR": 2011, 
    "LONGITUDE": -87.664949268, 
    "LATTITUDE": 41.988471274
  }, 
  {
    "BUSINESS_TYPE": "Bed-And-Breakfast Establishment", 
    "LEGAL_NAME": "QB PARTNERS LLC", 
    "STATE": "IL", 
    "DOING_BUSINESS_AS_NAME": "UNIVERSITY QUARTERS", 
    "POP_AT_RISK": 37688, 
    "ZIP": 60637, 
    "ADDRESS": "6137 S KIMBARK AVE 1", 
    "YEAR": 2011, 
    "LONGITUDE": -87.594557359, 
    "LATTITUDE": 41.783073859
  }, 
  {
    "BUSINESS_TYPE": "Bed-And-Breakfast Establishment", 
    "LEGAL_NAME": "JOY M. SCHAAD", 
    "STATE": "IL", 
    "DOING_BUSINESS_AS_NAME": "JOY'S JOY, A VICTORIAN BED AND BREAKFAST", 
    "POP_AT_RISK": 73995, 
    "ZIP": 60613, 
    "ADDRESS": "1448 W PENSACOLA AVE", 
    "YEAR": 2011, 
    "LONGITUDE": -87.666272539, 
    "LATTITUDE": 41.960829339
  }, 
  {
    "BUSINESS_TYPE": "Bed-And-Breakfast Establishment", 
    "LEGAL_NAME": "OLD CHICAGO INN & TRANSIT COMPANY, LTD.", 
    "STATE": "IL", 
    "DOING_BUSINESS_AS_NAME": "OLD CHICAGO INN", 
    "POP_AT_RISK": 92754, 
    "ZIP": 60657, 
    "ADDRESS": "3222 N SHEFFIELD AVE", 
    "YEAR": 2011, 
    "LONGITUDE": -87.654276063, 
    "LATTITUDE": 41.940625753
  }, 
  {
    "BUSINESS_TYPE": "Bed-And-Breakfast Establishment", 
    "LEGAL_NAME": "BRIDGEPORT U.S.A. CORPORATION", 
    "STATE": "IL", 
    "DOING_BUSINESS_AS_NAME": "POLO CAFE AND CATERING BRIDGEPORT U.S.A.", 
    "POP_AT_RISK": 40251, 
    "ZIP": 60608, 
    "ADDRESS": "3322 S MORGAN ST", 
    "YEAR": 2011, 
    "LONGITUDE": -87.651182688, 
    "LATTITUDE": 41.833618869
  }, 
  {
    "BUSINESS_TYPE": "Bed-And-Breakfast Establishment", 
    "LEGAL_NAME": "THE ASHLAND ARMS GUEST HOUSE, INC.", 
    "STATE": "IL", 
    "DOING_BUSINESS_AS_NAME": "THE ASHLAND ARMS GUEST HOUSE", 
    "POP_AT_RISK": 67015, 
    "ZIP": 60626, 
    "ADDRESS": "6408 N CLARK ST 3 3", 
    "YEAR": 2011, 
    "LONGITUDE": -87.670830132, 
    "LATTITUDE": 41.998314
  }, 
  {
    "BUSINESS_TYPE": "Bed-And-Breakfast Establishment", 
    "LEGAL_NAME": "RAY REISS", 
    "STATE": "IL", 
    "DOING_BUSINESS_AS_NAME": "RAY'S BUCKTOWN BED & BREAKFAST", 
    "POP_AT_RISK": 47426, 
    "ZIP": 60647, 
    "ADDRESS": "2144 N LEAVITT ST", 
    "YEAR": 2011, 
    "LONGITUDE": -87.682781409, 
    "LATTITUDE": 41.921171204
  }, 
  {
    "BUSINESS_TYPE": "Bed-And-Breakfast Establishment", 
    "LEGAL_NAME": "RUBY ROOM, INC.", 
    "STATE": "IL", 
    "DOING_BUSINESS_AS_NAME": "RUBY ROOM", 
    "POP_AT_RISK": 63742, 
    "ZIP": 60622, 
    "ADDRESS": "1745 W DIVISION ST 3 & 4", 
    "YEAR": 2011, 
    "LONGITUDE": -87.671644951, 
    "LATTITUDE": 41.903168562
  }, 
  {
    "BUSINESS_TYPE": "Bed-And-Breakfast Establishment", 
    "LEGAL_NAME": "BARNES & HENLEY LLC", 
    "STATE": "IL", 
    "DOING_BUSINESS_AS_NAME": "NINA'S BED AND BREAKFAST", 
    "POP_AT_RISK": 70131, 
    "ZIP": 60640, 
    "ADDRESS": "1303 W WINONA ST 2 2", 
    "YEAR": 2011, 
    "LONGITUDE": -87.662647992, 
    "LATTITUDE": 41.975276153
  }, 
  {
    "BUSINESS_TYPE": "Bed-And-Breakfast Establishment", 
    "LEGAL_NAME": "HUTCHINS HOUSE LTD", 
    "STATE": "IL", 
    "DOING_BUSINESS_AS_NAME": "HUTCHINS HOUSE LTD", 
    "POP_AT_RISK": 39605, 
    "ZIP": 60615, 
    "ADDRESS": "4810 S ELLIS AVE", 
    "YEAR": 2011, 
    "LONGITUDE": -87.601804876, 
    "LATTITUDE": 41.807395667
  }, 
  {
    "BUSINESS_TYPE": "Bed-And-Breakfast Establishment", 
    "LEGAL_NAME": "CAT'S CRADLE LLC", 
    "STATE": "IL", 
    "DOING_BUSINESS_AS_NAME": "THE LANG HOUSE B&B ON SHERIDAN", 
    "POP_AT_RISK": 40073, 
    "ZIP": 60626, 
    "ADDRESS": "7421 N SHERIDAN RD", 
    "YEAR": 2011, 
    "LONGITUDE": -87.6651582, 
    "LATTITUDE": 42.016815597
  }, 
  {
    "BUSINESS_TYPE": "Bed-And-Breakfast Establishment", 
    "LEGAL_NAME": "MANOR HOME, LLC", 
    "STATE": "IL", 
    "DOING_BUSINESS_AS_NAME": "THE WHEELER MANSION", 
    "POP_AT_RISK": 31189, 
    "ZIP": 60616, 
    "ADDRESS": "2020 S CALUMET AVE 1-3", 
    "YEAR": 2011, 
    "LONGITUDE": -87.619235915, 
    "LATTITUDE": 41.854923626
  }, 
  {
    "BUSINESS_TYPE": "Bed-And-Breakfast Establishment", 
    "LEGAL_NAME": "ANDERS AND MYRA NYBERG", 
    "STATE": "IL", 
    "DOING_BUSINESS_AS_NAME": "NYBERG B & B", 
    "POP_AT_RISK": 81988, 
    "ZIP": 60613, 
    "ADDRESS": "3924 N JANSSEN AVE", 
    "YEAR": 2011, 
    "LONGITUDE": -87.665965828, 
    "LATTITUDE": 41.95327823
  }
]