{
{"STATE":"IL","ZIP":60658,"LATTITUDE":41.68687317864929,"ADDRESS":"11310 S CICERO   ","YEAR":2015,"DOING_BUSINESS_AS_NAME":"DOORNBOS INC","POP_AT_RISK":11480,"BUSINESS_TYPE":"Limited Business License","LEGAL_NAME":"DOORNBOS INC","LONGITUDE":-87.73971313261302},
{"STATE":"IL","ZIP":60666,"LATTITUDE":41.99501227995902,"ADDRESS":"10510 W ZEMKE RD 2 ","YEAR":2015,"DOING_BUSINESS_AS_NAME":"CH2M HILL, INC.","POP_AT_RISK":3490,"BUSINESS_TYPE":"Limited Business License","LEGAL_NAME":"CH2M HILL INC","LONGITUDE":-87.8872401937689},
{"STATE":"IL","ZIP":60628,"LATTITUDE":41.676218596862725,"ADDRESS":"801 E 120TH ST 1ST ","YEAR":2015,"DOING_BUSINESS_AS_NAME":"Brenner Tank Services LLC","POP_AT_RISK":10353,"BUSINESS_TYPE":"Limited Business License","LEGAL_NAME":"Brenner Tank Services LLC","LONGITUDE":-87.60323663210484},
{"STATE":"IL","ZIP":60617,"LATTITUDE":41.69080068110966,"ADDRESS":"11236 S TORRENCE AVE 1 ","YEAR":2015,"DOING_BUSINESS_AS_NAME":"SURMEIER & SURMEIER, INC.","POP_AT_RISK":5777,"BUSINESS_TYPE":"Limited Business License","LEGAL_NAME":"SURMEIER & SURMEIER, INC.","LONGITUDE":-87.55959706455512},
{"STATE":"IL","ZIP":60666,"LATTITUDE":41.98102104318452,"ADDRESS":"5600 N MANNHEIM RD 1 T38HA","YEAR":2015,"DOING_BUSINESS_AS_NAME":"OAKLEY","POP_AT_RISK":2681,"BUSINESS_TYPE":"Limited Business License","LEGAL_NAME":"RALPH LINK NEWCOMB & SOPHIE BUNDALO","LONGITUDE":-87.87891190944552},
}