[
  {
    "BUSINESS_TYPE": "Motor Vehicle Repair : Engine Only (Class II)", 
    "LEGAL_NAME": "GREAT AUTO RACE", 
    "STATE": "IL", 
    "DOING_BUSINESS_AS_NAME": "GREAT AUTO RACE", 
    "POP_AT_RISK": 45393, 
    "ZIP": 60651, 
    "ADDRESS": "4242 W DIVISION ST 1ST", 
    "YEAR": 2000, 
    "LONGITUDE": -87.732952828, 
    "LATTITUDE": 41.902673806
  }, 
  {
    "BUSINESS_TYPE": "Motor Vehicle Repair : Engine Only (Class II)", 
    "LEGAL_NAME": "PHOLAPRUT WONGHANSA", 
    "STATE": "IL", 
    "DOING_BUSINESS_AS_NAME": "CHICAGO GARAGE", 
    "POP_AT_RISK": 76535, 
    "ZIP": 60613, 
    "ADDRESS": "3827 N ASHLAND AVE  1", 
    "YEAR": 2000, 
    "LONGITUDE": -87.668832135, 
    "LATTITUDE": 41.951469721
  }, 
  {
    "BUSINESS_TYPE": "Motor Vehicle Repair : Engine Only (Class II)", 
    "LEGAL_NAME": "VEYSEL AGO", 
    "STATE": "IL", 
    "DOING_BUSINESS_AS_NAME": "AGO'S AUTO REPAIR", 
    "POP_AT_RISK": 77560, 
    "ZIP": 60613, 
    "ADDRESS": "1830 W IRVING PARK RD 1ST", 
    "YEAR": 2000, 
    "LONGITUDE": -87.675419544, 
    "LATTITUDE": 41.954309698
  }, 
  {
    "BUSINESS_TYPE": "Motor Vehicle Repair : Engine Only (Class II)", 
    "LEGAL_NAME": "A V VARGAS/A ZATSORENKO", 
    "STATE": "IL", 
    "DOING_BUSINESS_AS_NAME": "CHICAGO CLASSIC IMPORTS", 
    "POP_AT_RISK": 53862, 
    "ZIP": 60645, 
    "ADDRESS": "6948 N WESTERN AVE 1ST", 
    "YEAR": 2000, 
    "LONGITUDE": -87.690298925, 
    "LATTITUDE": 42.008277723
  }, 
  {
    "BUSINESS_TYPE": "Motor Vehicle Repair : Engine Only (Class II)", 
    "LEGAL_NAME": "RUBEN ROMAN", 
    "STATE": "IL", 
    "DOING_BUSINESS_AS_NAME": "LOS PRIMOS AUTO MECHANIC", 
    "POP_AT_RISK": 48246, 
    "ZIP": 60651, 
    "ADDRESS": "1043 N HOMAN AVE 1ST", 
    "YEAR": 2000, 
    "LONGITUDE": -87.711437352, 
    "LATTITUDE": 41.900528036
  }, 
  {
    "BUSINESS_TYPE": "Motor Vehicle Repair : Engine Only (Class II)", 
    "LEGAL_NAME": "LUCAS TIRE & AUTO CARE CENTERS", 
    "STATE": "IL", 
    "DOING_BUSINESS_AS_NAME": "LUCAS TIRE & AUTO CARE", 
    "POP_AT_RISK": 61061, 
    "ZIP": 60618, 
    "ADDRESS": "3501 N WESTERN AVE", 
    "YEAR": 2000, 
    "LONGITUDE": -87.68806222, 
    "LATTITUDE": 41.945012072
  }, 
  {
    "BUSINESS_TYPE": "Motor Vehicle Repair : Engine Only (Class II)", 
    "LEGAL_NAME": "C.T.MATHEWS", 
    "STATE": "IL", 
    "DOING_BUSINESS_AS_NAME": "A P M AUTOMOTIVE", 
    "POP_AT_RISK": 23936, 
    "ZIP": 60619, 
    "ADDRESS": "556 E 95TH ST 1ST", 
    "YEAR": 2000, 
    "LONGITUDE": -87.609454853, 
    "LATTITUDE": 41.722081581
  }, 
  {
    "BUSINESS_TYPE": "Motor Vehicle Repair : Engine Only (Class II)", 
    "LEGAL_NAME": "J & R AUTO SPECIALISTS INC", 
    "STATE": "IL", 
    "DOING_BUSINESS_AS_NAME": "J R AUTO SPECIALISTS INC", 
    "POP_AT_RISK": 48311, 
    "ZIP": 60609, 
    "ADDRESS": "4236 S WESTERN AVE 1ST", 
    "YEAR": 2000, 
    "LONGITUDE": -87.684794375, 
    "LATTITUDE": 41.816404419
  }, 
  {
    "BUSINESS_TYPE": "Motor Vehicle Repair : Engine Only (Class II)", 
    "LEGAL_NAME": "STRICTLY ROTARY INC", 
    "STATE": "IL", 
    "DOING_BUSINESS_AS_NAME": "STRICTLY ROTARY INC", 
    "POP_AT_RISK": 69222, 
    "ZIP": 60639, 
    "ADDRESS": "2043 N KILDARE AVE 1ST", 
    "YEAR": 2000, 
    "LONGITUDE": -87.733787362, 
    "LATTITUDE": 41.918392387
  }, 
  {
    "BUSINESS_TYPE": "Motor Vehicle Repair : Engine Only (Class II)", 
    "LEGAL_NAME": "ALBANY AUTO INC", 
    "STATE": "IL", 
    "DOING_BUSINESS_AS_NAME": "ALBANY AUTO SALES", 
    "POP_AT_RISK": 66770, 
    "ZIP": 60618, 
    "ADDRESS": "4030 N ROCKWELL ST", 
    "YEAR": 2000, 
    "LONGITUDE": -87.693399294, 
    "LATTITUDE": 41.954937185
  }, 
  {
    "BUSINESS_TYPE": "Motor Vehicle Repair : Engine Only (Class II)", 
    "LEGAL_NAME": "FRANK'S SERVICE II, INC", 
    "STATE": "IL", 
    "DOING_BUSINESS_AS_NAME": "FRANK'S SERVICE II, INC", 
    "POP_AT_RISK": 74533, 
    "ZIP": 60647, 
    "ADDRESS": "2801 W ARMITAGE AVE  1ST", 
    "YEAR": 2000, 
    "LONGITUDE": -87.69725064, 
    "LATTITUDE": 41.917379317
  }, 
  {
    "BUSINESS_TYPE": "Motor Vehicle Repair : Engine Only (Class II)", 
    "LEGAL_NAME": "RAFAEL RODRIGUEZ", 
    "STATE": "IL", 
    "DOING_BUSINESS_AS_NAME": "HOWARD'S TIRE SHOP", 
    "POP_AT_RISK": 38369, 
    "ZIP": 60626, 
    "ADDRESS": "1535  -00037 W HOWARD ST 1ST", 
    "YEAR": 2000, 
    "LONGITUDE": -87.6697009, 
    "LATTITUDE": 42.019255534
  }, 
  {
    "BUSINESS_TYPE": "Motor Vehicle Repair : Engine Only (Class II)", 
    "LEGAL_NAME": "TRUCKERS OIL PROS INC.", 
    "STATE": "IL", 
    "DOING_BUSINESS_AS_NAME": "TRUCKERS OIL PROS INC.", 
    "POP_AT_RISK": 40373, 
    "ZIP": 60632, 
    "ADDRESS": "2756 W 35TH ST  1", 
    "YEAR": 2000, 
    "LONGITUDE": -87.694609957, 
    "LATTITUDE": 41.830196662
  }, 
  {
    "BUSINESS_TYPE": "Motor Vehicle Repair : Engine Only (Class II)", 
    "LEGAL_NAME": "WEST LOOP AUTO INC", 
    "STATE": "IL", 
    "DOING_BUSINESS_AS_NAME": "WEST LOOP AUTO BODY", 
    "POP_AT_RISK": 36789, 
    "ZIP": 60607, 
    "ADDRESS": "318 S MORGAN ST", 
    "YEAR": 2000, 
    "LONGITUDE": -87.652038868, 
    "LATTITUDE": 41.877263277
  }, 
  {
    "BUSINESS_TYPE": "Motor Vehicle Repair : Engine Only (Class II)", 
    "LEGAL_NAME": "JOE M. CALIZ .", 
    "STATE": "IL", 
    "DOING_BUSINESS_AS_NAME": "JOE'S AUTO REPAIR", 
    "POP_AT_RISK": 39984, 
    "ZIP": 60608, 
    "ADDRESS": "2019 S RACINE AVE 1ST", 
    "YEAR": 2000, 
    "LONGITUDE": -87.656180839, 
    "LATTITUDE": 41.854562387
  }, 
  {
    "BUSINESS_TYPE": "Motor Vehicle Repair : Engine Only (Class II)", 
    "LEGAL_NAME": "LYNCH FORD, INC.", 
    "STATE": "IL", 
    "DOING_BUSINESS_AS_NAME": "LYNCH FORD, INC.", 
    "POP_AT_RISK": 52898, 
    "ZIP": 60641, 
    "ADDRESS": "5133 W IRVING PARK RD", 
    "YEAR": 2000, 
    "LONGITUDE": -87.756048735, 
    "LATTITUDE": 41.953203301
  }, 
  {
    "BUSINESS_TYPE": "Motor Vehicle Repair : Engine Only (Class II)", 
    "LEGAL_NAME": "K & P MUFFLER MAN INC", 
    "STATE": "IL", 
    "DOING_BUSINESS_AS_NAME": "MUFFLER & BRAKE MAN CAR CARE C", 
    "POP_AT_RISK": 34675, 
    "ZIP": 60628, 
    "ADDRESS": "11038 S HALSTED ST", 
    "YEAR": 2000, 
    "LONGITUDE": -87.64254358, 
    "LATTITUDE": 41.69300857
  }, 
  {
    "BUSINESS_TYPE": "Motor Vehicle Repair : Engine Only (Class II)", 
    "LEGAL_NAME": "AUTO SERVICIOS SANCHEZ INC", 
    "STATE": "IL", 
    "DOING_BUSINESS_AS_NAME": "AUTO SERVICIOS SANCHEZ INC", 
    "POP_AT_RISK": 47505, 
    "ZIP": 60623, 
    "ADDRESS": "4239 W 26TH ST", 
    "YEAR": 2000, 
    "LONGITUDE": -87.73102069, 
    "LATTITUDE": 41.844053678
  }, 
  {
    "BUSINESS_TYPE": "Motor Vehicle Repair : Engine Only (Class II)", 
    "LEGAL_NAME": "TALMUS HIGGINS", 
    "STATE": "IL", 
    "DOING_BUSINESS_AS_NAME": "HIGGINS TOWING & AUTO REPAIR", 
    "POP_AT_RISK": 40549, 
    "ZIP": 60636, 
    "ADDRESS": "6809 S ASHLAND AVE", 
    "YEAR": 2000, 
    "LONGITUDE": -87.663813029, 
    "LATTITUDE": 41.770057225
  }, 
  {
    "BUSINESS_TYPE": "Motor Vehicle Repair : Engine Only (Class II)", 
    "LEGAL_NAME": "CARLOS MORENO/OMAR M CRUZ", 
    "STATE": "IL", 
    "DOING_BUSINESS_AS_NAME": "DANNY'S AUTO & GLASS SHOP", 
    "POP_AT_RISK": 49523, 
    "ZIP": 60639, 
    "ADDRESS": "6307 W GRAND AVE 1ST", 
    "YEAR": 2000, 
    "LONGITUDE": -87.783309262, 
    "LATTITUDE": 41.92187061
  }, 
  {
    "BUSINESS_TYPE": "Motor Vehicle Repair : Engine Only (Class II)", 
    "LEGAL_NAME": "D & J CAR CARE CORPORATION", 
    "STATE": "IL", 
    "DOING_BUSINESS_AS_NAME": "D & J CAR CARE CORPORATION", 
    "POP_AT_RISK": 39498, 
    "ZIP": 60619, 
    "ADDRESS": "8701 S COTTAGE GROVE AVE 1ST", 
    "YEAR": 2000, 
    "LONGITUDE": -87.604675061, 
    "LATTITUDE": 41.736606078
  }, 
  {
    "BUSINESS_TYPE": "Motor Vehicle Repair : Engine Only (Class II)", 
    "LEGAL_NAME": "CHICAGO AUTOWERKS INC", 
    "STATE": "IL", 
    "DOING_BUSINESS_AS_NAME": "CHICAGO AUTOWERKS INC", 
    "POP_AT_RISK": 64117, 
    "ZIP": 60640, 
    "ADDRESS": "1122 W BALMORAL AVE", 
    "YEAR": 2000, 
    "LONGITUDE": -87.658904238, 
    "LATTITUDE": 41.980097839
  }, 
  {
    "BUSINESS_TYPE": "Motor Vehicle Repair : Engine Only (Class II)", 
    "LEGAL_NAME": "ERIC GOLDMANN", 
    "STATE": "IL", 
    "DOING_BUSINESS_AS_NAME": "AUTO SPORT", 
    "POP_AT_RISK": 69941, 
    "ZIP": 60622, 
    "ADDRESS": "1930 W DIVISION ST", 
    "YEAR": 2000, 
    "LONGITUDE": -87.676103756, 
    "LATTITUDE": 41.90331962
  }, 
  {
    "BUSINESS_TYPE": "Motor Vehicle Repair : Engine Only (Class II)", 
    "LEGAL_NAME": "ANDY'S AUTO CLINIC", 
    "STATE": "IL", 
    "DOING_BUSINESS_AS_NAME": "ANDY'S AUTO CLINIC", 
    "POP_AT_RISK": 28225, 
    "ZIP": 60634, 
    "ADDRESS": "7500 W BELMONT AVE 1ST", 
    "YEAR": 2000, 
    "LONGITUDE": -87.814137668, 
    "LATTITUDE": 41.938076444
  }
]