[
  {
    "BUSINESS_TYPE": "Heliports", 
    "LEGAL_NAME": "PRESENCE CHICAGO HOSPITALS NETWORK", 
    "STATE": "IL", 
    "DOING_BUSINESS_AS_NAME": "PRESENCE RESURRECTION MEDICAL CENTER", 
    "POP_AT_RISK": 21744, 
    "ZIP": 60631, 
    "ADDRESS": "7435 W TALCOTT AVE", 
    "YEAR": 2013, 
    "LONGITUDE": -87.812977912, 
    "LATTITUDE": 41.988575183
  }, 
  {
    "BUSINESS_TYPE": "Heliports", 
    "LEGAL_NAME": "THE UNIVERSITY OF CHICAGO MEDICAL CENTER", 
    "STATE": "IL", 
    "DOING_BUSINESS_AS_NAME": "BERNARD MITCHELL HOSPITAL", 
    "POP_AT_RISK": 44399, 
    "ZIP": 60637, 
    "ADDRESS": "5815 S MARYLAND AVE  MC1132", 
    "YEAR": 2013, 
    "LONGITUDE": -87.604813722, 
    "LATTITUDE": 41.789041956
  }, 
  {
    "BUSINESS_TYPE": "Heliports", 
    "LEGAL_NAME": "WGN CONTINENTAL BROADCASTING COMPANY, LLC", 
    "STATE": "IL", 
    "DOING_BUSINESS_AS_NAME": "WGN TV", 
    "POP_AT_RISK": 62740, 
    "ZIP": 60618, 
    "ADDRESS": "2501 W BRADLEY PL", 
    "YEAR": 2013, 
    "LONGITUDE": -87.690934716, 
    "LATTITUDE": 41.94935856
  }, 
  {
    "BUSINESS_TYPE": "Heliports", 
    "LEGAL_NAME": "PRESENCE CHICAGO HOSPITALS NETWORK", 
    "STATE": "IL", 
    "DOING_BUSINESS_AS_NAME": "PRESENCE ST. MARY OF NAZARETH HOSPITAL", 
    "POP_AT_RISK": 73308, 
    "ZIP": 60622, 
    "ADDRESS": "2233 W DIVISION ST", 
    "YEAR": 2013, 
    "LONGITUDE": -87.683484931, 
    "LATTITUDE": 41.902971912
  }, 
  {
    "BUSINESS_TYPE": "Heliports", 
    "LEGAL_NAME": "ANN & ROBERT H. LURIE CHILDREN'S HOSPITAL OF CHICAGO", 
    "STATE": "IL", 
    "DOING_BUSINESS_AS_NAME": "ANN & ROBERT H. LURIE CHILDREN'S HOSPITAL OF CHICAGO", 
    "POP_AT_RISK": 75757, 
    "ZIP": 60611, 
    "ADDRESS": "225 E CHICAGO AVE ROOF", 
    "YEAR": 2013, 
    "LONGITUDE": -87.621755235, 
    "LATTITUDE": 41.896659881
  }, 
  {
    "BUSINESS_TYPE": "Heliports", 
    "LEGAL_NAME": "THE UNIVERSITY OF CHICAGO MEDICAL CENTER", 
    "STATE": "IL", 
    "DOING_BUSINESS_AS_NAME": "UNIVERSITY OF CHICAGO MEDICAL CENTER", 
    "POP_AT_RISK": 41865, 
    "ZIP": 60637, 
    "ADDRESS": "5700 S MARYLAND AVE  MC1132", 
    "YEAR": 2013, 
    "LONGITUDE": -87.605084912, 
    "LATTITUDE": 41.791260618
  }
]