[
  {
    "BUSINESS_TYPE": "Accessory Garage", 
    "LEGAL_NAME": "ABM INDUSTRY GROUPS, LLC", 
    "STATE": "IL", 
    "DOING_BUSINESS_AS_NAME": "SYSTEM PARKING INC", 
    "POP_AT_RISK": 73066, 
    "ZIP": 60613, 
    "ADDRESS": "4332 N PAULINA ST", 
    "YEAR": 2003, 
    "LONGITUDE": -87.670959054, 
    "LATTITUDE": 41.960741286
  }, 
  {
    "BUSINESS_TYPE": "Accessory Garage", 
    "LEGAL_NAME": "HRH, L.L.C.", 
    "STATE": "IL", 
    "DOING_BUSINESS_AS_NAME": "SPRINGHILL SUITES BY MARRIOTT", 
    "POP_AT_RISK": 18242, 
    "ZIP": 60631, 
    "ADDRESS": "8101 W HIGGINS RD", 
    "YEAR": 2003, 
    "LONGITUDE": -87.829818376, 
    "LATTITUDE": 41.985318073
  }, 
  {
    "BUSINESS_TYPE": "Accessory Garage", 
    "LEGAL_NAME": "THE CLINTON CO", 
    "STATE": "IL", 
    "DOING_BUSINESS_AS_NAME": "THE CLINTON CO.", 
    "POP_AT_RISK": 25682, 
    "ZIP": 60615, 
    "ADDRESS": "5020-5050 S LAKE SHORE WEST DR  315", 
    "YEAR": 2003, 
    "LONGITUDE": -87.582208968, 
    "LATTITUDE": 41.803747258
  }, 
  {
    "BUSINESS_TYPE": "Accessory Garage", 
    "LEGAL_NAME": "MEDPARK MANAGEMENT INC.", 
    "STATE": "IL", 
    "DOING_BUSINESS_AS_NAME": "MEDPARK MANAGEMENT INC", 
    "POP_AT_RISK": 37430, 
    "ZIP": 60612, 
    "ADDRESS": "2108 W TAYLOR ST", 
    "YEAR": 2003, 
    "LONGITUDE": -87.678567083, 
    "LATTITUDE": 41.869183996
  }, 
  {
    "BUSINESS_TYPE": "Accessory Garage", 
    "LEGAL_NAME": "SP PLUS CORPORATION", 
    "STATE": "IL", 
    "DOING_BUSINESS_AS_NAME": "NEWPORT CONDOMINIUM GARAGE", 
    "POP_AT_RISK": 35334, 
    "ZIP": 60615, 
    "ADDRESS": "4800 S LAKE SHORE WEST DR  1", 
    "YEAR": 2003, 
    "LONGITUDE": -87.587717082, 
    "LATTITUDE": 41.808674172
  }, 
  {
    "BUSINESS_TYPE": "Accessory Garage", 
    "LEGAL_NAME": "INTERPARK LLC", 
    "STATE": "IL", 
    "DOING_BUSINESS_AS_NAME": "INTERPARK", 
    "POP_AT_RISK": 48675, 
    "ZIP": 60622, 
    "ADDRESS": "1500 N DAYTON ST", 
    "YEAR": 2003, 
    "LONGITUDE": -87.64958844, 
    "LATTITUDE": 41.908617231
  }, 
  {
    "BUSINESS_TYPE": "Accessory Garage", 
    "LEGAL_NAME": "ABM INDUSTRY GROUPS, LLC", 
    "STATE": "IL", 
    "DOING_BUSINESS_AS_NAME": "AMPCO SYSTEM PARKING, INC.", 
    "POP_AT_RISK": 65352, 
    "ZIP": 60626, 
    "ADDRESS": "6700 N GREENVIEW AVE", 
    "YEAR": 2003, 
    "LONGITUDE": -87.668260257, 
    "LATTITUDE": 42.00367622
  }, 
  {
    "BUSINESS_TYPE": "Accessory Garage", 
    "LEGAL_NAME": "MADSION MONROE LLC.", 
    "STATE": "IL", 
    "DOING_BUSINESS_AS_NAME": "MADISON MONROE LLC", 
    "POP_AT_RISK": 41809, 
    "ZIP": 60607, 
    "ADDRESS": "1301 W MADISON ST", 
    "YEAR": 2003, 
    "LONGITUDE": -87.65966035, 
    "LATTITUDE": 41.881463025
  }, 
  {
    "BUSINESS_TYPE": "Accessory Garage", 
    "LEGAL_NAME": "ABM INDUSTRY GROUPS, LLC", 
    "STATE": "IL", 
    "DOING_BUSINESS_AS_NAME": "SYSTEM PARKING INC", 
    "POP_AT_RISK": 87108, 
    "ZIP": 60657, 
    "ADDRESS": "2851 N SEMINARY AVE", 
    "YEAR": 2003, 
    "LONGITUDE": -87.656191675, 
    "LATTITUDE": 41.93412004
  }
]