[
  {
    "BUSINESS_TYPE": "Animal Care Facility", 
    "LEGAL_NAME": "FRANCISCO DAMIAN MOLINA", 
    "STATE": "IL", 
    "DOING_BUSINESS_AS_NAME": "CHICAGO PUPPY PLACE", 
    "POP_AT_RISK": 71600, 
    "ZIP": 60639, 
    "ADDRESS": "4343 W FULLERTON AVE 1ST", 
    "YEAR": 2012, 
    "LONGITUDE": -87.735873489, 
    "LATTITUDE": 41.924263584
  }, 
  {
    "BUSINESS_TYPE": "Animal Care Facility", 
    "LEGAL_NAME": "The Doggy Dojo Inc", 
    "STATE": "IL", 
    "DOING_BUSINESS_AS_NAME": "The Doggy Dojo", 
    "POP_AT_RISK": 64192, 
    "ZIP": 60618, 
    "ADDRESS": "3735 W BELMONT AVE 1", 
    "YEAR": 2012, 
    "LONGITUDE": -87.721108719, 
    "LATTITUDE": 41.939058532
  }, 
  {
    "BUSINESS_TYPE": "Animal Care Facility", 
    "LEGAL_NAME": "ROSA ALVAREZ", 
    "STATE": "IL", 
    "DOING_BUSINESS_AS_NAME": "CHICAGO GROOMING PARLOR", 
    "POP_AT_RISK": 52834, 
    "ZIP": 60629, 
    "ADDRESS": "5930 S PULASKI RD 1ST", 
    "YEAR": 2012, 
    "LONGITUDE": -87.723083912, 
    "LATTITUDE": 41.785071959
  }, 
  {
    "BUSINESS_TYPE": "Animal Care Facility", 
    "LEGAL_NAME": "PETCO ANIMAL SUPPLIES STORES, INC.", 
    "STATE": "IL", 
    "DOING_BUSINESS_AS_NAME": "PETCO #1983", 
    "POP_AT_RISK": 16113, 
    "ZIP": 60643, 
    "ADDRESS": "11720 S MARSHFIELD AVE 1", 
    "YEAR": 2012, 
    "LONGITUDE": -87.662590199, 
    "LATTITUDE": 41.68064793
  }, 
  {
    "BUSINESS_TYPE": "Animal Care Facility", 
    "LEGAL_NAME": "BARKING DOG INC.", 
    "STATE": "IL", 
    "DOING_BUSINESS_AS_NAME": "Canine Corral", 
    "POP_AT_RISK": 20191, 
    "ZIP": 60631, 
    "ADDRESS": "6460 N MILWAUKEE AVE 1ST", 
    "YEAR": 2012, 
    "LONGITUDE": -87.789258468, 
    "LATTITUDE": 41.998670425
  }, 
  {
    "BUSINESS_TYPE": "Animal Care Facility", 
    "LEGAL_NAME": "DIAMOND DOGS, LTD.", 
    "STATE": "IL", 
    "DOING_BUSINESS_AS_NAME": "DIAMOND DOGS, LTD.", 
    "POP_AT_RISK": 63177, 
    "ZIP": 60618, 
    "ADDRESS": "3800 W MONTROSE AVE 1 1", 
    "YEAR": 2012, 
    "LONGITUDE": -87.722993576, 
    "LATTITUDE": 41.961117505
  }, 
  {
    "BUSINESS_TYPE": "Animal Care Facility", 
    "LEGAL_NAME": "FOR DOG'S SAKE, INC.", 
    "STATE": "IL", 
    "DOING_BUSINESS_AS_NAME": "FOR DOGS SAKE", 
    "POP_AT_RISK": 58132, 
    "ZIP": 60647, 
    "ADDRESS": "1757 N KIMBALL AVE", 
    "YEAR": 2012, 
    "LONGITUDE": -87.711646959, 
    "LATTITUDE": 41.913471659
  }, 
  {
    "BUSINESS_TYPE": "Animal Care Facility", 
    "LEGAL_NAME": "PARK PET SHOP INC.", 
    "STATE": "IL", 
    "DOING_BUSINESS_AS_NAME": "PARK PET SHOP INC", 
    "POP_AT_RISK": 20928, 
    "ZIP": 60655, 
    "ADDRESS": "10429 S KEDZIE AVE 1ST", 
    "YEAR": 2012, 
    "LONGITUDE": -87.701104046, 
    "LATTITUDE": 41.70347027
  }, 
  {
    "BUSINESS_TYPE": "Animal Care Facility", 
    "LEGAL_NAME": "PETSMART, INC.", 
    "STATE": "IL", 
    "DOING_BUSINESS_AS_NAME": "PETSMART", 
    "POP_AT_RISK": 32478, 
    "ZIP": 60607, 
    "ADDRESS": "1101 S CANAL ST", 
    "YEAR": 2012, 
    "LONGITUDE": -87.639098928, 
    "LATTITUDE": 41.868889711
  }, 
  {
    "BUSINESS_TYPE": "Animal Care Facility", 
    "LEGAL_NAME": "DAMEAN BRIAN MOLINA", 
    "STATE": "IL", 
    "DOING_BUSINESS_AS_NAME": "BEVERLY HILLS PUPS", 
    "POP_AT_RISK": 23286, 
    "ZIP": 60643, 
    "ADDRESS": "1850 W 95TH ST", 
    "YEAR": 2012, 
    "LONGITUDE": -87.669571681, 
    "LATTITUDE": 41.721228614
  }, 
  {
    "BUSINESS_TYPE": "Animal Care Facility", 
    "LEGAL_NAME": "JESSICA ABERNATHY", 
    "STATE": "IL", 
    "DOING_BUSINESS_AS_NAME": "KIRBYS", 
    "POP_AT_RISK": 36314, 
    "ZIP": 60646, 
    "ADDRESS": "5706 N NORTHWEST HWY 1 1", 
    "YEAR": 2012, 
    "LONGITUDE": -87.786872959, 
    "LATTITUDE": 41.985357194
  }, 
  {
    "BUSINESS_TYPE": "Animal Care Facility", 
    "LEGAL_NAME": "JAMES R MORGAN", 
    "STATE": "IL", 
    "DOING_BUSINESS_AS_NAME": "MORGAN CANINE ACADEMY", 
    "POP_AT_RISK": 57853, 
    "ZIP": 60641, 
    "ADDRESS": "4934 W BELMONT AVE 1ST", 
    "YEAR": 2012, 
    "LONGITUDE": -87.750827507, 
    "LATTITUDE": 41.938885342
  }, 
  {
    "BUSINESS_TYPE": "Animal Care Facility", 
    "LEGAL_NAME": "K & R ANIMAL CARE, INC.", 
    "STATE": "IL", 
    "DOING_BUSINESS_AS_NAME": "CENTRAL BARK DOGGY DAY CARE", 
    "POP_AT_RISK": 53243, 
    "ZIP": 60641, 
    "ADDRESS": "3358 N PULASKI RD", 
    "YEAR": 2012, 
    "LONGITUDE": -87.72743364, 
    "LATTITUDE": 41.942490614
  }, 
  {
    "BUSINESS_TYPE": "Animal Care Facility", 
    "LEGAL_NAME": "CAPRICE SMITH", 
    "STATE": "IL", 
    "DOING_BUSINESS_AS_NAME": "V I P ALBREED GROOMING", 
    "POP_AT_RISK": 18918, 
    "ZIP": 60631, 
    "ADDRESS": "6702 N NORTHWEST HWY 1ST", 
    "YEAR": 2012, 
    "LONGITUDE": -87.816366463, 
    "LATTITUDE": 42.002769256
  }, 
  {
    "BUSINESS_TYPE": "Animal Care Facility", 
    "LEGAL_NAME": "PETCO ANIMAL SUPPLIES STORES, INC.", 
    "STATE": "IL", 
    "DOING_BUSINESS_AS_NAME": "PETCO #1965", 
    "POP_AT_RISK": 65951, 
    "ZIP": 60610, 
    "ADDRESS": "440 N ORLEANS ST", 
    "YEAR": 2012, 
    "LONGITUDE": -87.637144726, 
    "LATTITUDE": 41.890341971
  }, 
  {
    "BUSINESS_TYPE": "Animal Care Facility", 
    "LEGAL_NAME": "LYNN MARIA MULRENIN", 
    "STATE": "IL", 
    "DOING_BUSINESS_AS_NAME": "POSH PET DAY SPA", 
    "POP_AT_RISK": 25020, 
    "ZIP": 60655, 
    "ADDRESS": "3514 W 111TH ST 1ST", 
    "YEAR": 2012, 
    "LONGITUDE": -87.708806662, 
    "LATTITUDE": 41.691551688
  }, 
  {
    "BUSINESS_TYPE": "Animal Care Facility", 
    "LEGAL_NAME": "LAURIE BENNETT", 
    "STATE": "IL", 
    "DOING_BUSINESS_AS_NAME": "FEE FEE'S", 
    "POP_AT_RISK": 18938, 
    "ZIP": 60638, 
    "ADDRESS": "5935 W 63RD ST  1", 
    "YEAR": 2012, 
    "LONGITUDE": -87.770486961, 
    "LATTITUDE": 41.777771632
  }, 
  {
    "BUSINESS_TYPE": "Animal Care Facility", 
    "LEGAL_NAME": "JOE'S PET SALON", 
    "STATE": "IL", 
    "DOING_BUSINESS_AS_NAME": "JOE'S PET SALON", 
    "POP_AT_RISK": 52457, 
    "ZIP": 60608, 
    "ADDRESS": "2733 W CERMAK RD 1", 
    "YEAR": 2012, 
    "LONGITUDE": -87.694349192, 
    "LATTITUDE": 41.851806335
  }, 
  {
    "BUSINESS_TYPE": "Animal Care Facility", 
    "LEGAL_NAME": "LUCKY DOG PET SERVICES", 
    "STATE": "IL", 
    "DOING_BUSINESS_AS_NAME": "LUCKY DOG PET SERVICE", 
    "POP_AT_RISK": 50241, 
    "ZIP": 60618, 
    "ADDRESS": "2945 N ELSTON AVE", 
    "YEAR": 2012, 
    "LONGITUDE": -87.691754141, 
    "LATTITUDE": 41.935031633
  }, 
  {
    "BUSINESS_TYPE": "Animal Care Facility", 
    "LEGAL_NAME": "BARBARA FLEMING", 
    "STATE": "IL", 
    "DOING_BUSINESS_AS_NAME": "Collar and Leash Inc", 
    "POP_AT_RISK": 16446, 
    "ZIP": 60652, 
    "ADDRESS": "3537 W COLUMBUS AVE  1ST", 
    "YEAR": 2012, 
    "LONGITUDE": -87.710429114, 
    "LATTITUDE": 41.744208291
  }, 
  {
    "BUSINESS_TYPE": "Animal Care Facility", 
    "LEGAL_NAME": "ERNESTO PEREZ", 
    "STATE": "IL", 
    "DOING_BUSINESS_AS_NAME": "HAPPY PETS BOARDING & GROOMING", 
    "POP_AT_RISK": 45493, 
    "ZIP": 60632, 
    "ADDRESS": "3789 S ARCHER AVE", 
    "YEAR": 2012, 
    "LONGITUDE": -87.68699721, 
    "LATTITUDE": 41.82453434
  }, 
  {
    "BUSINESS_TYPE": "Animal Care Facility", 
    "LEGAL_NAME": "ANIMALSENSE CANINE TRAINING AND BEHAVIOR, INC.", 
    "STATE": "IL", 
    "DOING_BUSINESS_AS_NAME": "ANIMALSENSE CANINE TRAINING AND BEHAVIOR, INC.", 
    "POP_AT_RISK": 63597, 
    "ZIP": 60610, 
    "ADDRESS": "1407 N WELLS ST  GW", 
    "YEAR": 2012, 
    "LONGITUDE": -87.634465059, 
    "LATTITUDE": 41.907910555
  }, 
  {
    "BUSINESS_TYPE": "Animal Care Facility", 
    "LEGAL_NAME": "ROBERT ELLMAN", 
    "STATE": "IL", 
    "DOING_BUSINESS_AS_NAME": "7 SEAS TROPAQUARIUM", 
    "POP_AT_RISK": 9426, 
    "ZIP": 60633, 
    "ADDRESS": "13311 S BRANDON AVE 1ST", 
    "YEAR": 2012, 
    "LONGITUDE": -87.545768811, 
    "LATTITUDE": 41.65330346
  }, 
  {
    "BUSINESS_TYPE": "Animal Care Facility", 
    "LEGAL_NAME": "THE BARK BARK CLUB, INC.", 
    "STATE": "IL", 
    "DOING_BUSINESS_AS_NAME": "BARK BARK CLUB PET SERVICES", 
    "POP_AT_RISK": 64872, 
    "ZIP": 60660, 
    "ADDRESS": "5943 N BROADWAY  1 1", 
    "YEAR": 2012, 
    "LONGITUDE": -87.660127912, 
    "LATTITUDE": 41.990285535
  }, 
  {
    "BUSINESS_TYPE": "Animal Care Facility", 
    "LEGAL_NAME": "DOGONE FUN INC", 
    "STATE": "IL", 
    "DOING_BUSINESS_AS_NAME": "DOGONE FUN INC", 
    "POP_AT_RISK": 40698, 
    "ZIP": 60616, 
    "ADDRESS": "1717 S STATE ST", 
    "YEAR": 2012, 
    "LONGITUDE": -87.627063902, 
    "LATTITUDE": 41.858439194
  }, 
  {
    "BUSINESS_TYPE": "Animal Care Facility", 
    "LEGAL_NAME": "P4P-MDW LLC", 
    "STATE": "IL", 
    "DOING_BUSINESS_AS_NAME": "PARADISE 4 PAWS MIDWAY", 
    "POP_AT_RISK": 28252, 
    "ZIP": 60632, 
    "ADDRESS": "5262 S KOLMAR AVE 1", 
    "YEAR": 2012, 
    "LONGITUDE": -87.736888228, 
    "LATTITUDE": 41.796833452
  }, 
  {
    "BUSINESS_TYPE": "Animal Care Facility", 
    "LEGAL_NAME": "MARY JO KRUK", 
    "STATE": "IL", 
    "DOING_BUSINESS_AS_NAME": "VIP POODLE SALON", 
    "POP_AT_RISK": 24262, 
    "ZIP": 60638, 
    "ADDRESS": "6725 W ARCHER AVE", 
    "YEAR": 2012, 
    "LONGITUDE": -87.790204466, 
    "LATTITUDE": 41.79207239
  }, 
  {
    "BUSINESS_TYPE": "Animal Care Facility", 
    "LEGAL_NAME": "BARK PLACE LLC", 
    "STATE": "IL", 
    "DOING_BUSINESS_AS_NAME": "BARK PLACE", 
    "POP_AT_RISK": 58366, 
    "ZIP": 60626, 
    "ADDRESS": "1775 W GREENLEAF AVE 1ST", 
    "YEAR": 2012, 
    "LONGITUDE": -87.675222508, 
    "LATTITUDE": 42.010083704
  }
]