[
  {
    "BUSINESS_TYPE": "Special Event Liquor", 
    "LEGAL_NAME": "BUSE, INC.", 
    "STATE": "IL", 
    "DOING_BUSINESS_AS_NAME": "KUMA'S CORNER", 
    "POP_AT_RISK": 59649, 
    "ZIP": 60618, 
    "ADDRESS": "3200 N FRANCISCO AVE", 
    "YEAR": 2010, 
    "LONGITUDE": -87.700425863, 
    "LATTITUDE": 41.939436775
  }, 
  {
    "BUSINESS_TYPE": "Special Event Liquor", 
    "LEGAL_NAME": "LINCOLN PARK BREWERY, INC.", 
    "STATE": "IL", 
    "DOING_BUSINESS_AS_NAME": "Goose Island", 
    "POP_AT_RISK": 78136, 
    "ZIP": 60647, 
    "ADDRESS": "3150 W LOGAN BLVD", 
    "YEAR": 2010, 
    "LONGITUDE": -87.706797744, 
    "LATTITUDE": 41.928865932
  }, 
  {
    "BUSINESS_TYPE": "Special Event Liquor", 
    "LEGAL_NAME": "LINCOLN PARK BREWERY, INC.", 
    "STATE": "IL", 
    "DOING_BUSINESS_AS_NAME": "Lincoln Park Brewery", 
    "POP_AT_RISK": 33177, 
    "ZIP": 60649, 
    "ADDRESS": "7059 S SOUTH SHORE DR", 
    "YEAR": 2010, 
    "LONGITUDE": -87.566323723, 
    "LATTITUDE": 41.766603022
  }, 
  {
    "BUSINESS_TYPE": "Special Event Liquor", 
    "LEGAL_NAME": "THE BEVERAGE SHOPPE, LLC", 
    "STATE": "IL", 
    "DOING_BUSINESS_AS_NAME": "The Beverage Shop LLC", 
    "POP_AT_RISK": 38939, 
    "ZIP": 60615, 
    "ADDRESS": "5300 S LAKE PARK WEST AVE", 
    "YEAR": 2010, 
    "LONGITUDE": -87.587442036, 
    "LATTITUDE": 41.799483826
  }, 
  {
    "BUSINESS_TYPE": "Special Event Liquor", 
    "LEGAL_NAME": "MCATEER'S IRISH PUB INCORPORATED", 
    "STATE": "IL", 
    "DOING_BUSINESS_AS_NAME": "Margaret McLoughlin", 
    "POP_AT_RISK": 23071, 
    "ZIP": 60631, 
    "ADDRESS": "5943 N NORTHWEST HWY", 
    "YEAR": 2010, 
    "LONGITUDE": -87.792979377, 
    "LATTITUDE": 41.98904253
  }, 
  {
    "BUSINESS_TYPE": "Special Event Liquor", 
    "LEGAL_NAME": "4923 N. CLARK STREET, INC.", 
    "STATE": "IL", 
    "DOING_BUSINESS_AS_NAME": "Colm B. Treacy", 
    "POP_AT_RISK": 60282, 
    "ZIP": 60640, 
    "ADDRESS": "5020 N CLARK ST", 
    "YEAR": 2010, 
    "LONGITUDE": -87.668180234, 
    "LATTITUDE": 41.973129616
  }, 
  {
    "BUSINESS_TYPE": "Special Event Liquor", 
    "LEGAL_NAME": "LEVY PREMIUM FOODSERVICE LIMITED PARTNERSHIP", 
    "STATE": "IL", 
    "DOING_BUSINESS_AS_NAME": "Levy Premium Foodservice", 
    "POP_AT_RISK": 87147, 
    "ZIP": 60613, 
    "ADDRESS": "3600 N SHEFFIELD AVE", 
    "YEAR": 2010, 
    "LONGITUDE": -87.654480315, 
    "LATTITUDE": 41.947331827
  }, 
  {
    "BUSINESS_TYPE": "Special Event Liquor", 
    "LEGAL_NAME": "SAL GADD INC", 
    "STATE": "IL", 
    "DOING_BUSINESS_AS_NAME": "O'LEARY 'S PUBLIC HOUSE", 
    "POP_AT_RISK": 21910, 
    "ZIP": 60649, 
    "ADDRESS": "6300 S COAST GUARD DR", 
    "YEAR": 2010, 
    "LONGITUDE": -87.575066734, 
    "LATTITUDE": 41.779680761
  }, 
  {
    "BUSINESS_TYPE": "Special Event Liquor", 
    "LEGAL_NAME": "THE BEVERAGE SHOPPE, LLC", 
    "STATE": "IL", 
    "DOING_BUSINESS_AS_NAME": "The Beverage Shoppe", 
    "POP_AT_RISK": 39009, 
    "ZIP": 60615, 
    "ADDRESS": "5300 S KIMBARK AVE", 
    "YEAR": 2010, 
    "LONGITUDE": -87.595170627, 
    "LATTITUDE": 41.799398235
  }, 
  {
    "BUSINESS_TYPE": "Special Event Liquor", 
    "LEGAL_NAME": "THE BIG FOUR, LLC", 
    "STATE": "IL", 
    "DOING_BUSINESS_AS_NAME": "Hamburger Mary's", 
    "POP_AT_RISK": 56728, 
    "ZIP": 60640, 
    "ADDRESS": "1500 W BALMORAL AVE", 
    "YEAR": 2010, 
    "LONGITUDE": -87.668355106, 
    "LATTITUDE": 41.979952447
  }, 
  {
    "BUSINESS_TYPE": "Special Event Liquor", 
    "LEGAL_NAME": "VINCI LIMITED PARTNERSHIP", 
    "STATE": "IL", 
    "DOING_BUSINESS_AS_NAME": "VINCI", 
    "POP_AT_RISK": 65260, 
    "ZIP": 60618, 
    "ADDRESS": "2000 W BELMONT AVE", 
    "YEAR": 2010, 
    "LONGITUDE": -87.678478773, 
    "LATTITUDE": 41.939681194
  }, 
  {
    "BUSINESS_TYPE": "Special Event Liquor", 
    "LEGAL_NAME": "LINCOLN PARK BREWERY, INC.", 
    "STATE": "IL", 
    "DOING_BUSINESS_AS_NAME": "Liincoln Park Brewery", 
    "POP_AT_RISK": 39440, 
    "ZIP": 60637, 
    "ADDRESS": "1050 E MIDWAY PLAISANCE", 
    "YEAR": 2010, 
    "LONGITUDE": -87.599706657, 
    "LATTITUDE": 41.787306635
  }, 
  {
    "BUSINESS_TYPE": "Special Event Liquor", 
    "LEGAL_NAME": "PODRUMEDIC RESTAURANTS, INC.", 
    "STATE": "IL", 
    "DOING_BUSINESS_AS_NAME": "Podrumedic Restaurants, Inc.", 
    "POP_AT_RISK": 9757, 
    "ZIP": 60656, 
    "ADDRESS": "5000 N CUMBERLAND AVE", 
    "YEAR": 2010, 
    "LONGITUDE": -87.836797307, 
    "LATTITUDE": 41.97028928
  }, 
  {
    "BUSINESS_TYPE": "Special Event Liquor", 
    "LEGAL_NAME": "LEVY PREMIUM FOODSERVICE LIMITED PARTNERSHIP", 
    "STATE": "IL", 
    "DOING_BUSINESS_AS_NAME": "Levy Preminum Foodservice", 
    "POP_AT_RISK": 38652, 
    "ZIP": 60612, 
    "ADDRESS": "1901 W MADISON ST", 
    "YEAR": 2010, 
    "LONGITUDE": -87.674282534, 
    "LATTITUDE": 41.881241457
  }
]