[
  {
    "BUSINESS_TYPE": "Mobile Food Dispenser", 
    "LEGAL_NAME": "BOLAT AFRICAN CUISINE INC.", 
    "STATE": "IL", 
    "DOING_BUSINESS_AS_NAME": "BOLAT AFRICAN CUISINE", 
    "POP_AT_RISK": 93256, 
    "ZIP": 60657, 
    "ADDRESS": "3346 N CLARK ST", 
    "YEAR": 2003, 
    "LONGITUDE": -87.65319557, 
    "LATTITUDE": 41.942855635
  }, 
  {
    "BUSINESS_TYPE": "Mobile Food Dispenser", 
    "LEGAL_NAME": "FELICIANO MARTINEZ", 
    "STATE": "IL", 
    "DOING_BUSINESS_AS_NAME": "PALETERIA ARCOS IRIS", 
    "POP_AT_RISK": 57873, 
    "ZIP": 60618, 
    "ADDRESS": "2050 W BELMONT AVE", 
    "YEAR": 2003, 
    "LONGITUDE": -87.680360379, 
    "LATTITUDE": 41.939657595
  }, 
  {
    "BUSINESS_TYPE": "Mobile Food Dispenser", 
    "LEGAL_NAME": "ERASMUS N EZEJI", 
    "STATE": "IL", 
    "DOING_BUSINESS_AS_NAME": "VEE-VEE'S AFRICAN RESTAURANT", 
    "POP_AT_RISK": 65024, 
    "ZIP": 60660, 
    "ADDRESS": "6232 N BROADWAY  1ST", 
    "YEAR": 2003, 
    "LONGITUDE": -87.660581392, 
    "LATTITUDE": 41.995515636
  }, 
  {
    "BUSINESS_TYPE": "Mobile Food Dispenser", 
    "LEGAL_NAME": "JAY SHREE VARAHI INC", 
    "STATE": "IL", 
    "DOING_BUSINESS_AS_NAME": "JAY SHREEE VARAHI INC", 
    "POP_AT_RISK": 62134, 
    "ZIP": 60601, 
    "ADDRESS": "201 N CLARK ST", 
    "YEAR": 2003, 
    "LONGITUDE": -87.630829816, 
    "LATTITUDE": 41.885771217
  }, 
  {
    "BUSINESS_TYPE": "Mobile Food Dispenser", 
    "LEGAL_NAME": "CARRIE CONRAD", 
    "STATE": "IL", 
    "DOING_BUSINESS_AS_NAME": "C C ICE CREAM", 
    "POP_AT_RISK": 28748, 
    "ZIP": 60628, 
    "ADDRESS": "10120 S EGGLESTON AVE 1ST", 
    "YEAR": 2003, 
    "LONGITUDE": -87.633809637, 
    "LATTITUDE": 41.710003708
  }, 
  {
    "BUSINESS_TYPE": "Mobile Food Dispenser", 
    "LEGAL_NAME": "JOHN BARANGO", 
    "STATE": "IL", 
    "DOING_BUSINESS_AS_NAME": "HAPPY ICE CREAM", 
    "POP_AT_RISK": 30788, 
    "ZIP": 60609, 
    "ADDRESS": "4551 S RACINE AVE 1ST #", 
    "YEAR": 2003, 
    "LONGITUDE": -87.655056833, 
    "LATTITUDE": 41.810925652
  }, 
  {
    "BUSINESS_TYPE": "Mobile Food Dispenser", 
    "LEGAL_NAME": "MCKK, INC", 
    "STATE": "IL", 
    "DOING_BUSINESS_AS_NAME": "PICKERMANS OF WILLOWBROOK", 
    "POP_AT_RISK": 37988, 
    "ZIP": 60527, 
    "ADDRESS": "858 W 75TH ST", 
    "YEAR": 2003, 
    "LONGITUDE": -87.646607314, 
    "LATTITUDE": 41.758452148
  }, 
  {
    "BUSINESS_TYPE": "Mobile Food Dispenser", 
    "LEGAL_NAME": "A. P. DELI INC.", 
    "STATE": "IL", 
    "DOING_BUSINESS_AS_NAME": "A P DELI", 
    "POP_AT_RISK": 46802, 
    "ZIP": 60649, 
    "ADDRESS": "2025 E 75TH ST", 
    "YEAR": 2003, 
    "LONGITUDE": -87.575054467, 
    "LATTITUDE": 41.758779401
  }, 
  {
    "BUSINESS_TYPE": "Mobile Food Dispenser", 
    "LEGAL_NAME": "ADDIE M. LEWIS", 
    "STATE": "IL", 
    "DOING_BUSINESS_AS_NAME": "THE BLACK WOK", 
    "POP_AT_RISK": 38146, 
    "ZIP": 60619, 
    "ADDRESS": "405 E 75TH ST", 
    "YEAR": 2003, 
    "LONGITUDE": -87.614905611, 
    "LATTITUDE": 41.758301897
  }, 
  {
    "BUSINESS_TYPE": "Mobile Food Dispenser", 
    "LEGAL_NAME": "EL CORRAL INC", 
    "STATE": "IL", 
    "DOING_BUSINESS_AS_NAME": "EL CORRAL INC", 
    "POP_AT_RISK": 81988, 
    "ZIP": 60613, 
    "ADDRESS": "1513 W IRVING PARK RD", 
    "YEAR": 2003, 
    "LONGITUDE": -87.668109451, 
    "LATTITUDE": 41.954192795
  }, 
  {
    "BUSINESS_TYPE": "Mobile Food Dispenser", 
    "LEGAL_NAME": "VICTORIA ONAMUSI", 
    "STATE": "IL", 
    "DOING_BUSINESS_AS_NAME": "T B S AFRICAN RESTAURNTS", 
    "POP_AT_RISK": 62520, 
    "ZIP": 60640, 
    "ADDRESS": "4507 N SHERIDAN RD 1ST", 
    "YEAR": 2003, 
    "LONGITUDE": -87.654624014, 
    "LATTITUDE": 41.963855272
  }, 
  {
    "BUSINESS_TYPE": "Mobile Food Dispenser", 
    "LEGAL_NAME": "WILLIE A. DREW", 
    "STATE": "IL", 
    "DOING_BUSINESS_AS_NAME": "BRONZEVILLE-MAXWELL DELI", 
    "POP_AT_RISK": 33396, 
    "ZIP": 60653, 
    "ADDRESS": "318 E 43RD ST", 
    "YEAR": 2003, 
    "LONGITUDE": -87.61894377, 
    "LATTITUDE": 41.816710012
  }, 
  {
    "BUSINESS_TYPE": "Mobile Food Dispenser", 
    "LEGAL_NAME": "WACKO'S UNO LLC", 
    "STATE": "IL", 
    "DOING_BUSINESS_AS_NAME": "DONNIE'S PIZZA", 
    "POP_AT_RISK": 35206, 
    "ZIP": 60616, 
    "ADDRESS": "3258 S WELLS ST", 
    "YEAR": 2003, 
    "LONGITUDE": -87.632944996, 
    "LATTITUDE": 41.834666275
  }, 
  {
    "BUSINESS_TYPE": "Mobile Food Dispenser", 
    "LEGAL_NAME": "DARRYL E ABERNATHY SR", 
    "STATE": "IL", 
    "DOING_BUSINESS_AS_NAME": "D A 'S DELI", 
    "POP_AT_RISK": 32955, 
    "ZIP": 60652, 
    "ADDRESS": "2926 W COLUMBUS AVE", 
    "YEAR": 2003, 
    "LONGITUDE": -87.696188435, 
    "LATTITUDE": 41.753398386
  }, 
  {
    "BUSINESS_TYPE": "Mobile Food Dispenser", 
    "LEGAL_NAME": "ANTHONY M DAKHOUL", 
    "STATE": "IL", 
    "DOING_BUSINESS_AS_NAME": "ANTHONY M DAKHOUL", 
    "POP_AT_RISK": 52156, 
    "ZIP": 60659, 
    "ADDRESS": "3107 W DEVON AVE", 
    "YEAR": 2003, 
    "LONGITUDE": -87.707251787, 
    "LATTITUDE": 41.997315763
  }, 
  {
    "BUSINESS_TYPE": "Mobile Food Dispenser", 
    "LEGAL_NAME": "GEORGES CHICKEN & RIBS INC.", 
    "STATE": "IL", 
    "DOING_BUSINESS_AS_NAME": "GEORGES CHICKEN & RIBS", 
    "POP_AT_RISK": 32218, 
    "ZIP": 60619, 
    "ADDRESS": "7113 S STATE ST", 
    "YEAR": 2003, 
    "LONGITUDE": -87.624750012, 
    "LATTITUDE": 41.765067779
  }
]