[
  {
    "BUSINESS_TYPE": "Caterer's Liquor License", 
    "LEGAL_NAME": "CATERING CREATIONS INC.", 
    "STATE": "IL", 
    "DOING_BUSINESS_AS_NAME": "D'ABSOLUTE RESTAURANT & CATERING", 
    "POP_AT_RISK": 55383, 
    "ZIP": 60641, 
    "ADDRESS": "5106 W IRVING PARK RD", 
    "YEAR": 2012, 
    "LONGITUDE": -87.754990433, 
    "LATTITUDE": 41.953435255
  }, 
  {
    "BUSINESS_TYPE": "Caterer's Liquor License", 
    "LEGAL_NAME": "THE HEARTY BOYS CATERERS, INC.", 
    "STATE": "IL", 
    "DOING_BUSINESS_AS_NAME": "SPRITZ BURGER", 
    "POP_AT_RISK": 72818, 
    "ZIP": 60613, 
    "ADDRESS": "3819 N BROADWAY  1", 
    "YEAR": 2012, 
    "LONGITUDE": -87.649477477, 
    "LATTITUDE": 41.95180076
  }, 
  {
    "BUSINESS_TYPE": "Caterer's Liquor License", 
    "LEGAL_NAME": "MANGEZ MOI, INC.", 
    "STATE": "IL", 
    "DOING_BUSINESS_AS_NAME": "LA PETITE FOLIE", 
    "POP_AT_RISK": 38948, 
    "ZIP": 60615, 
    "ADDRESS": "1504 E 55TH ST 1ST #", 
    "YEAR": 2012, 
    "LONGITUDE": -87.588940793, 
    "LATTITUDE": 41.795308185
  }, 
  {
    "BUSINESS_TYPE": "Caterer's Liquor License", 
    "LEGAL_NAME": "CONN'S CAFE AND CATERING INC.", 
    "STATE": "IL", 
    "DOING_BUSINESS_AS_NAME": "CONN'S CAFE & CATERING INC", 
    "POP_AT_RISK": 73420, 
    "ZIP": 60660, 
    "ADDRESS": "1535 W DEVON AVE 1ST", 
    "YEAR": 2012, 
    "LONGITUDE": -87.66910712, 
    "LATTITUDE": 41.997985219
  }, 
  {
    "BUSINESS_TYPE": "Caterer's Liquor License", 
    "LEGAL_NAME": "DRINKS ON ME LLC", 
    "STATE": "IL", 
    "DOING_BUSINESS_AS_NAME": "DRINKS ON ME", 
    "POP_AT_RISK": 33658, 
    "ZIP": 60619, 
    "ADDRESS": "1229 E 87TH ST", 
    "YEAR": 2012, 
    "LONGITUDE": -87.594020986, 
    "LATTITUDE": 41.736690717
  }, 
  {
    "BUSINESS_TYPE": "Caterer's Liquor License", 
    "LEGAL_NAME": "LAGO VENTURES INCORPORATED", 
    "STATE": "IL", 
    "DOING_BUSINESS_AS_NAME": "LAGO BANQUETS", 
    "POP_AT_RISK": 55898, 
    "ZIP": 60639, 
    "ADDRESS": "6121 W DIVERSEY AVE # 1ST", 
    "YEAR": 2012, 
    "LONGITUDE": -87.779234714, 
    "LATTITUDE": 41.93098196
  }, 
  {
    "BUSINESS_TYPE": "Caterer's Liquor License", 
    "LEGAL_NAME": "BELLA DONNA CATERING, LLC", 
    "STATE": "IL", 
    "DOING_BUSINESS_AS_NAME": "\"C\"  A CATERING AND EVENT COMPANY", 
    "POP_AT_RISK": 52427, 
    "ZIP": 60634, 
    "ADDRESS": "4300-4304 N CENTRAL AVE", 
    "YEAR": 2012, 
    "LONGITUDE": -87.767332393, 
    "LATTITUDE": 41.958699199
  }, 
  {
    "BUSINESS_TYPE": "Caterer's Liquor License", 
    "LEGAL_NAME": "SARANECKI BROS. CATERING, INC.", 
    "STATE": "IL", 
    "DOING_BUSINESS_AS_NAME": "GARDEN MANOR", 
    "POP_AT_RISK": 64704, 
    "ZIP": 60639, 
    "ADDRESS": "4720 - 4726 W ARMITAGE AVE 1", 
    "YEAR": 2012, 
    "LONGITUDE": -87.744568256, 
    "LATTITUDE": 41.917060365
  }, 
  {
    "BUSINESS_TYPE": "Caterer's Liquor License", 
    "LEGAL_NAME": "JHW Enterprises LLC", 
    "STATE": "IL", 
    "DOING_BUSINESS_AS_NAME": "FINESSE CUISINE", 
    "POP_AT_RISK": 61793, 
    "ZIP": 60651, 
    "ADDRESS": "1116 N KEDZIE AVE 1ST", 
    "YEAR": 2012, 
    "LONGITUDE": -87.706896413, 
    "LATTITUDE": 41.901565968
  }, 
  {
    "BUSINESS_TYPE": "Caterer's Liquor License", 
    "LEGAL_NAME": "TAILGATORS ON NORTHWEST HIGHWAY, INC.", 
    "STATE": "IL", 
    "DOING_BUSINESS_AS_NAME": "TAILGATORS", 
    "POP_AT_RISK": 18918, 
    "ZIP": 60631, 
    "ADDRESS": "6726 N NORTHWEST HWY", 
    "YEAR": 2012, 
    "LONGITUDE": -87.817158397, 
    "LATTITUDE": 42.003270634
  }, 
  {
    "BUSINESS_TYPE": "Caterer's Liquor License", 
    "LEGAL_NAME": "FRIENDS OF WASHBURNE CULINARY INSTITUTE", 
    "STATE": "IL", 
    "DOING_BUSINESS_AS_NAME": "THE PARROT CAGE", 
    "POP_AT_RISK": 33177, 
    "ZIP": 60649, 
    "ADDRESS": "7059 S SOUTH SHORE DR", 
    "YEAR": 2012, 
    "LONGITUDE": -87.566323723, 
    "LATTITUDE": 41.766603022
  }, 
  {
    "BUSINESS_TYPE": "Caterer's Liquor License", 
    "LEGAL_NAME": "SUPAROSSA ON WESTERN INC.", 
    "STATE": "IL", 
    "DOING_BUSINESS_AS_NAME": "PETE'S PIZZA", 
    "POP_AT_RISK": 65249, 
    "ZIP": 60618, 
    "ADDRESS": "3737 N WESTERN AVE", 
    "YEAR": 2012, 
    "LONGITUDE": -87.688192141, 
    "LATTITUDE": 41.949664551
  }, 
  {
    "BUSINESS_TYPE": "Caterer's Liquor License", 
    "LEGAL_NAME": "PIERRE MONTGOMERY", 
    "STATE": "IL", 
    "DOING_BUSINESS_AS_NAME": "PIERRES CATERING", 
    "POP_AT_RISK": 41109, 
    "ZIP": 60619, 
    "ADDRESS": "1433 E 79TH ST 1ST", 
    "YEAR": 2012, 
    "LONGITUDE": -87.589338911, 
    "LATTITUDE": 41.751340678
  }, 
  {
    "BUSINESS_TYPE": "Caterer's Liquor License", 
    "LEGAL_NAME": "Rosebud Catering & Events, Inc.", 
    "STATE": "IL", 
    "DOING_BUSINESS_AS_NAME": "Rosebud Catering & Events, Inc.", 
    "POP_AT_RISK": 76394, 
    "ZIP": 60614, 
    "ADDRESS": "1415 W DIVERSEY PKWY", 
    "YEAR": 2012, 
    "LONGITUDE": -87.664208177, 
    "LATTITUDE": 41.932360031
  }, 
  {
    "BUSINESS_TYPE": "Caterer's Liquor License", 
    "LEGAL_NAME": "ARCHER ADVISORS, LLC", 
    "STATE": "IL", 
    "DOING_BUSINESS_AS_NAME": "SHOP & SAVE MARKET", 
    "POP_AT_RISK": 22813, 
    "ZIP": 60638, 
    "ADDRESS": "5829 S ARCHER AVE 1ST", 
    "YEAR": 2012, 
    "LONGITUDE": -87.759683367, 
    "LATTITUDE": 41.796019624
  }, 
  {
    "BUSINESS_TYPE": "Caterer's Liquor License", 
    "LEGAL_NAME": "NORFLO HOLDING CORPORATION", 
    "STATE": "IL", 
    "DOING_BUSINESS_AS_NAME": "NORMAN'S", 
    "POP_AT_RISK": 32458, 
    "ZIP": 60653, 
    "ADDRESS": "1001-1003 E 43RD ST 1ST", 
    "YEAR": 2012, 
    "LONGITUDE": -87.601787319, 
    "LATTITUDE": 41.816761721
  }, 
  {
    "BUSINESS_TYPE": "Caterer's Liquor License", 
    "LEGAL_NAME": "SARANECKI BROS. CATERING, INC.", 
    "STATE": "IL", 
    "DOING_BUSINESS_AS_NAME": "GARDEN TERRACE", 
    "POP_AT_RISK": 38072, 
    "ZIP": 60634, 
    "ADDRESS": "6328-30 W IRVING PARK RD 1", 
    "YEAR": 2012, 
    "LONGITUDE": -87.785300491, 
    "LATTITUDE": 41.953041956
  }, 
  {
    "BUSINESS_TYPE": "Caterer's Liquor License", 
    "LEGAL_NAME": "MONDO PICCOLO, LLC", 
    "STATE": "IL", 
    "DOING_BUSINESS_AS_NAME": "PICCOLO MONDO CAFE", 
    "POP_AT_RISK": 32458, 
    "ZIP": 60637, 
    "ADDRESS": "1642 E 56TH ST 1", 
    "YEAR": 2012, 
    "LONGITUDE": -87.58494662, 
    "LATTITUDE": 41.793514076
  }, 
  {
    "BUSINESS_TYPE": "Caterer's Liquor License", 
    "LEGAL_NAME": "BRISAS, INC.", 
    "STATE": "IL", 
    "DOING_BUSINESS_AS_NAME": "LONGMAN & EAGLE", 
    "POP_AT_RISK": 70590, 
    "ZIP": 60647, 
    "ADDRESS": "2657 N KEDZIE AVE", 
    "YEAR": 2012, 
    "LONGITUDE": -87.707230807, 
    "LATTITUDE": 41.930126115
  }, 
  {
    "BUSINESS_TYPE": "Caterer's Liquor License", 
    "LEGAL_NAME": "LEONA'S PIZZERIA, INC.", 
    "STATE": "IL", 
    "DOING_BUSINESS_AS_NAME": "LEONAS", 
    "POP_AT_RISK": 15322, 
    "ZIP": 60617, 
    "ADDRESS": "9156 S STONY ISLAND AVE", 
    "YEAR": 2012, 
    "LONGITUDE": -87.585580361, 
    "LATTITUDE": 41.727952378
  }, 
  {
    "BUSINESS_TYPE": "Caterer's Liquor License", 
    "LEGAL_NAME": "CONNIE'S PIZZA, INC.", 
    "STATE": "IL", 
    "DOING_BUSINESS_AS_NAME": "CONNIE'S PIZZA", 
    "POP_AT_RISK": 35832, 
    "ZIP": 60616, 
    "ADDRESS": "2373 S ARCHER AVE 1ST", 
    "YEAR": 2012, 
    "LONGITUDE": -87.641058402, 
    "LATTITUDE": 41.849379215
  }, 
  {
    "BUSINESS_TYPE": "Caterer's Liquor License", 
    "LEGAL_NAME": "FANFARES CATERING SERVICES, INC.", 
    "STATE": "IL", 
    "DOING_BUSINESS_AS_NAME": "FANFARES CATERING", 
    "POP_AT_RISK": 21856, 
    "ZIP": 60619, 
    "ADDRESS": "742 E 95TH ST", 
    "YEAR": 2012, 
    "LONGITUDE": -87.605204037, 
    "LATTITUDE": 41.722151785
  }, 
  {
    "BUSINESS_TYPE": "Caterer's Liquor License", 
    "LEGAL_NAME": "COMPASS GROUP USA, INC.", 
    "STATE": "IL", 
    "DOING_BUSINESS_AS_NAME": "GILHOOLEY'S GRANDE SALOON", 
    "POP_AT_RISK": 11260, 
    "ZIP": 60655, 
    "ADDRESS": "3901 W 103RD ST", 
    "YEAR": 2012, 
    "LONGITUDE": -87.718539946, 
    "LATTITUDE": 41.705823553
  }, 
  {
    "BUSINESS_TYPE": "Caterer's Liquor License", 
    "LEGAL_NAME": "BOUTIQUE BITES, LLC", 
    "STATE": "IL", 
    "DOING_BUSINESS_AS_NAME": "BOUTIQUE BITES", 
    "POP_AT_RISK": 26816, 
    "ZIP": 60646, 
    "ADDRESS": "5717 N ELSTON AVE 1", 
    "YEAR": 2012, 
    "LONGITUDE": -87.768848105, 
    "LATTITUDE": 41.985417776
  }, 
  {
    "BUSINESS_TYPE": "Caterer's Liquor License", 
    "LEGAL_NAME": "ROME'S JOY CATERING, INC.", 
    "STATE": "IL", 
    "DOING_BUSINESS_AS_NAME": "ROME'S JOY CATERING INC.", 
    "POP_AT_RISK": 34836, 
    "ZIP": 60653, 
    "ADDRESS": "4455 S DR MARTIN LUTHER KING JR DR 1", 
    "YEAR": 2012, 
    "LONGITUDE": -87.616549207, 
    "LATTITUDE": 41.813215318
  }, 
  {
    "BUSINESS_TYPE": "Caterer's Liquor License", 
    "LEGAL_NAME": "CATERING BY MAX'S, INC.", 
    "STATE": "IL", 
    "DOING_BUSINESS_AS_NAME": "CATERING BY MAX", 
    "POP_AT_RISK": 51234, 
    "ZIP": 60659, 
    "ADDRESS": "5754 N WESTERN AVE 1ST", 
    "YEAR": 2012, 
    "LONGITUDE": -87.689689117, 
    "LATTITUDE": 41.986604803
  }, 
  {
    "BUSINESS_TYPE": "Caterer's Liquor License", 
    "LEGAL_NAME": "LVJ CAFE CORPORATION", 
    "STATE": "IL", 
    "DOING_BUSINESS_AS_NAME": "LULA CAFE", 
    "POP_AT_RISK": 75310, 
    "ZIP": 60647, 
    "ADDRESS": "2537-2543 N KEDZIE BLVD 1", 
    "YEAR": 2012, 
    "LONGITUDE": -87.707119009, 
    "LATTITUDE": 41.927653196
  }, 
  {
    "BUSINESS_TYPE": "Caterer's Liquor License", 
    "LEGAL_NAME": "FIREFLY EVENTS AND CATERING, L.L.C.", 
    "STATE": "IL", 
    "DOING_BUSINESS_AS_NAME": "FIREFLY EVENTS AND CATERING", 
    "POP_AT_RISK": 37092, 
    "ZIP": 60612, 
    "ADDRESS": "324 N LEAVITT ST 1", 
    "YEAR": 2012, 
    "LONGITUDE": -87.681849494, 
    "LATTITUDE": 41.88743405
  }, 
  {
    "BUSINESS_TYPE": "Caterer's Liquor License", 
    "LEGAL_NAME": "CARNITAS DON RAFA, INC.", 
    "STATE": "IL", 
    "DOING_BUSINESS_AS_NAME": "CARNITAS DON RAFA INC", 
    "POP_AT_RISK": 44713, 
    "ZIP": 60632, 
    "ADDRESS": "4619 S KEDZIE AVE 1ST", 
    "YEAR": 2012, 
    "LONGITUDE": -87.703876719, 
    "LATTITUDE": 41.8093419
  }, 
  {
    "BUSINESS_TYPE": "Caterer's Liquor License", 
    "LEGAL_NAME": "GAETANO'S, INC.", 
    "STATE": "IL", 
    "DOING_BUSINESS_AS_NAME": "MANZO'S RISTORANTE", 
    "POP_AT_RISK": 70243, 
    "ZIP": 60618, 
    "ADDRESS": "3210 W IRVING PARK RD", 
    "YEAR": 2012, 
    "LONGITUDE": -87.708471176, 
    "LATTITUDE": 41.954026285
  }, 
  {
    "BUSINESS_TYPE": "Caterer's Liquor License", 
    "LEGAL_NAME": "BRIDGEPORT U.S.A. CORPORATION", 
    "STATE": "IL", 
    "DOING_BUSINESS_AS_NAME": "POLO CAFE AND CATERING BRIDGEPORT U.S.A.", 
    "POP_AT_RISK": 40251, 
    "ZIP": 60608, 
    "ADDRESS": "3322 S MORGAN ST", 
    "YEAR": 2012, 
    "LONGITUDE": -87.651182688, 
    "LATTITUDE": 41.833618869
  }, 
  {
    "BUSINESS_TYPE": "Caterer's Liquor License", 
    "LEGAL_NAME": "PRIME FOOD CATERERS, INCORPORATED", 
    "STATE": "IL", 
    "DOING_BUSINESS_AS_NAME": "PRIME FOOD CATERERS, INCORPORATED", 
    "POP_AT_RISK": 49690, 
    "ZIP": 60639, 
    "ADDRESS": "5643 W NORTH AVE 1", 
    "YEAR": 2012, 
    "LONGITUDE": -87.767516565, 
    "LATTITUDE": 41.909241879
  }, 
  {
    "BUSINESS_TYPE": "Caterer's Liquor License", 
    "LEGAL_NAME": "CITY PROVISIONS, LLC", 
    "STATE": "IL", 
    "DOING_BUSINESS_AS_NAME": "CITY PROVISIONS CATERING AND EVENTS", 
    "POP_AT_RISK": 60863, 
    "ZIP": 60640, 
    "ADDRESS": "1816-1820 W WILSON AVE", 
    "YEAR": 2012, 
    "LONGITUDE": -87.6753727, 
    "LATTITUDE": 41.965258595
  }, 
  {
    "BUSINESS_TYPE": "Caterer's Liquor License", 
    "LEGAL_NAME": "420 1/2 CORPORATION", 
    "STATE": "IL", 
    "DOING_BUSINESS_AS_NAME": "DUFFY'S TAVERN & GRILLE", 
    "POP_AT_RISK": 72951, 
    "ZIP": 60614, 
    "ADDRESS": "420 1/2 W DIVERSEY PKWY", 
    "YEAR": 2012, 
    "LONGITUDE": -87.640186291, 
    "LATTITUDE": 41.9330041
  }, 
  {
    "BUSINESS_TYPE": "Caterer's Liquor License", 
    "LEGAL_NAME": "ARAMARK EDUCATIONAL SERVICES, LLC", 
    "STATE": "IL", 
    "DOING_BUSINESS_AS_NAME": "ARAMARK", 
    "POP_AT_RISK": 38191, 
    "ZIP": 60637, 
    "ADDRESS": "915 E 60TH ST 1ST", 
    "YEAR": 2012, 
    "LONGITUDE": -87.603744686, 
    "LATTITUDE": 41.785790958
  }, 
  {
    "BUSINESS_TYPE": "Caterer's Liquor License", 
    "LEGAL_NAME": "UNIVERSITY FOOD SYSTEMS, INC.", 
    "STATE": "IL", 
    "DOING_BUSINESS_AS_NAME": "UNIVERSITY FOOD SYSTEMS, INC.", 
    "POP_AT_RISK": 25852, 
    "ZIP": 60609, 
    "ADDRESS": "5032 S STATE ST", 
    "YEAR": 2012, 
    "LONGITUDE": -87.626056204, 
    "LATTITUDE": 41.802734846
  }
]