[
  {
    "BUSINESS_TYPE": "Valet Parking Operator", 
    "LEGAL_NAME": "ADMIRAL THEATRE, INC.", 
    "STATE": "IL", 
    "DOING_BUSINESS_AS_NAME": "ADMIRAL THEATRE", 
    "POP_AT_RISK": 67391, 
    "ZIP": 60625, 
    "ADDRESS": "3940 W LAWRENCE AVE 1ST", 
    "YEAR": 2015, 
    "LONGITUDE": -87.727266537, 
    "LATTITUDE": 41.968359543
  }, 
  {
    "BUSINESS_TYPE": "Valet Parking Operator", 
    "LEGAL_NAME": "TOWNE PARK, LLC", 
    "STATE": "IL", 
    "DOING_BUSINESS_AS_NAME": "Towne Park", 
    "POP_AT_RISK": 60466, 
    "ZIP": 60640, 
    "ADDRESS": "4646 N MARINE DR", 
    "YEAR": 2015, 
    "LONGITUDE": -87.649135042, 
    "LATTITUDE": 41.966859551
  }, 
  {
    "BUSINESS_TYPE": "Valet Parking Operator", 
    "LEGAL_NAME": "FIRST CLASS VALET, INC.", 
    "STATE": "IL", 
    "DOING_BUSINESS_AS_NAME": "FIRST CLASS VALET, INC.", 
    "POP_AT_RISK": 20644, 
    "ZIP": 60617, 
    "ADDRESS": "2320 E 93RD ST", 
    "YEAR": 2015, 
    "LONGITUDE": -87.567270908, 
    "LATTITUDE": 41.726329231
  }, 
  {
    "BUSINESS_TYPE": "Valet Parking Operator", 
    "LEGAL_NAME": "MIDWEST VALET, INC.", 
    "STATE": "IL", 
    "DOING_BUSINESS_AS_NAME": "MIDWEST VALET", 
    "POP_AT_RISK": 59593, 
    "ZIP": 60618, 
    "ADDRESS": "3123 N CLYBOURN AVE", 
    "YEAR": 2015, 
    "LONGITUDE": -87.686204472, 
    "LATTITUDE": 41.93827782
  }, 
  {
    "BUSINESS_TYPE": "Valet Parking Operator", 
    "LEGAL_NAME": "DIAMOND PARKING SERVICE INC.", 
    "STATE": "IL", 
    "DOING_BUSINESS_AS_NAME": "DIAMOND PARKING SERVICE INC/ EL REY BALLROOM", 
    "POP_AT_RISK": 40517, 
    "ZIP": 60609, 
    "ADDRESS": "3504 S WESTERN AVE", 
    "YEAR": 2015, 
    "LONGITUDE": -87.68517427, 
    "LATTITUDE": 41.830073693
  }, 
  {
    "BUSINESS_TYPE": "Valet Parking Operator", 
    "LEGAL_NAME": "CONTRAST PARKING, LLC", 
    "STATE": "IL", 
    "DOING_BUSINESS_AS_NAME": "CONTRAST PARKING LLC/ ROOTS HOMEMADE PIZZA", 
    "POP_AT_RISK": 58217, 
    "ZIP": 60625, 
    "ADDRESS": "2200 W LAWRENCE AVE", 
    "YEAR": 2015, 
    "LONGITUDE": -87.684104896, 
    "LATTITUDE": 41.968793622
  }, 
  {
    "BUSINESS_TYPE": "Valet Parking Operator", 
    "LEGAL_NAME": "ADVANTAGE VALET PARKING, INC.", 
    "STATE": "IL", 
    "DOING_BUSINESS_AS_NAME": "ADVANTAGE VALET INC/  ST. ANTHONY'S HOSPITAL", 
    "POP_AT_RISK": 50982, 
    "ZIP": 60623, 
    "ADDRESS": "2875 W 19TH ST", 
    "YEAR": 2015, 
    "LONGITUDE": -87.698707545, 
    "LATTITUDE": 41.855402894
  }, 
  {
    "BUSINESS_TYPE": "Valet Parking Operator", 
    "LEGAL_NAME": "OCTOPUS INC.", 
    "STATE": "IL", 
    "DOING_BUSINESS_AS_NAME": "Octopus Inc./dba APVS/ NIGHTWOOD", 
    "POP_AT_RISK": 47472, 
    "ZIP": 60608, 
    "ADDRESS": "2119 S HALSTED ST", 
    "YEAR": 2015, 
    "LONGITUDE": -87.646371689, 
    "LATTITUDE": 41.853544076
  }, 
  {
    "BUSINESS_TYPE": "Valet Parking Operator", 
    "LEGAL_NAME": "RIVER NORTH PARKING INC.", 
    "STATE": "IL", 
    "DOING_BUSINESS_AS_NAME": "RIVER NORTH PARKING/ COCO RESTAURANT", 
    "POP_AT_RISK": 56846, 
    "ZIP": 60622, 
    "ADDRESS": "2723 W DIVISION ST", 
    "YEAR": 2015, 
    "LONGITUDE": -87.695378052, 
    "LATTITUDE": 41.902828503
  }, 
  {
    "BUSINESS_TYPE": "Valet Parking Operator", 
    "LEGAL_NAME": "LAZ PARKING CHICAGO, LLC", 
    "STATE": "IL", 
    "DOING_BUSINESS_AS_NAME": "LAZ PARKING", 
    "POP_AT_RISK": 38939, 
    "ZIP": 60615, 
    "ADDRESS": "5235 S HARPER AVE 1-4", 
    "YEAR": 2015, 
    "LONGITUDE": -87.588954038, 
    "LATTITUDE": 41.799925684
  }, 
  {
    "BUSINESS_TYPE": "Valet Parking Operator", 
    "LEGAL_NAME": "P.V.M. LLC", 
    "STATE": "IL", 
    "DOING_BUSINESS_AS_NAME": "P.V.M. LLC/ RESURRECTION MEDICAL CENTER", 
    "POP_AT_RISK": 21744, 
    "ZIP": 60631, 
    "ADDRESS": "7435 W TALCOTT AVE", 
    "YEAR": 2015, 
    "LONGITUDE": -87.812977912, 
    "LATTITUDE": 41.988575183
  }, 
  {
    "BUSINESS_TYPE": "Valet Parking Operator", 
    "LEGAL_NAME": "V.I.P. VALET SERVICES, INC.", 
    "STATE": "IL", 
    "DOING_BUSINESS_AS_NAME": "V.I.P. VALET SERVICES INC.", 
    "POP_AT_RISK": 54038, 
    "ZIP": 60626, 
    "ADDRESS": "1330 W MORSE AVE", 
    "YEAR": 2015, 
    "LONGITUDE": -87.664973924, 
    "LATTITUDE": 42.008035999
  }, 
  {
    "BUSINESS_TYPE": "Valet Parking Operator", 
    "LEGAL_NAME": "LOVIN CARE INC", 
    "STATE": "IL", 
    "DOING_BUSINESS_AS_NAME": "LOVIN CARE INC/ HAROLD WASHINGTON CULTURAL CENTER", 
    "POP_AT_RISK": 36969, 
    "ZIP": 60615, 
    "ADDRESS": "4701 S DR MARTIN LUTHER KING JR DR", 
    "YEAR": 2015, 
    "LONGITUDE": -87.616439669, 
    "LATTITUDE": 41.809295204
  }, 
  {
    "BUSINESS_TYPE": "Valet Parking Operator", 
    "LEGAL_NAME": "ADVANTAGE VALET PARKING, INC.", 
    "STATE": "IL", 
    "DOING_BUSINESS_AS_NAME": "ADVANTAGE VALET PARKING INC/ ADVOCATE HEALTH CENTER", 
    "POP_AT_RISK": 16885, 
    "ZIP": 60643, 
    "ADDRESS": "9831 S WESTERN AVE", 
    "YEAR": 2015, 
    "LONGITUDE": -87.681720596, 
    "LATTITUDE": 41.714554471
  }, 
  {
    "BUSINESS_TYPE": "Valet Parking Operator", 
    "LEGAL_NAME": "VETPRIDE SERVICES, INC.", 
    "STATE": "IL", 
    "DOING_BUSINESS_AS_NAME": "VETPRIDE SERVICES, INC.", 
    "POP_AT_RISK": 27045, 
    "ZIP": 60612, 
    "ADDRESS": "820 S DAMEN AVE", 
    "YEAR": 2015, 
    "LONGITUDE": -87.67651265, 
    "LATTITUDE": 41.870889496
  }, 
  {
    "BUSINESS_TYPE": "Valet Parking Operator", 
    "LEGAL_NAME": "SP PLUS CORPORATION", 
    "STATE": "IL", 
    "DOING_BUSINESS_AS_NAME": "Standard Parking/Mercy Hospital", 
    "POP_AT_RISK": 43937, 
    "ZIP": 60616, 
    "ADDRESS": "2525 S MICHIGAN AVE", 
    "YEAR": 2015, 
    "LONGITUDE": -87.623369728, 
    "LATTITUDE": 41.846716957
  }, 
  {
    "BUSINESS_TYPE": "Valet Parking Operator", 
    "LEGAL_NAME": "USA PARKING SERVICES, LLC.", 
    "STATE": "IL", 
    "DOING_BUSINESS_AS_NAME": "USA PARKING SERVICES, LLC./ FRANCESCA BRYN MAWR", 
    "POP_AT_RISK": 65023, 
    "ZIP": 60660, 
    "ADDRESS": "1039 W BRYN MAWR AVE", 
    "YEAR": 2015, 
    "LONGITUDE": -87.65675393, 
    "LATTITUDE": 41.983571231
  }, 
  {
    "BUSINESS_TYPE": "Valet Parking Operator", 
    "LEGAL_NAME": "FIVE STAR VALET CORP.", 
    "STATE": "IL", 
    "DOING_BUSINESS_AS_NAME": "FIVE STAR VALET CORP/ CITY VIEW LOFT", 
    "POP_AT_RISK": 37092, 
    "ZIP": 60612, 
    "ADDRESS": "324 N LEAVITT ST", 
    "YEAR": 2015, 
    "LONGITUDE": -87.681849494, 
    "LATTITUDE": 41.88743405
  }, 
  {
    "BUSINESS_TYPE": "Valet Parking Operator", 
    "LEGAL_NAME": "PREMIER VALET LLC", 
    "STATE": "IL", 
    "DOING_BUSINESS_AS_NAME": "PREMIER VALET LLC", 
    "POP_AT_RISK": 79857, 
    "ZIP": 60647, 
    "ADDRESS": "2408 N KEDZIE BLVD", 
    "YEAR": 2015, 
    "LONGITUDE": -87.70737521, 
    "LATTITUDE": 41.925066449
  }, 
  {
    "BUSINESS_TYPE": "Valet Parking Operator", 
    "LEGAL_NAME": "LAZ PARKING CHICAGO, LLC", 
    "STATE": "IL", 
    "DOING_BUSINESS_AS_NAME": "LAZ PARKING CHICAGO, LLC/ ED PASCHKE ART CENTER-", 
    "POP_AT_RISK": 41965, 
    "ZIP": 60630, 
    "ADDRESS": "5415 W HIGGINS AVE", 
    "YEAR": 2015, 
    "LONGITUDE": -87.762075357, 
    "LATTITUDE": 41.968723055
  }, 
  {
    "BUSINESS_TYPE": "Valet Parking Operator", 
    "LEGAL_NAME": "RIVER NORTH PARKING INC.", 
    "STATE": "IL", 
    "DOING_BUSINESS_AS_NAME": "RIVER NORTH PARKING / AMOREMIA CUCINA ITALIANA", 
    "POP_AT_RISK": 69427, 
    "ZIP": 60618, 
    "ADDRESS": "3824 N KEDZIE AVE", 
    "YEAR": 2015, 
    "LONGITUDE": -87.708084831, 
    "LATTITUDE": 41.95105054
  }
]