[
{"STATE":"IL","ZIP":60611,"LATTITUDE":41.8974381950521,"ADDRESS":"55 E PEARSON ST 1-54 ","YEAR":2010,"DOING_BUSINESS_AS_NAME":"THE CLARE AT WATER TOWER","POP_AT_RISK":1603828,"BUSINESS_TYPE":"Assisted Living\/Shared Housing Establishment","LEGAL_NAME":"THE CLARE AT WATER TOWER","LONGITUDE":-87.62602037433696},
{"STATE":"IL","ZIP":60641,"LATTITUDE":41.9389735115093,"ADDRESS":"4021 W BELMONT AVE  ","YEAR":2010,"DOING_BUSINESS_AS_NAME":"ST JOSEPH VILLAGE OF CHICAGO","POP_AT_RISK":951152,"BUSINESS_TYPE":"Assisted Living\/Shared Housing Establishment","LEGAL_NAME":"FRANCISCAN COMMUNITIES, INC.","LONGITUDE":-87.72806827756924},
{"STATE":"IL","ZIP":60707,"LATTITUDE":41.92327700208769,"ADDRESS":"2370 N NEWCASTLE AVE 1 ","YEAR":2010,"DOING_BUSINESS_AS_NAME":"VICTORY CENTER OF GALEWOOD","POP_AT_RISK":452232,"BUSINESS_TYPE":"Assisted Living\/Shared Housing Establishment","LEGAL_NAME":"GALEWOOD SLF ASSOCIATES, L.P.","LONGITUDE":-87.79721089340802},
{"STATE":"IL","ZIP":60657,"LATTITUDE":41.94053115573557,"ADDRESS":"1501 W MELROSE ST 1-2 ","YEAR":2010,"DOING_BUSINESS_AS_NAME":"GREENVIEW PLACE","POP_AT_RISK":2209804,"BUSINESS_TYPE":"Assisted Living\/Shared Housing Establishment","LEGAL_NAME":"RENAISSANCE SAINT LUKE SLF L.P.","LONGITUDE":-87.6663826052792},
{"STATE":"IL","ZIP":60617,"LATTITUDE":41.72821354639786,"ADDRESS":"3251 E 92ND ST 1-5 ","YEAR":2010,"DOING_BUSINESS_AS_NAME":"VICTORY CENTRE OF SOUTH CHICAGO SLF","POP_AT_RISK":114611,"BUSINESS_TYPE":"Assisted Living\/Shared Housing Establishment","LEGAL_NAME":"SOUTH CHICAGO SLF ASSOCIATES, L.P.","LONGITUDE":-87.54469279388253},
{}]