{
{"STATE":"IL","ZIP":60642,"LATTITUDE":41.91453133989493,"ADDRESS":"1422 W WILLOW ST  102","YEAR":2008,"DOING_BUSINESS_AS_NAME":"EDEN'S EXPRESS, INC.","POP_AT_RISK":195040,"BUSINESS_TYPE":"Bicycle Messenger Service","LEGAL_NAME":"EDENS EXPRESS, INC.","LONGITUDE":-87.66283345403085},
{"STATE":"IL","ZIP":60654,"LATTITUDE":41.89469809426977,"ADDRESS":"676 N LA SALLE DR  ","YEAR":2008,"DOING_BUSINESS_AS_NAME":"VELOCITY COURIER INC","POP_AT_RISK":841920,"BUSINESS_TYPE":"Bicycle Messenger Service","LEGAL_NAME":"VELOCITY COURIER INC","LONGITUDE":-87.63282083065877},
{"STATE":"IL","ZIP":60612,"LATTITUDE":41.889842055599416,"ADDRESS":"446 N WESTERN AVE 3 ","YEAR":2008,"DOING_BUSINESS_AS_NAME":"SERVICE FIRST COURIER, INC","POP_AT_RISK":86500,"BUSINESS_TYPE":"Bicycle Messenger Service","LEGAL_NAME":"SERVICE FIRST COURIER, INC","LONGITUDE":-87.68681471908673},
{"STATE":"IL","ZIP":60607,"LATTITUDE":41.88281298818196,"ADDRESS":"1327 W WASHINGTON BLVD BASEMENT UNIT 104","YEAR":2008,"DOING_BUSINESS_AS_NAME":"CHICAGO'S ON TIME COURIER","POP_AT_RISK":176204,"BUSINESS_TYPE":"Bicycle Messenger Service","LEGAL_NAME":"CHICAGO'S ON TIME COURIER INC","LONGITUDE":-87.66068229045455},
{"STATE":"IL","ZIP":60616,"LATTITUDE":41.85761688731556,"ADDRESS":"329 W 18TH ST 4TH 413","YEAR":2008,"DOING_BUSINESS_AS_NAME":"FASTER BICYCLE CORP","POP_AT_RISK":32989,"BUSINESS_TYPE":"Bicycle Messenger Service","LEGAL_NAME":"FASTER BICYCLE COURIER CORPORATION","LONGITUDE":-87.63607109247158},
{"STATE":"IL","ZIP":60612,"LATTITUDE":41.883002350491,"ADDRESS":"2810 W WASHINGTON BLVD 1ST ","YEAR":2008,"DOING_BUSINESS_AS_NAME":"CHARIOT EXPRESS MESSENGER SERVICE","POP_AT_RISK":323870,"BUSINESS_TYPE":"Bicycle Messenger Service","LEGAL_NAME":"CHARIOT EXPRESS MESSENGER SERVICE INCORPORATED","LONGITUDE":-87.69682816116261},
{"STATE":"IL","ZIP":60622,"LATTITUDE":41.91045250259197,"ADDRESS":"1554 N ASHLAND AVE  2","YEAR":2008,"DOING_BUSINESS_AS_NAME":"METRO EXPRESS MESSENGER & TRUCKING SERVICES, INC.","POP_AT_RISK":233756,"BUSINESS_TYPE":"Bicycle Messenger Service","LEGAL_NAME":"METRO EXPRESS MESSENGER & TRUCKING SERVICES, INC.","LONGITUDE":-87.66783416911254},
}