[
  {
    "BUSINESS_TYPE": "Motor Vehicle Repair: Engine/Body(Class III)", 
    "LEGAL_NAME": "JOSE PERALTA", 
    "STATE": "IL", 
    "DOING_BUSINESS_AS_NAME": "KAR KARE SERVICE", 
    "POP_AT_RISK": 33300, 
    "ZIP": 60649, 
    "ADDRESS": "7455 S EXCHANGE AVE 1ST", 
    "YEAR": 2013, 
    "LONGITUDE": -87.560344751, 
    "LATTITUDE": 41.759621864
  }, 
  {
    "BUSINESS_TYPE": "Motor Vehicle Repair: Engine/Body(Class III)", 
    "LEGAL_NAME": "ROSECO AUTO REBUILDERS INC", 
    "STATE": "IL", 
    "DOING_BUSINESS_AS_NAME": "ROSECO AUTO REBUILDERS INC", 
    "POP_AT_RISK": 34900, 
    "ZIP": 60649, 
    "ADDRESS": "7410 S STONY ISLAND AVE", 
    "YEAR": 2013, 
    "LONGITUDE": -87.586322035, 
    "LATTITUDE": 41.760225608
  }, 
  {
    "BUSINESS_TYPE": "Motor Vehicle Repair: Engine/Body(Class III)", 
    "LEGAL_NAME": "GEORGE S. WINSKY", 
    "STATE": "IL", 
    "DOING_BUSINESS_AS_NAME": "EAST SIDE BODY SHOP", 
    "POP_AT_RISK": 19727, 
    "ZIP": 60617, 
    "ADDRESS": "10005 S AVENUE N  1ST", 
    "YEAR": 2013, 
    "LONGITUDE": -87.538737519, 
    "LATTITUDE": 41.713654203
  }, 
  {
    "BUSINESS_TYPE": "Motor Vehicle Repair: Engine/Body(Class III)", 
    "LEGAL_NAME": "SOUTH LOOP AUTO SERVICE, INC.", 
    "STATE": "IL", 
    "DOING_BUSINESS_AS_NAME": "SOUTH LOOP AUTO SERVICE, INC.", 
    "POP_AT_RISK": 32541, 
    "ZIP": 60636, 
    "ADDRESS": "1250 W 59TH ST 1ST", 
    "YEAR": 2013, 
    "LONGITUDE": -87.656720754, 
    "LATTITUDE": 41.786965805
  }, 
  {
    "BUSINESS_TYPE": "Motor Vehicle Repair: Engine/Body(Class III)", 
    "LEGAL_NAME": "C & O AUTO REBUILDERS INC", 
    "STATE": "IL", 
    "DOING_BUSINESS_AS_NAME": "C & O AUTO REBUILDERS", 
    "POP_AT_RISK": 31647, 
    "ZIP": 60628, 
    "ADDRESS": "10554 S MICHIGAN AVE GROUND", 
    "YEAR": 2013, 
    "LONGITUDE": -87.620928745, 
    "LATTITUDE": 41.701956748
  }, 
  {
    "BUSINESS_TYPE": "Motor Vehicle Repair: Engine/Body(Class III)", 
    "LEGAL_NAME": "KONSTADINO TSINGOS", 
    "STATE": "IL", 
    "DOING_BUSINESS_AS_NAME": "MAGIOROS AUTO", 
    "POP_AT_RISK": 31789, 
    "ZIP": 60612, 
    "ADDRESS": "900-908 S CALIFORNIA AVE", 
    "YEAR": 2013, 
    "LONGITUDE": -87.696148359, 
    "LATTITUDE": 41.870106751
  }, 
  {
    "BUSINESS_TYPE": "Motor Vehicle Repair: Engine/Body(Class III)", 
    "LEGAL_NAME": "W G M AUTO REBUILDERS INC", 
    "STATE": "IL", 
    "DOING_BUSINESS_AS_NAME": "W G M AUTO REBUILDERS INC", 
    "POP_AT_RISK": 26753, 
    "ZIP": 60629, 
    "ADDRESS": "6906 S PULASKI RD 1ST", 
    "YEAR": 2013, 
    "LONGITUDE": -87.722626405, 
    "LATTITUDE": 41.767511955
  }, 
  {
    "BUSINESS_TYPE": "Motor Vehicle Repair: Engine/Body(Class III)", 
    "LEGAL_NAME": "A & R AUTO REBUILDERS, INC", 
    "STATE": "IL", 
    "DOING_BUSINESS_AS_NAME": "A & R AUTO REBUILDERS, INC", 
    "POP_AT_RISK": 16968, 
    "ZIP": 60619, 
    "ADDRESS": "1110 E 95TH ST", 
    "YEAR": 2013, 
    "LONGITUDE": -87.596769174, 
    "LATTITUDE": 41.722276459
  }, 
  {
    "BUSINESS_TYPE": "Motor Vehicle Repair: Engine/Body(Class III)", 
    "LEGAL_NAME": "E Z AUTO SOLUTIONS, INC.", 
    "STATE": "IL", 
    "DOING_BUSINESS_AS_NAME": "E Z AUTO SOLUTIONS", 
    "POP_AT_RISK": 24680, 
    "ZIP": 60656, 
    "ADDRESS": "5401 N HARLEM AVE 1ST", 
    "YEAR": 2013, 
    "LONGITUDE": -87.806838163, 
    "LATTITUDE": 41.979216907
  }, 
  {
    "BUSINESS_TYPE": "Motor Vehicle Repair: Engine/Body(Class III)", 
    "LEGAL_NAME": "HOWARD AUTOBODY & REPAIR, INC.", 
    "STATE": "IL", 
    "DOING_BUSINESS_AS_NAME": "HOWARD AUTO", 
    "POP_AT_RISK": 34943, 
    "ZIP": 60645, 
    "ADDRESS": "2255 W HOWARD ST", 
    "YEAR": 2013, 
    "LONGITUDE": -87.686729345, 
    "LATTITUDE": 42.019398568
  }, 
  {
    "BUSINESS_TYPE": "Motor Vehicle Repair: Engine/Body(Class III)", 
    "LEGAL_NAME": "ERIE LASALLE BODY SHOP INC.", 
    "STATE": "IL", 
    "DOING_BUSINESS_AS_NAME": "ERIE LASALLE BODY SHOP", 
    "POP_AT_RISK": 79875, 
    "ZIP": 60610, 
    "ADDRESS": "146 W ERIE ST", 
    "YEAR": 2013, 
    "LONGITUDE": -87.633002422, 
    "LATTITUDE": 41.894115785
  }, 
  {
    "BUSINESS_TYPE": "Motor Vehicle Repair: Engine/Body(Class III)", 
    "LEGAL_NAME": "EUROPEAN AUTO LIMITED", 
    "STATE": "IL", 
    "DOING_BUSINESS_AS_NAME": "EUROPEAN AUTO  LTD", 
    "POP_AT_RISK": 72504, 
    "ZIP": 60614, 
    "ADDRESS": "2547 N LINCOLN AVE 1ST", 
    "YEAR": 2013, 
    "LONGITUDE": -87.652456373, 
    "LATTITUDE": 41.928237575
  }, 
  {
    "BUSINESS_TYPE": "Motor Vehicle Repair: Engine/Body(Class III)", 
    "LEGAL_NAME": "VICTOR WEGRZYN", 
    "STATE": "IL", 
    "DOING_BUSINESS_AS_NAME": "A-ACTION AUTO INC", 
    "POP_AT_RISK": 26375, 
    "ZIP": 60634, 
    "ADDRESS": "6645 W IRVING PARK RD 1ST", 
    "YEAR": 2013, 
    "LONGITUDE": -87.793321762, 
    "LATTITUDE": 41.952684796
  }, 
  {
    "BUSINESS_TYPE": "Motor Vehicle Repair: Engine/Body(Class III)", 
    "LEGAL_NAME": "COLLISION REVISION, INC.", 
    "STATE": "IL", 
    "DOING_BUSINESS_AS_NAME": "COLLISION REVISION CHICAGO", 
    "POP_AT_RISK": 57468, 
    "ZIP": 60629, 
    "ADDRESS": "3518-3528 W 63RD ST", 
    "YEAR": 2013, 
    "LONGITUDE": -87.711199139, 
    "LATTITUDE": 41.778951047
  }, 
  {
    "BUSINESS_TYPE": "Motor Vehicle Repair: Engine/Body(Class III)", 
    "LEGAL_NAME": "ERIE VEHICLE CO", 
    "STATE": "IL", 
    "DOING_BUSINESS_AS_NAME": "ERIE VEHICLE CO", 
    "POP_AT_RISK": 22782, 
    "ZIP": 60615, 
    "ADDRESS": "60 E 51ST ST", 
    "YEAR": 2013, 
    "LONGITUDE": -87.623555994, 
    "LATTITUDE": 41.80209466
  }, 
  {
    "BUSINESS_TYPE": "Motor Vehicle Repair: Engine/Body(Class III)", 
    "LEGAL_NAME": "SUPERIOR AUTO GROUP LLC", 
    "STATE": "IL", 
    "DOING_BUSINESS_AS_NAME": "SUPERIOR AUTO GROUP", 
    "POP_AT_RISK": 52969, 
    "ZIP": 60651, 
    "ADDRESS": "5449 - 5453 W CHICAGO AVE 1ST", 
    "YEAR": 2013, 
    "LONGITUDE": -87.762549192, 
    "LATTITUDE": 41.894766099
  }, 
  {
    "BUSINESS_TYPE": "Motor Vehicle Repair: Engine/Body(Class III)", 
    "LEGAL_NAME": "BELMONT HEIGHTS AUTO BODY INC", 
    "STATE": "IL", 
    "DOING_BUSINESS_AS_NAME": "BELMONT HEIGHTS AUTO BODY INC", 
    "POP_AT_RISK": 28225, 
    "ZIP": 60634, 
    "ADDRESS": "7442 W BELMONT AVE", 
    "YEAR": 2013, 
    "LONGITUDE": -87.813000149, 
    "LATTITUDE": 41.938082437
  }, 
  {
    "BUSINESS_TYPE": "Motor Vehicle Repair: Engine/Body(Class III)", 
    "LEGAL_NAME": "CECIL R. PRUDE", 
    "STATE": "IL", 
    "DOING_BUSINESS_AS_NAME": "CAPS AUTO REPAIR & REBUILDERS", 
    "POP_AT_RISK": 35706, 
    "ZIP": 60624, 
    "ADDRESS": "3410 W LAKE ST 1ST", 
    "YEAR": 2013, 
    "LONGITUDE": -87.711608759, 
    "LATTITUDE": 41.884774911
  }, 
  {
    "BUSINESS_TYPE": "Motor Vehicle Repair: Engine/Body(Class III)", 
    "LEGAL_NAME": "CAB-X AUTO BODY SHOP, INC.", 
    "STATE": "IL", 
    "DOING_BUSINESS_AS_NAME": "CAB-X AUTO BODY SHOP, INC.", 
    "POP_AT_RISK": 8263, 
    "ZIP": 60656, 
    "ADDRESS": "5200 N WESLEY TER 1ST", 
    "YEAR": 2013, 
    "LONGITUDE": -87.864215489, 
    "LATTITUDE": 41.973290116
  }, 
  {
    "BUSINESS_TYPE": "Motor Vehicle Repair: Engine/Body(Class III)", 
    "LEGAL_NAME": "AUTO PRO COLLISION CLINIC INC", 
    "STATE": "IL", 
    "DOING_BUSINESS_AS_NAME": "AUTO PRO COLLISION CLINIC INC", 
    "POP_AT_RISK": 30068, 
    "ZIP": 60643, 
    "ADDRESS": "9928 S VINCENNES AVE", 
    "YEAR": 2013, 
    "LONGITUDE": -87.653774319, 
    "LATTITUDE": 41.713256055
  }, 
  {
    "BUSINESS_TYPE": "Motor Vehicle Repair: Engine/Body(Class III)", 
    "LEGAL_NAME": "COLLISION CENTERS OF AMERICA, INC.", 
    "STATE": "IL", 
    "DOING_BUSINESS_AS_NAME": "COLLISION CENTERS OF AMERICA, INC.", 
    "POP_AT_RISK": 15852, 
    "ZIP": 60631, 
    "ADDRESS": "7606 W TOUHY AVE 1", 
    "YEAR": 2013, 
    "LONGITUDE": -87.81671823, 
    "LATTITUDE": 42.011558142
  }, 
  {
    "BUSINESS_TYPE": "Motor Vehicle Repair: Engine/Body(Class III)", 
    "LEGAL_NAME": "BENNIE BROWNLEE", 
    "STATE": "IL", 
    "DOING_BUSINESS_AS_NAME": "BEN'S TIRE SERVICE", 
    "POP_AT_RISK": 32327, 
    "ZIP": 60620, 
    "ADDRESS": "9010-9018 S HALSTED ST 1", 
    "YEAR": 2013, 
    "LONGITUDE": -87.643605932, 
    "LATTITUDE": 41.73046149
  }, 
  {
    "BUSINESS_TYPE": "Motor Vehicle Repair: Engine/Body(Class III)", 
    "LEGAL_NAME": "SOUTH END AUTO REBUILDERS INC", 
    "STATE": "IL", 
    "DOING_BUSINESS_AS_NAME": "SOUTH END AUTO REBUILDERS INC", 
    "POP_AT_RISK": 27493, 
    "ZIP": 60652, 
    "ADDRESS": "3741 W COLUMBUS AVE 1ST", 
    "YEAR": 2013, 
    "LONGITUDE": -87.715299033, 
    "LATTITUDE": 41.740287011
  }, 
  {
    "BUSINESS_TYPE": "Motor Vehicle Repair: Engine/Body(Class III)", 
    "LEGAL_NAME": "KUREK BROTHERS SERVICE CENTER INC", 
    "STATE": "IL", 
    "DOING_BUSINESS_AS_NAME": "KUREK BROS SERVICE CENTER INC", 
    "POP_AT_RISK": 25020, 
    "ZIP": 60655, 
    "ADDRESS": "3425 W 111TH ST 1ST", 
    "YEAR": 2013, 
    "LONGITUDE": -87.706877767, 
    "LATTITUDE": 41.691361177
  }, 
  {
    "BUSINESS_TYPE": "Motor Vehicle Repair: Engine/Body(Class III)", 
    "LEGAL_NAME": "RIVERDALE BODY SHOP OF SCHERERVILLE, INC.", 
    "STATE": "IL", 
    "DOING_BUSINESS_AS_NAME": "RIVERDALE BODY SHOP", 
    "POP_AT_RISK": 35168, 
    "ZIP": 60620, 
    "ADDRESS": "7917 S VINCENNES AVE", 
    "YEAR": 2013, 
    "LONGITUDE": -87.634206974, 
    "LATTITUDE": 41.750242905
  }, 
  {
    "BUSINESS_TYPE": "Motor Vehicle Repair: Engine/Body(Class III)", 
    "LEGAL_NAME": "LOGAN BROS. AUTO COLLISION INC.", 
    "STATE": "IL", 
    "DOING_BUSINESS_AS_NAME": "LOGAN BROS. AUTO COLLISION INC.", 
    "POP_AT_RISK": 33142, 
    "ZIP": 60637, 
    "ADDRESS": "6651 S STATE ST FIRST", 
    "YEAR": 2013, 
    "LONGITUDE": -87.624998573, 
    "LATTITUDE": 41.773427543
  }, 
  {
    "BUSINESS_TYPE": "Motor Vehicle Repair: Engine/Body(Class III)", 
    "LEGAL_NAME": "HAWK MOTOR SERVICE & SALES INC", 
    "STATE": "IL", 
    "DOING_BUSINESS_AS_NAME": "EUROPEAN & US CAR SERVICE", 
    "POP_AT_RISK": 72112, 
    "ZIP": 60613, 
    "ADDRESS": "4080 N BROADWAY  1ST", 
    "YEAR": 2013, 
    "LONGITUDE": -87.65198726, 
    "LATTITUDE": 41.956564203
  }, 
  {
    "BUSINESS_TYPE": "Motor Vehicle Repair: Engine/Body(Class III)", 
    "LEGAL_NAME": "THE GERBER GROUP, INC.", 
    "STATE": "IL", 
    "DOING_BUSINESS_AS_NAME": "GERBER AUTO REBUILDERS, INC", 
    "POP_AT_RISK": 83536, 
    "ZIP": 60657, 
    "ADDRESS": "3425 N HALSTED ST  1", 
    "YEAR": 2013, 
    "LONGITUDE": -87.649252541, 
    "LATTITUDE": 41.944423149
  }, 
  {
    "BUSINESS_TYPE": "Motor Vehicle Repair: Engine/Body(Class III)", 
    "LEGAL_NAME": "TROY DESIGN & MANUFACTURING CO.", 
    "STATE": "IL", 
    "DOING_BUSINESS_AS_NAME": "TROY DESIGN & MANUFACTURING CO.", 
    "POP_AT_RISK": 6628, 
    "ZIP": 60633, 
    "ADDRESS": "12359 S BURLEY AVE", 
    "YEAR": 2013, 
    "LONGITUDE": -87.543969512, 
    "LATTITUDE": 41.66993356
  }, 
  {
    "BUSINESS_TYPE": "Motor Vehicle Repair: Engine/Body(Class III)", 
    "LEGAL_NAME": "PRAMUKH AUTO SERVICES INC.", 
    "STATE": "IL", 
    "DOING_BUSINESS_AS_NAME": "MAACO AUTO PAINTING & BODY WORKS", 
    "POP_AT_RISK": 33180, 
    "ZIP": 60617, 
    "ADDRESS": "8383 S SOUTH CHICAGO AVE", 
    "YEAR": 2013, 
    "LONGITUDE": -87.573312612, 
    "LATTITUDE": 41.742827344
  }
]