[
  {
    "BUSINESS_TYPE": "Valet Parking Operator", 
    "LEGAL_NAME": "AF PARKING SERVICES, INC.", 
    "STATE": "IL", 
    "DOING_BUSINESS_AS_NAME": "AF PARKING SERVICES, INC./ ILLINOIS INSTITUTE OF TECHNOLOGY MCCORMICK", 
    "POP_AT_RISK": 35230, 
    "ZIP": 60616, 
    "ADDRESS": "3201 S STATE ST", 
    "YEAR": 2013, 
    "LONGITUDE": -87.62638079, 
    "LATTITUDE": 41.836371827
  }, 
  {
    "BUSINESS_TYPE": "Valet Parking Operator", 
    "LEGAL_NAME": "CATERING CONCEPTS CORPORATION", 
    "STATE": "IL", 
    "DOING_BUSINESS_AS_NAME": "GALA BANQUETS", 
    "POP_AT_RISK": 27547, 
    "ZIP": 60646, 
    "ADDRESS": "5639 N MILWAUKEE AVE  NORTH", 
    "YEAR": 2013, 
    "LONGITUDE": -87.775172469, 
    "LATTITUDE": 41.984010866
  }, 
  {
    "BUSINESS_TYPE": "Valet Parking Operator", 
    "LEGAL_NAME": "ADVANTAGE VALET PARKING, INC.", 
    "STATE": "IL", 
    "DOING_BUSINESS_AS_NAME": "ADVANTAGE VALET PARKING / RESURRECTION ST ELIZABETH HOSPITAL", 
    "POP_AT_RISK": 69479, 
    "ZIP": 60622, 
    "ADDRESS": "1431 N CLAREMONT AVE", 
    "YEAR": 2013, 
    "LONGITUDE": -87.685785759, 
    "LATTITUDE": 41.907627208
  }, 
  {
    "BUSINESS_TYPE": "Valet Parking Operator", 
    "LEGAL_NAME": "LAZ PARKING CHICAGO VALET, LLC", 
    "STATE": "IL", 
    "DOING_BUSINESS_AS_NAME": "LAZ PARKING CHICAGO VALET, LLC/ 5225 S. HARPER AVENUE", 
    "POP_AT_RISK": 38939, 
    "ZIP": 60615, 
    "ADDRESS": "5225 S HARPER AVE", 
    "YEAR": 2013, 
    "LONGITUDE": -87.588918284, 
    "LATTITUDE": 41.800186333
  }, 
  {
    "BUSINESS_TYPE": "Valet Parking Operator", 
    "LEGAL_NAME": "ADMIRAL THEATRE, INC.", 
    "STATE": "IL", 
    "DOING_BUSINESS_AS_NAME": "ADMIRAL THEATRE", 
    "POP_AT_RISK": 67391, 
    "ZIP": 60625, 
    "ADDRESS": "3940 W LAWRENCE AVE 1ST", 
    "YEAR": 2013, 
    "LONGITUDE": -87.727266537, 
    "LATTITUDE": 41.968359543
  }, 
  {
    "BUSINESS_TYPE": "Valet Parking Operator", 
    "LEGAL_NAME": "ADVANTAGE VALET PARKING, INC.", 
    "STATE": "IL", 
    "DOING_BUSINESS_AS_NAME": "ADVANTAGE VALET INC/ RESURRECTION HOSPITAL", 
    "POP_AT_RISK": 21744, 
    "ZIP": 60631, 
    "ADDRESS": "7447 W TALCOTT AVE", 
    "YEAR": 2013, 
    "LONGITUDE": -87.813309051, 
    "LATTITUDE": 41.988741562
  }, 
  {
    "BUSINESS_TYPE": "Valet Parking Operator", 
    "LEGAL_NAME": "ADVANTAGE VALET PARKING, INC.", 
    "STATE": "IL", 
    "DOING_BUSINESS_AS_NAME": "ADVANTAGE VALET INC/  ST. ANTHONY'S HOSPITAL", 
    "POP_AT_RISK": 50982, 
    "ZIP": 60623, 
    "ADDRESS": "2875 W 19TH ST", 
    "YEAR": 2013, 
    "LONGITUDE": -87.698707545, 
    "LATTITUDE": 41.855402894
  }, 
  {
    "BUSINESS_TYPE": "Valet Parking Operator", 
    "LEGAL_NAME": "ADVANTAGE VALET PARKING, INC.", 
    "STATE": "IL", 
    "DOING_BUSINESS_AS_NAME": "ADVANTAGE VALET PARKING INC/ ADVOCATE HEALTH CENTER", 
    "POP_AT_RISK": 16885, 
    "ZIP": 60643, 
    "ADDRESS": "9831 S WESTERN AVE", 
    "YEAR": 2013, 
    "LONGITUDE": -87.681720596, 
    "LATTITUDE": 41.714554471
  }, 
  {
    "BUSINESS_TYPE": "Valet Parking Operator", 
    "LEGAL_NAME": "MIDWEST VALET, INC.", 
    "STATE": "IL", 
    "DOING_BUSINESS_AS_NAME": "MIDWEST VALET INC/  TUMBAO", 
    "POP_AT_RISK": 74641, 
    "ZIP": 60647, 
    "ADDRESS": "3213 W ARMITAGE AVE", 
    "YEAR": 2013, 
    "LONGITUDE": -87.707534074, 
    "LATTITUDE": 41.917285821
  }, 
  {
    "BUSINESS_TYPE": "Valet Parking Operator", 
    "LEGAL_NAME": "V.I.P. VALET SERVICES, INC.", 
    "STATE": "IL", 
    "DOING_BUSINESS_AS_NAME": "V.I.P. VALET SERVICES INC.", 
    "POP_AT_RISK": 54038, 
    "ZIP": 60626, 
    "ADDRESS": "1330 W MORSE AVE", 
    "YEAR": 2013, 
    "LONGITUDE": -87.664973924, 
    "LATTITUDE": 42.008035999
  }, 
  {
    "BUSINESS_TYPE": "Valet Parking Operator", 
    "LEGAL_NAME": "LOVIN CARE INC", 
    "STATE": "IL", 
    "DOING_BUSINESS_AS_NAME": "LOVIN CARE INC/ HAROLD WASHINGTON CULTURAL CENTER", 
    "POP_AT_RISK": 36969, 
    "ZIP": 60615, 
    "ADDRESS": "4701 S DR MARTIN LUTHER KING JR DR", 
    "YEAR": 2013, 
    "LONGITUDE": -87.616439669, 
    "LATTITUDE": 41.809295204
  }, 
  {
    "BUSINESS_TYPE": "Valet Parking Operator", 
    "LEGAL_NAME": "LAKE SHORE PARKING VALET SERVICES INC.", 
    "STATE": "IL", 
    "DOING_BUSINESS_AS_NAME": "LAKE SHORE PARKING VALET SERVICES INC./MI TIERRA", 
    "POP_AT_RISK": 61495, 
    "ZIP": 60623, 
    "ADDRESS": "2528 S KEDZIE AVE", 
    "YEAR": 2013, 
    "LONGITUDE": -87.705214285, 
    "LATTITUDE": 41.845451414
  }, 
  {
    "BUSINESS_TYPE": "Valet Parking Operator", 
    "LEGAL_NAME": "BWR BRIDGEPORT, LLC.", 
    "STATE": "IL", 
    "DOING_BUSINESS_AS_NAME": "BUFFALO WINGS AND RINGS", 
    "POP_AT_RISK": 39618, 
    "ZIP": 60608, 
    "ADDRESS": "3434 S HALSTED ST 1", 
    "YEAR": 2013, 
    "LONGITUDE": -87.646276392, 
    "LATTITUDE": 41.831724396
  }, 
  {
    "BUSINESS_TYPE": "Valet Parking Operator", 
    "LEGAL_NAME": "VALET PARKING AUTHORITY LIMITED", 
    "STATE": "IL", 
    "DOING_BUSINESS_AS_NAME": "VALET PARKING AUTHORITY, LTD./ FORD CITY MALL", 
    "POP_AT_RISK": 16758, 
    "ZIP": 60652, 
    "ADDRESS": "7601 S CICERO AVE", 
    "YEAR": 2013, 
    "LONGITUDE": -87.741384759, 
    "LATTITUDE": 41.754660124
  }, 
  {
    "BUSINESS_TYPE": "Valet Parking Operator", 
    "LEGAL_NAME": "RIVER NORTH PARKING INC.", 
    "STATE": "IL", 
    "DOING_BUSINESS_AS_NAME": "RIVER NORTH PARKING / AMOREMIA CUCINA ITALIANA", 
    "POP_AT_RISK": 69427, 
    "ZIP": 60618, 
    "ADDRESS": "3824 N KEDZIE AVE", 
    "YEAR": 2013, 
    "LONGITUDE": -87.708084831, 
    "LATTITUDE": 41.95105054
  }, 
  {
    "BUSINESS_TYPE": "Valet Parking Operator", 
    "LEGAL_NAME": "USA PARKING SERVICES, LLC.", 
    "STATE": "IL", 
    "DOING_BUSINESS_AS_NAME": "USA PARKING SERVICES, LLC./ FRANCESCA BRYN MAWR", 
    "POP_AT_RISK": 65023, 
    "ZIP": 60660, 
    "ADDRESS": "1039 W BRYN MAWR AVE", 
    "YEAR": 2013, 
    "LONGITUDE": -87.65675393, 
    "LATTITUDE": 41.983571231
  }, 
  {
    "BUSINESS_TYPE": "Valet Parking Operator", 
    "LEGAL_NAME": "BLK & WHT VALET, LLC", 
    "STATE": "IL", 
    "DOING_BUSINESS_AS_NAME": "BLK & WHT VALET LLC/ TRATTORIA TRULLO", 
    "POP_AT_RISK": 74068, 
    "ZIP": 60625, 
    "ADDRESS": "4753 N LINCOLN AVE", 
    "YEAR": 2013, 
    "LONGITUDE": -87.688040002, 
    "LATTITUDE": 41.968052073
  }
]