[
  {
    "BUSINESS_TYPE": "Not-For-Profit Club", 
    "LEGAL_NAME": "'FLAGS' SOCIAL & ATHLETIC CLUB", 
    "STATE": "IL", 
    "DOING_BUSINESS_AS_NAME": "FLAGS SOCIAL & ATHLETIC CLUB", 
    "POP_AT_RISK": 22765, 
    "ZIP": 60609, 
    "ADDRESS": "552 W 47TH ST 1ST", 
    "YEAR": 2012, 
    "LONGITUDE": -87.64033288, 
    "LATTITUDE": 41.809068058
  }, 
  {
    "BUSINESS_TYPE": "Not-For-Profit Club", 
    "LEGAL_NAME": "CALUMET YACHT CLUB, INC.", 
    "STATE": "IL", 
    "DOING_BUSINESS_AS_NAME": "CALUMET YACHT CLUB", 
    "POP_AT_RISK": 16197, 
    "ZIP": 60617, 
    "ADDRESS": "4025 E 102ND ST 1ST", 
    "YEAR": 2012, 
    "LONGITUDE": -87.526173571, 
    "LATTITUDE": 41.70947892
  }, 
  {
    "BUSINESS_TYPE": "Not-For-Profit Club", 
    "LEGAL_NAME": "49ER'S S.A.C., INC.", 
    "STATE": "IL", 
    "DOING_BUSINESS_AS_NAME": "49ER'S S.A.C.", 
    "POP_AT_RISK": 21393, 
    "ZIP": 60655, 
    "ADDRESS": "11023 S KEDZIE AVE 1ST", 
    "YEAR": 2012, 
    "LONGITUDE": -87.700719125, 
    "LATTITUDE": 41.69268209
  }, 
  {
    "BUSINESS_TYPE": "Not-For-Profit Club", 
    "LEGAL_NAME": "TATTLER POST #973, INC.", 
    "STATE": "IL", 
    "DOING_BUSINESS_AS_NAME": "TATTLER POST #973 AMER. LEGION", 
    "POP_AT_RISK": 66168, 
    "ZIP": 60618, 
    "ADDRESS": "4355 N WESTERN AVE 1ST", 
    "YEAR": 2012, 
    "LONGITUDE": -87.68853134, 
    "LATTITUDE": 41.96115263
  }, 
  {
    "BUSINESS_TYPE": "Not-For-Profit Club", 
    "LEGAL_NAME": "MCWHINNEY BENEVOLENT ASSOCIATION", 
    "STATE": "IL", 
    "DOING_BUSINESS_AS_NAME": "MCWHINNEY BENEVOLENT ASSN", 
    "POP_AT_RISK": 64893, 
    "ZIP": 60614, 
    "ADDRESS": "2633 N MARSHFIELD AVE 1ST", 
    "YEAR": 2012, 
    "LONGITUDE": -87.669373043, 
    "LATTITUDE": 41.929699395
  }, 
  {
    "BUSINESS_TYPE": "Not-For-Profit Club", 
    "LEGAL_NAME": "CLEARING MEN'S CLUB", 
    "STATE": "IL", 
    "DOING_BUSINESS_AS_NAME": "CLEARING MEN'S CLUB", 
    "POP_AT_RISK": 22202, 
    "ZIP": 60638, 
    "ADDRESS": "5752 W 63RD PL", 
    "YEAR": 2012, 
    "LONGITUDE": -87.766230997, 
    "LATTITUDE": 41.777248076
  }, 
  {
    "BUSINESS_TYPE": "Not-For-Profit Club", 
    "LEGAL_NAME": "LATIN AMERICAN MOTORCYCLE ASSOCIATION", 
    "STATE": "IL", 
    "DOING_BUSINESS_AS_NAME": "LATIN AMERICAN MOTORCYCLE ASSOCIATION", 
    "POP_AT_RISK": 78375, 
    "ZIP": 60647, 
    "ADDRESS": "3517-3519 W FULLERTON AVE 1ST", 
    "YEAR": 2012, 
    "LONGITUDE": -87.714508655, 
    "LATTITUDE": 41.924524304
  }, 
  {
    "BUSINESS_TYPE": "Not-For-Profit Club", 
    "LEGAL_NAME": "MARK WHITE SQUARE POST #6870 V.F.W. INC.", 
    "STATE": "IL", 
    "DOING_BUSINESS_AS_NAME": "MARK WHITE SQUARE POST 6870", 
    "POP_AT_RISK": 40828, 
    "ZIP": 60616, 
    "ADDRESS": "3152 S WALLACE ST 1ST", 
    "YEAR": 2012, 
    "LONGITUDE": -87.641521546, 
    "LATTITUDE": 41.836543761
  }, 
  {
    "BUSINESS_TYPE": "Not-For-Profit Club", 
    "LEGAL_NAME": "LOGAN-AVONDALE VFW # 2978", 
    "STATE": "IL", 
    "DOING_BUSINESS_AS_NAME": "LOGAN-AVONDALE VFW #2978", 
    "POP_AT_RISK": 57777, 
    "ZIP": 60618, 
    "ADDRESS": "3007 N KEDZIE AVE 1ST", 
    "YEAR": 2012, 
    "LONGITUDE": -87.707389085, 
    "LATTITUDE": 41.935960596
  }, 
  {
    "BUSINESS_TYPE": "Not-For-Profit Club", 
    "LEGAL_NAME": "JOHN E. CONNOLLY VICTORY POST 3940", 
    "STATE": "IL", 
    "DOING_BUSINESS_AS_NAME": "CONNOLLY VICTORY POST 3940", 
    "POP_AT_RISK": 52774, 
    "ZIP": 60629, 
    "ADDRESS": "3743-3745 W 63RD ST", 
    "YEAR": 2012, 
    "LONGITUDE": -87.717119941, 
    "LATTITUDE": 41.778635844
  }, 
  {
    "BUSINESS_TYPE": "Not-For-Profit Club", 
    "LEGAL_NAME": "THE QUADRANGLE CLUB", 
    "STATE": "IL", 
    "DOING_BUSINESS_AS_NAME": "THE QUADRANGLE CLUB", 
    "POP_AT_RISK": 33454, 
    "ZIP": 60637, 
    "ADDRESS": "1155 E 57TH ST", 
    "YEAR": 2012, 
    "LONGITUDE": -87.597587664, 
    "LATTITUDE": 41.791325001
  }, 
  {
    "BUSINESS_TYPE": "Not-For-Profit Club", 
    "LEGAL_NAME": "T J SOKOL FUEGNER OF SO CHICAG", 
    "STATE": "IL", 
    "DOING_BUSINESS_AS_NAME": "T J SOKOL FUEGNER OF SO CHGO", 
    "POP_AT_RISK": 20967, 
    "ZIP": 60617, 
    "ADDRESS": "10756 S GREEN BAY AVE  1ST F", 
    "YEAR": 2012, 
    "LONGITUDE": -87.541489008, 
    "LATTITUDE": 41.699286164
  }, 
  {
    "BUSINESS_TYPE": "Not-For-Profit Club", 
    "LEGAL_NAME": "PO-PIEDMONT CLUB,INC", 
    "STATE": "IL", 
    "DOING_BUSINESS_AS_NAME": "PO-PIEDMONT CLUB,INC", 
    "POP_AT_RISK": 36667, 
    "ZIP": 60608, 
    "ADDRESS": "2408 S OAKLEY AVE  1", 
    "YEAR": 2012, 
    "LONGITUDE": -87.683232854, 
    "LATTITUDE": 41.848116785
  }, 
  {
    "BUSINESS_TYPE": "Not-For-Profit Club", 
    "LEGAL_NAME": "CHICAGO - BRIDGEPORT CANTEEN - VFW #5079", 
    "STATE": "IL", 
    "DOING_BUSINESS_AS_NAME": "CHICAGO - BRIDGEPORT CANTEEN - VFW #5079", 
    "POP_AT_RISK": 44118, 
    "ZIP": 60608, 
    "ADDRESS": "3200 S MAY ST 1", 
    "YEAR": 2012, 
    "LONGITUDE": -87.654896612, 
    "LATTITUDE": 41.836070809
  }, 
  {
    "BUSINESS_TYPE": "Not-For-Profit Club", 
    "LEGAL_NAME": "GREAT LAKES LODGE NUMBER 43, IMPROVED BENEVOLENT AND PROTECTIVEORDER OF ELKS OF THE WORLD", 
    "STATE": "IL", 
    "DOING_BUSINESS_AS_NAME": "GREAT LAKES LDG #43", 
    "POP_AT_RISK": 29821, 
    "ZIP": 60615, 
    "ADDRESS": "5108 S PRAIRIE AVE 2ND", 
    "YEAR": 2012, 
    "LONGITUDE": -87.619543981, 
    "LATTITUDE": 41.801734122
  }, 
  {
    "BUSINESS_TYPE": "Not-For-Profit Club", 
    "LEGAL_NAME": "AMERICAN LEGION MANUEL PEREZ POST 1017", 
    "STATE": "IL", 
    "DOING_BUSINESS_AS_NAME": "MANUEL PEREZ JR POST 1017", 
    "POP_AT_RISK": 65921, 
    "ZIP": 60623, 
    "ADDRESS": "2658 S HAMLIN AVE 1ST", 
    "YEAR": 2012, 
    "LONGITUDE": -87.719772927, 
    "LATTITUDE": 41.842572203
  }, 
  {
    "BUSINESS_TYPE": "Not-For-Profit Club", 
    "LEGAL_NAME": "FRANKLIN DELANO ROOSEVELT POST, INC.,NO. 923, AMERICAN LEGION", 
    "STATE": "IL", 
    "DOING_BUSINESS_AS_NAME": "FRANKLIN D ROOSEVELT POST 923", 
    "POP_AT_RISK": 56810, 
    "ZIP": 60622, 
    "ADDRESS": "1824 W CORTLAND ST BASEM", 
    "YEAR": 2012, 
    "LONGITUDE": -87.673790066, 
    "LATTITUDE": 41.916118213
  }, 
  {
    "BUSINESS_TYPE": "Not-For-Profit Club", 
    "LEGAL_NAME": "AMERICAN UKRAINIAN YOUTH ASSOCIATION", 
    "STATE": "IL", 
    "DOING_BUSINESS_AS_NAME": "AMERICAN UKRAINIAN YOUTH ASSOCIATION", 
    "POP_AT_RISK": 45920, 
    "ZIP": 60622, 
    "ADDRESS": "2455 W CHICAGO AVE  1ST", 
    "YEAR": 2012, 
    "LONGITUDE": -87.689029092, 
    "LATTITUDE": 41.895609451
  }, 
  {
    "BUSINESS_TYPE": "Not-For-Profit Club", 
    "LEGAL_NAME": "CHICAGO MIDNIGHT RIDERS", 
    "STATE": "IL", 
    "DOING_BUSINESS_AS_NAME": "CHICAGO MIDNIGHT RIDERS", 
    "POP_AT_RISK": 48793, 
    "ZIP": 60651, 
    "ADDRESS": "3803 W CHICAGO AVE", 
    "YEAR": 2012, 
    "LONGITUDE": -87.72134256, 
    "LATTITUDE": 41.895301902
  }, 
  {
    "BUSINESS_TYPE": "Not-For-Profit Club", 
    "LEGAL_NAME": "SERBIAN-AMERICAN MUSEUM - ST. SAVA", 
    "STATE": "IL", 
    "DOING_BUSINESS_AS_NAME": "SERBIAN-AMERICAN MUSEUM - ST. SAVA", 
    "POP_AT_RISK": 73200, 
    "ZIP": 60657, 
    "ADDRESS": "448 W BARRY AVE", 
    "YEAR": 2012, 
    "LONGITUDE": -87.641274272, 
    "LATTITUDE": 41.937817621
  }, 
  {
    "BUSINESS_TYPE": "Not-For-Profit Club", 
    "LEGAL_NAME": "MOST WORSHIPFUL ST. JOHN'S GRAND LODGE", 
    "STATE": "IL", 
    "DOING_BUSINESS_AS_NAME": "MOST WORSHIPFUL ST. JOHN'S  GRAND LODGE", 
    "POP_AT_RISK": 38741, 
    "ZIP": 60619, 
    "ADDRESS": "7443 S INGLESIDE AVE  BANQU", 
    "YEAR": 2012, 
    "LONGITUDE": -87.60159144, 
    "LATTITUDE": 41.759168176
  }, 
  {
    "BUSINESS_TYPE": "Not-For-Profit Club", 
    "LEGAL_NAME": "THE RACQUET CLUB OF CHICAGO", 
    "STATE": "IL", 
    "DOING_BUSINESS_AS_NAME": "THE RACQUET CLUB OF CHICAGO", 
    "POP_AT_RISK": 59087, 
    "ZIP": 60610, 
    "ADDRESS": "1365 N DEARBORN ST", 
    "YEAR": 2012, 
    "LONGITUDE": -87.629952304, 
    "LATTITUDE": 41.907636295
  }, 
  {
    "BUSINESS_TYPE": "Not-For-Profit Club", 
    "LEGAL_NAME": "CHICAGO EXECUTIVE GOLF CLUB, INC.", 
    "STATE": "IL", 
    "DOING_BUSINESS_AS_NAME": "CHICAGO EXECUTIVE GOLF CLUB", 
    "POP_AT_RISK": 23487, 
    "ZIP": 60643, 
    "ADDRESS": "1462 W 115TH ST", 
    "YEAR": 2012, 
    "LONGITUDE": -87.659133152, 
    "LATTITUDE": 41.684964297
  }, 
  {
    "BUSINESS_TYPE": "Not-For-Profit Club", 
    "LEGAL_NAME": "BURNHAM PARK YACHT CLUB", 
    "STATE": "IL", 
    "DOING_BUSINESS_AS_NAME": "BURNHAM PARK YACHT CLUB", 
    "POP_AT_RISK": 20991, 
    "ZIP": 60605, 
    "ADDRESS": "1500 S LYNN WHITE DR 1ST", 
    "YEAR": 2012, 
    "LONGITUDE": -87.609522247, 
    "LATTITUDE": 41.862306077
  }, 
  {
    "BUSINESS_TYPE": "Not-For-Profit Club", 
    "LEGAL_NAME": "BLUE CONDORS PLEASURE CLUB", 
    "STATE": "IL", 
    "DOING_BUSINESS_AS_NAME": "BLUE CONDORS PLEASURE CLUB", 
    "POP_AT_RISK": 47389, 
    "ZIP": 60609, 
    "ADDRESS": "5118 S WESTERN AVE 1ST", 
    "YEAR": 2012, 
    "LONGITUDE": -87.684354977, 
    "LATTITUDE": 41.800547444
  }, 
  {
    "BUSINESS_TYPE": "Not-For-Profit Club", 
    "LEGAL_NAME": "IRISH AMERICAN HERITAGE CENTER", 
    "STATE": "IL", 
    "DOING_BUSINESS_AS_NAME": "IRISH AMERICAN HERITAGE CENTER", 
    "POP_AT_RISK": 46525, 
    "ZIP": 60630, 
    "ADDRESS": "4626 N KNOX AVE", 
    "YEAR": 2012, 
    "LONGITUDE": -87.744116732, 
    "LATTITUDE": 41.96524258
  }, 
  {
    "BUSINESS_TYPE": "Not-For-Profit Club", 
    "LEGAL_NAME": "THE NORTH SIDE CONCOURSE ASSOCIATION", 
    "STATE": "IL", 
    "DOING_BUSINESS_AS_NAME": "THE NORTH SIDE CONCOURSE ASSOCIATION", 
    "POP_AT_RISK": 61906, 
    "ZIP": 60647, 
    "ADDRESS": "2538 W FULLERTON AVE", 
    "YEAR": 2012, 
    "LONGITUDE": -87.691706299, 
    "LATTITUDE": 41.924971739
  }, 
  {
    "BUSINESS_TYPE": "Not-For-Profit Club", 
    "LEGAL_NAME": "FATHER PEREZ K OF C CLUB HOUSE", 
    "STATE": "IL", 
    "DOING_BUSINESS_AS_NAME": "FATHER PEREZ K OF C CLUB HOUSE", 
    "POP_AT_RISK": 25020, 
    "ZIP": 60655, 
    "ADDRESS": "3422 W 111TH ST 1ST", 
    "YEAR": 2012, 
    "LONGITUDE": -87.706718698, 
    "LATTITUDE": 41.691583851
  }, 
  {
    "BUSINESS_TYPE": "Not-For-Profit Club", 
    "LEGAL_NAME": "MONT CLARE LETDEN VETERANS", 
    "STATE": "IL", 
    "DOING_BUSINESS_AS_NAME": "MONT CLARE LEYDEN VETERANS", 
    "POP_AT_RISK": 34483, 
    "ZIP": 60707, 
    "ADDRESS": "6940 W DIVERSEY AVE POST #", 
    "YEAR": 2012, 
    "LONGITUDE": -87.799595974, 
    "LATTITUDE": 41.930943088
  }, 
  {
    "BUSINESS_TYPE": "Not-For-Profit Club", 
    "LEGAL_NAME": "RHEINISCHER VEREIN 1890, INC.", 
    "STATE": "IL", 
    "DOING_BUSINESS_AS_NAME": "RHEINISCHER VEREIN, INC.", 
    "POP_AT_RISK": 61558, 
    "ZIP": 60618, 
    "ADDRESS": "4265 N ELSTON AVE", 
    "YEAR": 2012, 
    "LONGITUDE": -87.726169548, 
    "LATTITUDE": 41.95864912
  }, 
  {
    "BUSINESS_TYPE": "Not-For-Profit Club", 
    "LEGAL_NAME": "TOWN OF LAKE POST #.5216", 
    "STATE": "IL", 
    "DOING_BUSINESS_AS_NAME": "TOWN OF LAKE POST NO.5216", 
    "POP_AT_RISK": 41379, 
    "ZIP": 60609, 
    "ADDRESS": "4325 S HONORE ST 1ST", 
    "YEAR": 2012, 
    "LONGITUDE": -87.671066862, 
    "LATTITUDE": 41.81505503
  }, 
  {
    "BUSINESS_TYPE": "Not-For-Profit Club", 
    "LEGAL_NAME": "GEORGE L. GILES POST NO. 87 THE AMERICAN LEGION, DEPARTMENT OF ILLINOIS", 
    "STATE": "IL", 
    "DOING_BUSINESS_AS_NAME": "GEORGE L GILES POST #87", 
    "POP_AT_RISK": 24618, 
    "ZIP": 60621, 
    "ADDRESS": "5745 S STATE ST 1ST", 
    "YEAR": 2012, 
    "LONGITUDE": -87.625426543, 
    "LATTITUDE": 41.789652732
  }, 
  {
    "BUSINESS_TYPE": "Not-For-Profit Club", 
    "LEGAL_NAME": "The National Guard of Lithuania in Exile, Incorporated", 
    "STATE": "IL", 
    "DOING_BUSINESS_AS_NAME": "NAT'L GUARD OF LITHUANIA", 
    "POP_AT_RISK": 46678, 
    "ZIP": 60632, 
    "ADDRESS": "2417 W POPE JOHN PAUL II DR 1ST", 
    "YEAR": 2012, 
    "LONGITUDE": -87.685454822, 
    "LATTITUDE": 41.815574466
  }, 
  {
    "BUSINESS_TYPE": "Not-For-Profit Club", 
    "LEGAL_NAME": "CROATIAN CULTURAL CENTER OF CHICAGO, INC.", 
    "STATE": "IL", 
    "DOING_BUSINESS_AS_NAME": "CROATIAN CULTURAL CENTER OF CHICAGO", 
    "POP_AT_RISK": 55784, 
    "ZIP": 60659, 
    "ADDRESS": "2845 W DEVON AVE 1ST", 
    "YEAR": 2012, 
    "LONGITUDE": -87.701422682, 
    "LATTITUDE": 41.997419715
  }, 
  {
    "BUSINESS_TYPE": "Not-For-Profit Club", 
    "LEGAL_NAME": "RHINE POST #2729 V F W", 
    "STATE": "IL", 
    "DOING_BUSINESS_AS_NAME": "MEMORIAL HALL CLUB", 
    "POP_AT_RISK": 22813, 
    "ZIP": 60638, 
    "ADDRESS": "5856 S ARCHER AVE 1ST", 
    "YEAR": 2012, 
    "LONGITUDE": -87.760976869, 
    "LATTITUDE": 41.796040889
  }, 
  {
    "BUSINESS_TYPE": "Not-For-Profit Club", 
    "LEGAL_NAME": "ALLIANCE OF POLISH CLUBS IN THE UNITED STATES OF AMERICA", 
    "STATE": "IL", 
    "DOING_BUSINESS_AS_NAME": "ALLIANCE OF POLISH CLUBS IN THE UNITED STATES OFAMERICA", 
    "POP_AT_RISK": 65209, 
    "ZIP": 60639, 
    "ADDRESS": "5835 W DIVERSEY AVE 1ST", 
    "YEAR": 2012, 
    "LONGITUDE": -87.772535475, 
    "LATTITUDE": 41.931079333
  }, 
  {
    "BUSINESS_TYPE": "Not-For-Profit Club", 
    "LEGAL_NAME": "GAELIC FIRE BRIGADE", 
    "STATE": "IL", 
    "DOING_BUSINESS_AS_NAME": "GAELIC FIRE BRIGADE", 
    "POP_AT_RISK": 23425, 
    "ZIP": 60652, 
    "ADDRESS": "8404 S KEDZIE AVE", 
    "YEAR": 2012, 
    "LONGITUDE": -87.702286918, 
    "LATTITUDE": 41.740483861
  }, 
  {
    "BUSINESS_TYPE": "Not-For-Profit Club", 
    "LEGAL_NAME": "CROATION AMERICAN RADIO CLUB", 
    "STATE": "IL", 
    "DOING_BUSINESS_AS_NAME": "CROATION AMERICAN RADIO CLUB", 
    "POP_AT_RISK": 13444, 
    "ZIP": 60638, 
    "ADDRESS": "7036 W ARCHER AVE  1", 
    "YEAR": 2012, 
    "LONGITUDE": -87.797970995, 
    "LATTITUDE": 41.792129429
  }, 
  {
    "BUSINESS_TYPE": "Not-For-Profit Club", 
    "LEGAL_NAME": "CLUB PARADISE", 
    "STATE": "IL", 
    "DOING_BUSINESS_AS_NAME": "PARADISE CLUB", 
    "POP_AT_RISK": 47146, 
    "ZIP": 60623, 
    "ADDRESS": "4300 W CERMAK RD", 
    "YEAR": 2012, 
    "LONGITUDE": -87.732199832, 
    "LATTITUDE": 41.851543684
  }, 
  {
    "BUSINESS_TYPE": "Not-For-Profit Club", 
    "LEGAL_NAME": "DORMAN-DUNN POST #547 AMERICAN LEGION", 
    "STATE": "IL", 
    "DOING_BUSINESS_AS_NAME": "DORMAN-DUNN POST #547 AMERICAN LEGION", 
    "POP_AT_RISK": 41153, 
    "ZIP": 60608, 
    "ADDRESS": "2129 W CERMAK RD  2", 
    "YEAR": 2012, 
    "LONGITUDE": -87.679476559, 
    "LATTITUDE": 41.852009134
  }, 
  {
    "BUSINESS_TYPE": "Not-For-Profit Club", 
    "LEGAL_NAME": "RAMALLAH AMERICAN CLUB", 
    "STATE": "IL", 
    "DOING_BUSINESS_AS_NAME": "RAMALLAH AMERICAN CLUB", 
    "POP_AT_RISK": 69505, 
    "ZIP": 60639, 
    "ADDRESS": "2700 N CENTRAL AVE 1ST", 
    "YEAR": 2012, 
    "LONGITUDE": -87.766330298, 
    "LATTITUDE": 41.929495301
  }, 
  {
    "BUSINESS_TYPE": "Not-For-Profit Club", 
    "LEGAL_NAME": "UNITED SERBS SPORT CLUB, INC.", 
    "STATE": "IL", 
    "DOING_BUSINESS_AS_NAME": "UNITED SERBS SPORT CLUB INC", 
    "POP_AT_RISK": 44522, 
    "ZIP": 60630, 
    "ADDRESS": "4526 N MILWAUKEE AVE  1ST", 
    "YEAR": 2012, 
    "LONGITUDE": -87.756739946, 
    "LATTITUDE": 41.96304074
  }, 
  {
    "BUSINESS_TYPE": "Not-For-Profit Club", 
    "LEGAL_NAME": "ASSYRIAN AMERICAN ASSOCIATION OF CHICAGO, INC.", 
    "STATE": "IL", 
    "DOING_BUSINESS_AS_NAME": "ASSYRIAN AMERICAN ASSOCIATION", 
    "POP_AT_RISK": 67015, 
    "ZIP": 60660, 
    "ADDRESS": "1618 W DEVON AVE 1", 
    "YEAR": 2012, 
    "LONGITUDE": -87.671421144, 
    "LATTITUDE": 41.998172636
  }, 
  {
    "BUSINESS_TYPE": "Not-For-Profit Club", 
    "LEGAL_NAME": "BILLY CALDWELL POST 806", 
    "STATE": "IL", 
    "DOING_BUSINESS_AS_NAME": "BILLY CALDWELL POST 806", 
    "POP_AT_RISK": 52898, 
    "ZIP": 60641, 
    "ADDRESS": "5116 W IRVING PARK RD 1ST", 
    "YEAR": 2012, 
    "LONGITUDE": -87.755383941, 
    "LATTITUDE": 41.953430199
  }, 
  {
    "BUSINESS_TYPE": "Not-For-Profit Club", 
    "LEGAL_NAME": "GARFIELD SOCIAL ATHLETIC CLUB", 
    "STATE": "IL", 
    "DOING_BUSINESS_AS_NAME": "GARFIELD SOCIAL ATHLETIC CLUB", 
    "POP_AT_RISK": 23017, 
    "ZIP": 60652, 
    "ADDRESS": "7733 S KEDZIE AVE", 
    "YEAR": 2012, 
    "LONGITUDE": -87.702327441, 
    "LATTITUDE": 41.752542938
  }, 
  {
    "BUSINESS_TYPE": "Not-For-Profit Club", 
    "LEGAL_NAME": "MONTFORD POINT MARINE ASSOCIATION", 
    "STATE": "IL", 
    "DOING_BUSINESS_AS_NAME": "MONTFORD POINT MARINE ASSOCIATION", 
    "POP_AT_RISK": 36237, 
    "ZIP": 60621, 
    "ADDRESS": "7011-7019 S VINCENNES AVE 1", 
    "YEAR": 2012, 
    "LONGITUDE": -87.627130842, 
    "LATTITUDE": 41.766803676
  }, 
  {
    "BUSINESS_TYPE": "Not-For-Profit Club", 
    "LEGAL_NAME": "LAKE VIEW MEN'S CLUB", 
    "STATE": "IL", 
    "DOING_BUSINESS_AS_NAME": "LAKE VIEW MEN'S CLUB", 
    "POP_AT_RISK": 71839, 
    "ZIP": 60614, 
    "ADDRESS": "2732 N PINE GROVE AVE  1", 
    "YEAR": 2012, 
    "LONGITUDE": -87.64100632, 
    "LATTITUDE": 41.931855311
  }, 
  {
    "BUSINESS_TYPE": "Not-For-Profit Club", 
    "LEGAL_NAME": "The American Legion William McKinley Post No. 231", 
    "STATE": "IL", 
    "DOING_BUSINESS_AS_NAME": "The American Legion William McKinley Post No. 231", 
    "POP_AT_RISK": 24259, 
    "ZIP": 60609, 
    "ADDRESS": "1954-1956 W 35TH ST 1ST", 
    "YEAR": 2012, 
    "LONGITUDE": -87.675052564, 
    "LATTITUDE": 41.830502049
  }, 
  {
    "BUSINESS_TYPE": "Not-For-Profit Club", 
    "LEGAL_NAME": "BRANCH VITEZ RAFAEL BOBAN", 
    "STATE": "IL", 
    "DOING_BUSINESS_AS_NAME": "THE CROATIAN CLUB", 
    "POP_AT_RISK": 17749, 
    "ZIP": 60617, 
    "ADDRESS": "9629 S COMMERCIAL AVE 1ST", 
    "YEAR": 2012, 
    "LONGITUDE": -87.550894542, 
    "LATTITUDE": 41.720056612
  }, 
  {
    "BUSINESS_TYPE": "Not-For-Profit Club", 
    "LEGAL_NAME": "BALZEKAS MUSEUM OF LITHUANIAN CULTURE", 
    "STATE": "IL", 
    "DOING_BUSINESS_AS_NAME": "BALZEKAS MUSEUM OF LITHUANIAN", 
    "POP_AT_RISK": 46565, 
    "ZIP": 60629, 
    "ADDRESS": "6500 S PULASKI RD 1", 
    "YEAR": 2012, 
    "LONGITUDE": -87.722812227, 
    "LATTITUDE": 41.774964998
  }, 
  {
    "BUSINESS_TYPE": "Not-For-Profit Club", 
    "LEGAL_NAME": "UKRAINIAN AMERICAN CLUB", 
    "STATE": "IL", 
    "DOING_BUSINESS_AS_NAME": "UKRAINIAN AMERICAN CLUB", 
    "POP_AT_RISK": 57205, 
    "ZIP": 60622, 
    "ADDRESS": "2234 W CHICAGO AVE 1ST", 
    "YEAR": 2012, 
    "LONGITUDE": -87.683366059, 
    "LATTITUDE": 41.895912422
  }, 
  {
    "BUSINESS_TYPE": "Not-For-Profit Club", 
    "LEGAL_NAME": "FRED SCHWEITZER POST 272", 
    "STATE": "IL", 
    "DOING_BUSINESS_AS_NAME": "FRED SCHWEITZER POST 272", 
    "POP_AT_RISK": 9426, 
    "ZIP": 60633, 
    "ADDRESS": "13304 S BALTIMORE AVE 1ST", 
    "YEAR": 2012, 
    "LONGITUDE": -87.547296663, 
    "LATTITUDE": 41.653474248
  }, 
  {
    "BUSINESS_TYPE": "Not-For-Profit Club", 
    "LEGAL_NAME": "CHICAGO CORINTHIAN YACHT CLUB", 
    "STATE": "IL", 
    "DOING_BUSINESS_AS_NAME": "CORINTHIAN YACHT CLUB", 
    "POP_AT_RISK": 59503, 
    "ZIP": 60613, 
    "ADDRESS": "601 W MONTROSE DR 1", 
    "YEAR": 2012, 
    "LONGITUDE": -87.645909529, 
    "LATTITUDE": 41.961920724
  }, 
  {
    "BUSINESS_TYPE": "Not-For-Profit Club", 
    "LEGAL_NAME": "AMERICAN AID SOCIETY OF GERMAN DESCENDANTS", 
    "STATE": "IL", 
    "DOING_BUSINESS_AS_NAME": "AMERICAN AID SOCIETY", 
    "POP_AT_RISK": 20191, 
    "ZIP": 60631, 
    "ADDRESS": "6540 N MILWAUKEE AVE", 
    "YEAR": 2012, 
    "LONGITUDE": -87.790794962, 
    "LATTITUDE": 42.000365528
  }
]