[
  {
    "BUSINESS_TYPE": "Motor Vehicle Services License", 
    "LEGAL_NAME": "THOMAS PAUL JONES", 
    "STATE": "IL", 
    "DOING_BUSINESS_AS_NAME": "PAUL JONES TIRE REPAIR", 
    "POP_AT_RISK": 39686, 
    "ZIP": 60653, 
    "ADDRESS": "636 E 43RD ST 1ST", 
    "YEAR": 2018, 
    "LONGITUDE": -87.610264146, 
    "LATTITUDE": 41.816863888
  }, 
  {
    "BUSINESS_TYPE": "Motor Vehicle Services License", 
    "LEGAL_NAME": "BRIDGESTONE RETAIL OPERATIONS, LLC", 
    "STATE": "IL", 
    "DOING_BUSINESS_AS_NAME": "BRIDGESTONE USA, INC", 
    "POP_AT_RISK": 40698, 
    "ZIP": 60605, 
    "ADDRESS": "1550 - 1558 S WABASH AVE", 
    "YEAR": 2018, 
    "LONGITUDE": -87.625815153, 
    "LATTITUDE": 41.860471263
  }, 
  {
    "BUSINESS_TYPE": "Motor Vehicle Services License", 
    "LEGAL_NAME": "ELANO FUEL, INC.", 
    "STATE": "IL", 
    "DOING_BUSINESS_AS_NAME": "CITGO FUEL & MINI MART", 
    "POP_AT_RISK": 37792, 
    "ZIP": 60637, 
    "ADDRESS": "6700 S COTTAGE GROVE AVE 1", 
    "YEAR": 2018, 
    "LONGITUDE": -87.605913053, 
    "LATTITUDE": 41.773047822
  }, 
  {
    "BUSINESS_TYPE": "Motor Vehicle Services License", 
    "LEGAL_NAME": "CENTRAL AND CALDWELL SERVICE", 
    "STATE": "IL", 
    "DOING_BUSINESS_AS_NAME": "CENTRAL AND CALDWELL SERVICE", 
    "POP_AT_RISK": 17956, 
    "ZIP": 60646, 
    "ADDRESS": "6301 N CENTRAL AVE", 
    "YEAR": 2018, 
    "LONGITUDE": -87.764049237, 
    "LATTITUDE": 41.996166548
  }, 
  {
    "BUSINESS_TYPE": "Motor Vehicle Services License", 
    "LEGAL_NAME": "CALUMET CONTAINER CORP.", 
    "STATE": "IL", 
    "DOING_BUSINESS_AS_NAME": "CALUMET CONTAINER CORP.", 
    "POP_AT_RISK": 3233, 
    "ZIP": 60633, 
    "ADDRESS": "12158 S STONY ISLAND AVE", 
    "YEAR": 2018, 
    "LONGITUDE": -87.575510476, 
    "LATTITUDE": 41.673741109
  }, 
  {
    "BUSINESS_TYPE": "Motor Vehicle Services License", 
    "LEGAL_NAME": "ERIE LASALLE BODY SHOP INC.", 
    "STATE": "IL", 
    "DOING_BUSINESS_AS_NAME": "ERIE LASALLE BODY SHOP", 
    "POP_AT_RISK": 79875, 
    "ZIP": 60610, 
    "ADDRESS": "146 W ERIE ST", 
    "YEAR": 2018, 
    "LONGITUDE": -87.633002422, 
    "LATTITUDE": 41.894115785
  }, 
  {
    "BUSINESS_TYPE": "Motor Vehicle Services License", 
    "LEGAL_NAME": "CORNELL AMOCO, INC.", 
    "STATE": "IL", 
    "DOING_BUSINESS_AS_NAME": "BP", 
    "POP_AT_RISK": 35941, 
    "ZIP": 60615, 
    "ADDRESS": "5048 S CORNELL AVE 1ST", 
    "YEAR": 2018, 
    "LONGITUDE": -87.586592525, 
    "LATTITUDE": 41.80283112
  }, 
  {
    "BUSINESS_TYPE": "Motor Vehicle Services License", 
    "LEGAL_NAME": "SNAPPY CAR WASH, INC.", 
    "STATE": "IL", 
    "DOING_BUSINESS_AS_NAME": "SNAPPY CAR WASH, INC.", 
    "POP_AT_RISK": 17974, 
    "ZIP": 60646, 
    "ADDRESS": "6152 N PULASKI RD", 
    "YEAR": 2018, 
    "LONGITUDE": -87.729030335, 
    "LATTITUDE": 41.993437462
  }, 
  {
    "BUSINESS_TYPE": "Motor Vehicle Services License", 
    "LEGAL_NAME": "WM. J. CASSIDY TIRE & AUTO SUPPLY CO.", 
    "STATE": "IL", 
    "DOING_BUSINESS_AS_NAME": "WM J CASSIDY TIRE & AUTO", 
    "POP_AT_RISK": 88025, 
    "ZIP": 60614, 
    "ADDRESS": "824 W DIVERSEY PKWY", 
    "YEAR": 2018, 
    "LONGITUDE": -87.650005491, 
    "LATTITUDE": 41.932808497
  }, 
  {
    "BUSINESS_TYPE": "Motor Vehicle Services License", 
    "LEGAL_NAME": "WENTWORTH TIRE SERVICE", 
    "STATE": "IL", 
    "DOING_BUSINESS_AS_NAME": "WENTWORTH TIRE SERVICE INC", 
    "POP_AT_RISK": 10503, 
    "ZIP": 60628, 
    "ADDRESS": "11130 S CORLISS AVE", 
    "YEAR": 2018, 
    "LONGITUDE": -87.600851138, 
    "LATTITUDE": 41.691957617
  }, 
  {
    "BUSINESS_TYPE": "Motor Vehicle Services License", 
    "LEGAL_NAME": "PETROLEUM EXPRESS INC.", 
    "STATE": "IL", 
    "DOING_BUSINESS_AS_NAME": "PIT STOP 500", 
    "POP_AT_RISK": 37769, 
    "ZIP": 60649, 
    "ADDRESS": "7000-7008 S STONY ISLAND AVE 1ST", 
    "YEAR": 2018, 
    "LONGITUDE": -87.586516319, 
    "LATTITUDE": 41.767790956
  }, 
  {
    "BUSINESS_TYPE": "Motor Vehicle Services License", 
    "LEGAL_NAME": "MGS CAR REPAIR & BODY WORK INC.", 
    "STATE": "IL", 
    "DOING_BUSINESS_AS_NAME": "MGS CAR REPAIR & BODY WORK INC.", 
    "POP_AT_RISK": 8263, 
    "ZIP": 60656, 
    "ADDRESS": "5200-5202 N WESLEY TER 1ST", 
    "YEAR": 2018, 
    "LONGITUDE": -87.864215489, 
    "LATTITUDE": 41.973290116
  }, 
  {
    "BUSINESS_TYPE": "Motor Vehicle Services License", 
    "LEGAL_NAME": "AUTOPOL CAR CARE INC", 
    "STATE": "IL", 
    "DOING_BUSINESS_AS_NAME": "AUTOPOL CAR CARE, INC.", 
    "POP_AT_RISK": 24680, 
    "ZIP": 60656, 
    "ADDRESS": "7045 W HIGGINS AVE 1ST", 
    "YEAR": 2018, 
    "LONGITUDE": -87.804123351, 
    "LATTITUDE": 41.980383035
  }, 
  {
    "BUSINESS_TYPE": "Motor Vehicle Services License", 
    "LEGAL_NAME": "GARFIELD MOBIL, INC.", 
    "STATE": "IL", 
    "DOING_BUSINESS_AS_NAME": "GARFIELD SUPER SAVE", 
    "POP_AT_RISK": 26492, 
    "ZIP": 60615, 
    "ADDRESS": "48 E GARFIELD BLVD 1ST", 
    "YEAR": 2018, 
    "LONGITUDE": -87.623919354, 
    "LATTITUDE": 41.794777233
  }
]