[
{"STATE":"IL","ZIP":60643,"LATTITUDE":41.713996029263974,"ADDRESS":"1808  -01810 W 99TH ST 1ST ","YEAR":2009,"DOING_BUSINESS_AS_NAME":"HUGGIE BEAR CHRISTIAN ACADEMY","POP_AT_RISK":41876,"BUSINESS_TYPE":"Day Care Center Under 2 and 2 - 6 Years","LEGAL_NAME":"TUAC, INC","LONGITUDE":-87.66773438550344},
{"STATE":"IL","ZIP":60652,"LATTITUDE":41.74299303153854,"ADDRESS":"8233 S PULASKI RD 1ST ","YEAR":2009,"DOING_BUSINESS_AS_NAME":"THE LEARNING TREE II","POP_AT_RISK":63684,"BUSINESS_TYPE":"Day Care Center Under 2 and 2 - 6 Years","LEGAL_NAME":"GIA GROUP INC.","LONGITUDE":-87.72155821260196},
{"STATE":"IL","ZIP":60649,"LATTITUDE":41.75957929907675,"ADDRESS":"2671-73 E 75TH ST  ","YEAR":2009,"DOING_BUSINESS_AS_NAME":"KIDS COUNT TOO DAYCARE","POP_AT_RISK":29611,"BUSINESS_TYPE":"Day Care Center Under 2 and 2 - 6 Years","LEGAL_NAME":"VERONICA CLARK","LONGITUDE":-87.55891723791517},
{"STATE":"IL","ZIP":60633,"LATTITUDE":41.65908283643143,"ADDRESS":"2725 E 130TH ST 1ST 101","YEAR":2009,"DOING_BUSINESS_AS_NAME":"HEGEWISCH CHILD DEVELOPMENT CENTER","POP_AT_RISK":2798,"BUSINESS_TYPE":"Day Care Center Under 2 and 2 - 6 Years","LEGAL_NAME":"HENRY BOOTH HOUSE","LONGITUDE":-87.55699256526808},
{"STATE":"IL","ZIP":60618,"LATTITUDE":41.934280416256804,"ADDRESS":"2905 N LEAVITT ST  ","YEAR":2009,"DOING_BUSINESS_AS_NAME":"MARY CRANE LEAGUE","POP_AT_RISK":251780,"BUSINESS_TYPE":"Day Care Center Under 2 and 2 - 6 Years","LEGAL_NAME":"MARY CRANE LEAGUE","LONGITUDE":-87.68290782429251},
{"STATE":"IL","ZIP":60607,"LATTITUDE":41.869219246745565,"ADDRESS":"1417 W TAYLOR ST 1 & 2 ","YEAR":2009,"DOING_BUSINESS_AS_NAME":"TAYLOR TOTS CHILD DEVELOPMENT","POP_AT_RISK":37148,"BUSINESS_TYPE":"Day Care Center Under 2 and 2 - 6 Years","LEGAL_NAME":"TAYLOR TOTS, INC.","LONGITUDE":-87.6623354074544},
{"STATE":"IL","ZIP":60628,"LATTITUDE":41.70556659418179,"ADDRESS":"901 E 104TH ST 1ST ","YEAR":2009,"DOING_BUSINESS_AS_NAME":"TEENCHY WEENCHY DAYCARE","POP_AT_RISK":44256,"BUSINESS_TYPE":"Day Care Center Under 2 and 2 - 6 Years","LEGAL_NAME":"JEANETTE HUTCHENSON","LONGITUDE":-87.60107403032647},
{"STATE":"IL","ZIP":60660,"LATTITUDE":41.998008500459655,"ADDRESS":"1443-1445 W DEVON AVE 1ST ","YEAR":2009,"DOING_BUSINESS_AS_NAME":"GREAT FOUNDATION CHILDCARE","POP_AT_RISK":1307456,"BUSINESS_TYPE":"Day Care Center Under 2 and 2 - 6 Years","LEGAL_NAME":"LITTLE KIDDIES INC.","LONGITUDE":-87.66712565512053},
{"STATE":"IL","ZIP":60647,"LATTITUDE":41.93191841302698,"ADDRESS":"3155 W DIVERSEY AVE 1ST\/2ND 1","YEAR":2009,"DOING_BUSINESS_AS_NAME":"DIVERSEY DAY CARE CENTER & KINDERGARTEN","POP_AT_RISK":450138,"BUSINESS_TYPE":"Day Care Center Under 2 and 2 - 6 Years","LEGAL_NAME":"TIGLOTH INCORPORATED","LONGITUDE":-87.70720963665408},
{"STATE":"IL","ZIP":60641,"LATTITUDE":41.959526803588645,"ADDRESS":"4328-4332 N MILWAUKEE AVE  ","YEAR":2009,"DOING_BUSINESS_AS_NAME":"KIDS IN HARMONY DAYSCHOOL","POP_AT_RISK":238374,"BUSINESS_TYPE":"Day Care Center Under 2 and 2 - 6 Years","LEGAL_NAME":"KIDS IN HARMONY, INC.","LONGITUDE":-87.75369469746808},
{"STATE":"IL","ZIP":60608,"LATTITUDE":41.83244831660045,"ADDRESS":"3356 S ASHLAND AVE  ","YEAR":2009,"DOING_BUSINESS_AS_NAME":"CHILDREN'S   WORLD","POP_AT_RISK":66000,"BUSINESS_TYPE":"Day Care Center Under 2 and 2 - 6 Years","LEGAL_NAME":"MONTILLA  CORPORATION","LONGITUDE":-87.66575382270032},
{"STATE":"IL","ZIP":60659,"LATTITUDE":41.98705013244154,"ADDRESS":"5807 N LINCOLN AVE 1ST ","YEAR":2009,"DOING_BUSINESS_AS_NAME":"CHILDREN'S WORLD INC.","POP_AT_RISK":117164,"BUSINESS_TYPE":"Day Care Center Under 2 and 2 - 6 Years","LEGAL_NAME":"CHILDREN'S WORLD, INC.","LONGITUDE":-87.70153205076969},
{"STATE":"IL","ZIP":60643,"LATTITUDE":41.6920980711081,"ADDRESS":"1305-1307 W 111TH ST 1 ","YEAR":2009,"DOING_BUSINESS_AS_NAME":"THE KIDS PLACE","POP_AT_RISK":29188,"BUSINESS_TYPE":"Day Care Center Under 2 and 2 - 6 Years","LEGAL_NAME":"THE KIDS PLACE III, NFP","LONGITUDE":-87.6548091189968},
{"STATE":"IL","ZIP":60618,"LATTITUDE":41.946823399558674,"ADDRESS":"2608 W ADDISON ST 1 A","YEAR":2009,"DOING_BUSINESS_AS_NAME":"KIDS' WORK CHICAGO, INC","POP_AT_RISK":100780,"BUSINESS_TYPE":"Day Care Center Under 2 and 2 - 6 Years","LEGAL_NAME":"KIDS' WORK CHICAGO, INC.","LONGITUDE":-87.69353264259799},
{"STATE":"IL","ZIP":60629,"LATTITUDE":41.77643961364602,"ADDRESS":"6411 S PULASKI RD 1ST ","YEAR":2009,"DOING_BUSINESS_AS_NAME":"LITTLE BEAR DAY CARE","POP_AT_RISK":54952,"BUSINESS_TYPE":"Day Care Center Under 2 and 2 - 6 Years","LEGAL_NAME":"LITTLE BEAR DAY CARE LLC","LONGITUDE":-87.72255635327761},
{"STATE":"IL","ZIP":60637,"LATTITUDE":41.780145279240806,"ADDRESS":"22 E 63RD ST  ","YEAR":2009,"DOING_BUSINESS_AS_NAME":"DISNEI LEARNING ACADEMY","POP_AT_RISK":33963,"BUSINESS_TYPE":"Day Care Center Under 2 and 2 - 6 Years","LEGAL_NAME":"RAYMOND DEMOND CURINGTON","LONGITUDE":-87.62448620771251},
{"STATE":"IL","ZIP":60639,"LATTITUDE":41.92411853337897,"ADDRESS":"5504 W FULLERTON AVE 1ST ","YEAR":2009,"DOING_BUSINESS_AS_NAME":"AKARRASEL CHILD CARE CENTERS","POP_AT_RISK":221796,"BUSINESS_TYPE":"Day Care Center Under 2 and 2 - 6 Years","LEGAL_NAME":"GALEWOOD ENTERPRISES, LTD","LONGITUDE":-87.76375122297641},
{"STATE":"IL","ZIP":60618,"LATTITUDE":41.961124962789185,"ADDRESS":"3748 W MONTROSE AVE 1 ","YEAR":2009,"DOING_BUSINESS_AS_NAME":"GATEWAY MONTESSORI SCHOOL, INC","POP_AT_RISK":379062,"BUSINESS_TYPE":"Day Care Center Under 2 and 2 - 6 Years","LEGAL_NAME":"GATEWAY MONTESSORI SCHOOL","LONGITUDE":-87.72247677282148},
{"STATE":"IL","ZIP":60631,"LATTITUDE":41.98703322680841,"ADDRESS":"5801 N NORTHWEST HWY 1 1","YEAR":2009,"DOING_BUSINESS_AS_NAME":"HELEN LUCY CHILD CARE INC.","POP_AT_RISK":62120,"BUSINESS_TYPE":"Day Care Center Under 2 and 2 - 6 Years","LEGAL_NAME":"HELEN LUCY CHILD CARE INC.","LONGITUDE":-87.78938143174634},
{"STATE":"IL","ZIP":60640,"LATTITUDE":41.96915695630021,"ADDRESS":"1108 W LAWRENCE AVE 1ST ","YEAR":2009,"DOING_BUSINESS_AS_NAME":"ABC & ME TODDLER CENTER,INC","POP_AT_RISK":280424,"BUSINESS_TYPE":"Day Care Center Under 2 and 2 - 6 Years","LEGAL_NAME":"ABC & ME TODDLER CENTER,INC","LONGITUDE":-87.65802546439097},
{"STATE":"IL","ZIP":60649,"LATTITUDE":41.76603438608735,"ADDRESS":"2255-2257 E 71ST ST  ","YEAR":2009,"DOING_BUSINESS_AS_NAME":"AHADI EARLY LEARNING CENTER","POP_AT_RISK":110130,"BUSINESS_TYPE":"Day Care Center Under 2 and 2 - 6 Years","LEGAL_NAME":"AHADI EARLY LEARNING CENTER","LONGITUDE":-87.5691774287933},
{"STATE":"IL","ZIP":60636,"LATTITUDE":41.793071779047345,"ADDRESS":"5522 S RACINE AVE  ","YEAR":2009,"DOING_BUSINESS_AS_NAME":"ALLISON'S INFANT & TODDLER CENTER","POP_AT_RISK":35826,"BUSINESS_TYPE":"Day Care Center Under 2 and 2 - 6 Years","LEGAL_NAME":"ALLISON  R PERKINS-CALDWELL","LONGITUDE":-87.65499418422684},
{"STATE":"IL","ZIP":60609,"LATTITUDE":41.81511207847913,"ADDRESS":"4344 S WENTWORTH AVE  ","YEAR":2009,"DOING_BUSINESS_AS_NAME":"JONES ACADEMY, INCORPORATED","POP_AT_RISK":73708,"BUSINESS_TYPE":"Day Care Center Under 2 and 2 - 6 Years","LEGAL_NAME":"JONES ACADEMY, INCORPORATED","LONGITUDE":-87.63130757563485},
{"STATE":"IL","ZIP":60626,"LATTITUDE":42.018266967047175,"ADDRESS":"7510 N ASHLAND AVE  ","YEAR":2009,"DOING_BUSINESS_AS_NAME":"HOWARD AREA COMMUNITY CENTER","POP_AT_RISK":379071,"BUSINESS_TYPE":"Day Care Center Under 2 and 2 - 6 Years","LEGAL_NAME":"HOWARD AREA COMMUNITY CENTER","LONGITUDE":-87.67146123134698},
{"STATE":"IL","ZIP":60619,"LATTITUDE":41.7509546567244,"ADDRESS":"301 E 79TH ST 1 ","YEAR":2009,"DOING_BUSINESS_AS_NAME":"JUST LIKE HOME, BALDWIN DAY CARE","POP_AT_RISK":40980,"BUSINESS_TYPE":"Day Care Center Under 2 and 2 - 6 Years","LEGAL_NAME":"JUST LIKE HOME, BALDWIN INC.","LONGITUDE":-87.61806910279698},
{"STATE":"IL","ZIP":60639,"LATTITUDE":41.924235040980825,"ADDRESS":"4447-4455 W FULLERTON AVE  ","YEAR":2009,"DOING_BUSINESS_AS_NAME":"KIDSLIFE DAYCARE CENTER","POP_AT_RISK":67114,"BUSINESS_TYPE":"Day Care Center Under 2 and 2 - 6 Years","LEGAL_NAME":"KIDSLIFE DAYCARE CENTER INC.","LONGITUDE":-87.73846463841794},
{"STATE":"IL","ZIP":60634,"LATTITUDE":41.94024127761025,"ADDRESS":"3255 N CENTRAL AVE 1 1","YEAR":2009,"DOING_BUSINESS_AS_NAME":"METROPOLITAN FAMILY SERVICES","POP_AT_RISK":448329,"BUSINESS_TYPE":"Day Care Center Under 2 and 2 - 6 Years","LEGAL_NAME":"METROPOLITAN FAMILY SERVICES","LONGITUDE":-87.76641116844013},
{"STATE":"IL","ZIP":60628,"LATTITUDE":41.72165071815577,"ADDRESS":"532 W 95TH ST  ","YEAR":2009,"DOING_BUSINESS_AS_NAME":"TRINITY UNITED CH. OF CHRIST","POP_AT_RISK":26292,"BUSINESS_TYPE":"Day Care Center Under 2 and 2 - 6 Years","LEGAL_NAME":"TRINITY UNITED CHURCH\/CHRIST","LONGITUDE":-87.63721721335074},
{"STATE":"IL","ZIP":60651,"LATTITUDE":41.89469048714729,"ADDRESS":"5725 W CHICAGO AVE 1ST ","YEAR":2009,"DOING_BUSINESS_AS_NAME":"BETTY'S DAY CARE ACADEMY, INC.","POP_AT_RISK":59446,"BUSINESS_TYPE":"Day Care Center Under 2 and 2 - 6 Years","LEGAL_NAME":"BETTY'S DAY CARE ACADEMY, INC.","LONGITUDE":-87.76898695672315},
{"STATE":"IL","ZIP":60640,"LATTITUDE":41.961950302699556,"ADDRESS":"4405-4407 N SHERIDAN RD 1 ","YEAR":2009,"DOING_BUSINESS_AS_NAME":"KIDSMART CHILDCARE CENTER INC.","POP_AT_RISK":737829,"BUSINESS_TYPE":"Day Care Center Under 2 and 2 - 6 Years","LEGAL_NAME":"KIDSMART CHILDCARE CENTER INC.","LONGITUDE":-87.65460337596932},
{"STATE":"IL","ZIP":60616,"LATTITUDE":41.835954885922824,"ADDRESS":"501 E 32ND ST  1ST","YEAR":2009,"DOING_BUSINESS_AS_NAME":"THE CHILDREN'S HOUSE-LK MEADOW","POP_AT_RISK":176208,"BUSINESS_TYPE":"Day Care Center Under 2 and 2 - 6 Years","LEGAL_NAME":"THE CHILDREN'S HOUSE LAKE MEAD","LONGITUDE":-87.61335015397036},
{"STATE":"IL","ZIP":60638,"LATTITUDE":41.79232955875624,"ADDRESS":"6640 W ARCHER AVE 1ST ","YEAR":2009,"DOING_BUSINESS_AS_NAME":"KIDDIE CORNER NURSERY SCHOOL","POP_AT_RISK":177690,"BUSINESS_TYPE":"Day Care Center Under 2 and 2 - 6 Years","LEGAL_NAME":"EARLY EDUCATION UNLIMITED, INC.","LONGITUDE":-87.7883153681136},
{"STATE":"IL","ZIP":60614,"LATTITUDE":41.91387373080662,"ADDRESS":"1733 N MARCEY ST  ","YEAR":2009,"DOING_BUSINESS_AS_NAME":"KINDERCARE LEARNING CENTERS","POP_AT_RISK":322378,"BUSINESS_TYPE":"Day Care Center Under 2 and 2 - 6 Years","LEGAL_NAME":"KINDERCARE LEARNING CENTERS LLC","LONGITUDE":-87.65509573166496},
{"STATE":"IL","ZIP":60647,"LATTITUDE":41.913925247245835,"ADDRESS":"1800 N HUMBOLDT BLVD 1ST ","YEAR":2009,"DOING_BUSINESS_AS_NAME":"THE CHILDREN'S PLACE ASSN","POP_AT_RISK":475088,"BUSINESS_TYPE":"Day Care Center Under 2 and 2 - 6 Years","LEGAL_NAME":"THE CHILDREN'S PLACE ASSOCIATION","LONGITUDE":-87.70212764503852},
{"STATE":"IL","ZIP":60619,"LATTITUDE":41.73185210877984,"ADDRESS":"8938-8940 S COTTAGE GROVE AVE  ","YEAR":2009,"DOING_BUSINESS_AS_NAME":"TOTS EXPRESS  LEARNING CENTER","POP_AT_RISK":137196,"BUSINESS_TYPE":"Day Care Center Under 2 and 2 - 6 Years","LEGAL_NAME":"TOTS EXPRESS LEARNING CENTER NFP","LONGITUDE":-87.60485274319225},
{"STATE":"IL","ZIP":60617,"LATTITUDE":41.71321088719611,"ADDRESS":"10009 S YATES AVE  ","YEAR":2009,"DOING_BUSINESS_AS_NAME":"A-ILLINOIS INSTITUTE FOR CHILDREN","POP_AT_RISK":35628,"BUSINESS_TYPE":"Day Care Center Under 2 and 2 - 6 Years","LEGAL_NAME":"A-ILLINOIS INSTITUTE FOR CHILDREN","LONGITUDE":-87.56443615534658},
{"STATE":"IL","ZIP":60656,"LATTITUDE":41.977374595498965,"ADDRESS":"6514-6516 W HIGGINS AVE  ","YEAR":2009,"DOING_BUSINESS_AS_NAME":"MT ARARAT DAYCARE CENTER","POP_AT_RISK":96087,"BUSINESS_TYPE":"Day Care Center Under 2 and 2 - 6 Years","LEGAL_NAME":"MT. ARARAT DAYCARE CENTER, L.L.C.","LONGITUDE":-87.79085428202548},
{"STATE":"IL","ZIP":60644,"LATTITUDE":41.865605626722484,"ADDRESS":"5858 W ROOSEVELT RD 1 ","YEAR":2009,"DOING_BUSINESS_AS_NAME":"CHILDREN INTERNATIONAL ACADEMY","POP_AT_RISK":471762,"BUSINESS_TYPE":"Day Care Center Under 2 and 2 - 6 Years","LEGAL_NAME":"CHILDREN INTERNATIONAL ACADEMY,LLC","LONGITUDE":-87.77161387921645},
{"STATE":"IL","ZIP":60632,"LATTITUDE":41.80943923636859,"ADDRESS":"4606-4610 S PULASKI RD 1ST ","YEAR":2009,"DOING_BUSINESS_AS_NAME":"LIZ-NEY-LAND LEARNING CENTER, INC.","POP_AT_RISK":191944,"BUSINESS_TYPE":"Day Care Center Under 2 and 2 - 6 Years","LEGAL_NAME":"LIZ-NEY-LAND LEARNING CENTER, INC.","LONGITUDE":-87.723789019846},
{"STATE":"IL","ZIP":60629,"LATTITUDE":41.78379309278507,"ADDRESS":"6010 S PULASKI RD 1 ","YEAR":2009,"DOING_BUSINESS_AS_NAME":"LIEZ-NEY-LAND LEARNING CENTER, INC.","POP_AT_RISK":54079,"BUSINESS_TYPE":"Day Care Center Under 2 and 2 - 6 Years","LEGAL_NAME":"LIZ-NEY-LAND LEARNING CENTER, INC.","LONGITUDE":-87.72305287803513},
{"STATE":"IL","ZIP":60625,"LATTITUDE":41.970888597492355,"ADDRESS":"4908 N DAMEN AVE  ","YEAR":2009,"DOING_BUSINESS_AS_NAME":"RAVENSWOOD COMMUNITY DAYCARE, INC.","POP_AT_RISK":135566,"BUSINESS_TYPE":"Day Care Center Under 2 and 2 - 6 Years","LEGAL_NAME":"RAVENSWOOD COMMUNITY DAYCARE, INC.","LONGITUDE":-87.67939623289391},
{"STATE":"IL","ZIP":60623,"LATTITUDE":41.853475323255154,"ADDRESS":"3701 W OGDEN AVE  ","YEAR":2009,"DOING_BUSINESS_AS_NAME":"Carole Robertson Center for Learning","POP_AT_RISK":1234449,"BUSINESS_TYPE":"Day Care Center Under 2 and 2 - 6 Years","LEGAL_NAME":"CAROLE ROBERTSON CENTER FOR LEARNING","LONGITUDE":-87.71749061210578},
{"STATE":"IL","ZIP":60639,"LATTITUDE":41.909687088617126,"ADDRESS":"4243 W NORTH AVE 1ST ","YEAR":2009,"DOING_BUSINESS_AS_NAME":"JOYFUL NOISE CHRISTIAN DAY CARE","POP_AT_RISK":64673,"BUSINESS_TYPE":"Day Care Center Under 2 and 2 - 6 Years","LEGAL_NAME":"JOYFUL NOISE CHRISTIAN DAYCARE, INC.","LONGITUDE":-87.73302403097847},
{"STATE":"IL","ZIP":60707,"LATTITUDE":41.915192484218764,"ADDRESS":"1927-1929 N HARLEM AVE  ","YEAR":2009,"DOING_BUSINESS_AS_NAME":"LOVING TOUCH DAYCARE PROVIDERS INC","POP_AT_RISK":66786,"BUSINESS_TYPE":"Day Care Center Under 2 and 2 - 6 Years","LEGAL_NAME":"LOVING TOUCH DAYCARE PROVIDERS, INC.","LONGITUDE":-87.80582794273202},
{"STATE":"IL","ZIP":60601,"LATTITUDE":41.88637740620821,"ADDRESS":"225 N MICHIGAN AVE  GROUND","YEAR":2009,"DOING_BUSINESS_AS_NAME":"BRIGHT HORIZONS CHICAGO EAST LOOP","POP_AT_RISK":131628,"BUSINESS_TYPE":"Day Care Center Under 2 and 2 - 6 Years","LEGAL_NAME":"BRIGHT HORIZONS CHILDREN'S CENTERS LLC","LONGITUDE":-87.62438167043969},
{"STATE":"IL","ZIP":60614,"LATTITUDE":41.92222025546027,"ADDRESS":"2230 N DOMINICK ST  ","YEAR":2009,"DOING_BUSINESS_AS_NAME":"CREME DE LA CREME (LINCOLN PARK), INC.","POP_AT_RISK":168372,"BUSINESS_TYPE":"Day Care Center Under 2 and 2 - 6 Years","LEGAL_NAME":"CREME DE LA CREME (LINCOLN PARK), INC.","LONGITUDE":-87.66710345390526},
{"STATE":"IL","ZIP":60616,"LATTITUDE":41.85225228540738,"ADDRESS":"2214 S FEDERAL ST 1ST ","YEAR":2009,"DOING_BUSINESS_AS_NAME":"EASTER SEALS METROPOLITAN CHICAGO","POP_AT_RISK":77372,"BUSINESS_TYPE":"Day Care Center Under 2 and 2 - 6 Years","LEGAL_NAME":"EASTER SEALS METROPOLITAN CHICAGO, INC.","LONGITUDE":-87.62947898903535},
{"STATE":"IL","ZIP":60609,"LATTITUDE":41.82898408178605,"ADDRESS":"3575 S ARCHER AVE  ","YEAR":2009,"DOING_BUSINESS_AS_NAME":"ARCHER AVENUE LEARNING STATION, INC","POP_AT_RISK":91188,"BUSINESS_TYPE":"Day Care Center Under 2 and 2 - 6 Years","LEGAL_NAME":"MONTESSORI FOUNDATIONS OF CHICAGO, INC.","LONGITUDE":-87.67971508964543},
{"STATE":"IL","ZIP":60644,"LATTITUDE":41.88064378804554,"ADDRESS":"4650 W MADISON ST  ","YEAR":2009,"DOING_BUSINESS_AS_NAME":"HLCDC DEVELOPMENT #2","POP_AT_RISK":42721,"BUSINESS_TYPE":"Day Care Center Under 2 and 2 - 6 Years","LEGAL_NAME":"HOME OF LIFE COMMUNITY DEVELOPMENT CORP.","LONGITUDE":-87.7421719266432},
{"STATE":"IL","ZIP":60636,"LATTITUDE":41.77930752464901,"ADDRESS":"1701 W 63RD ST 1&2 ND ","YEAR":2009,"DOING_BUSINESS_AS_NAME":"CHILDREN'S HOME AND AID SOCIETY OF ILLINOIS","POP_AT_RISK":72530,"BUSINESS_TYPE":"Day Care Center Under 2 and 2 - 6 Years","LEGAL_NAME":"CHILDREN'S HOME & AID SOCIETY OF ILLINOIS","LONGITUDE":-87.66672450555792},
{"STATE":"IL","ZIP":60609,"LATTITUDE":41.80113414357615,"ADDRESS":"1935 W 51ST ST 1ST & LOWER LEVEL ","YEAR":2009,"DOING_BUSINESS_AS_NAME":"VIREVA NURSERY SCHOOL","POP_AT_RISK":165192,"BUSINESS_TYPE":"Day Care Center Under 2 and 2 - 6 Years","LEGAL_NAME":"VIREVA NURSERY SCHOOL & KINDERGARTEN, INC.","LONGITUDE":-87.6734440144631},
{"STATE":"IL","ZIP":60653,"LATTITUDE":41.809588233119534,"ADDRESS":"624 - 626 E 47TH ST  ","YEAR":2009,"DOING_BUSINESS_AS_NAME":"PRECIOUS INFANTS & TOTS LEARNING CENTER INC","POP_AT_RISK":332272,"BUSINESS_TYPE":"Day Care Center Under 2 and 2 - 6 Years","LEGAL_NAME":"PRECIOUS INFANTS & TOTS LEARNING CENTER INC.","LONGITUDE":-87.61036179915281},
{"STATE":"IL","ZIP":60617,"LATTITUDE":41.7337610651301,"ADDRESS":"2710 E 89TH ST 1ST ","YEAR":2009,"DOING_BUSINESS_AS_NAME":"YMCA BOWEN FAMILY DEV CENTER","POP_AT_RISK":231833,"BUSINESS_TYPE":"Day Care Center Under 2 and 2 - 6 Years","LEGAL_NAME":"YOUNG MEN'S CHRISTIAN ASSOCIATION OF CHICAGO","LONGITUDE":-87.55775262945247},
{"STATE":"IL","ZIP":60624,"LATTITUDE":41.87847194167412,"ADDRESS":"3250 W ADAMS ST 1ST ","YEAR":2009,"DOING_BUSINESS_AS_NAME":"YMCA MARSHALL FAMILY DEV CENT","POP_AT_RISK":30584,"BUSINESS_TYPE":"Day Care Center Under 2 and 2 - 6 Years","LEGAL_NAME":"YOUNG MEN'S CHRISTIAN ASSOCIATION OF CHICAGO","LONGITUDE":-87.70801612307142},
{"STATE":"IL","ZIP":60608,"LATTITUDE":41.86505135416893,"ADDRESS":"1960 W 13TH ST  ","YEAR":2009,"DOING_BUSINESS_AS_NAME":"NEW ZION CHILD CARE ACADEMY","POP_AT_RISK":37688,"BUSINESS_TYPE":"Day Care Center Under 2 and 2 - 6 Years","LEGAL_NAME":"NEW ZION HUMAN RESOURCE DEVELOPMENT & COUNSELING NETWORK","LONGITUDE":-87.67600728666591},
{}]