[
  {
    "BUSINESS_TYPE": "Public Place of Amusement", 
    "LEGAL_NAME": "RIVER WEST BREWING CORP.", 
    "STATE": "IL", 
    "DOING_BUSINESS_AS_NAME": "RIVER WEST BREWING COMPANY", 
    "POP_AT_RISK": 38906, 
    "ZIP": 60642, 
    "ADDRESS": "925 W CHICAGO AVE 1ST", 
    "YEAR": 1998, 
    "LONGITUDE": -87.650828963, 
    "LATTITUDE": 41.896231514
  }, 
  {
    "BUSINESS_TYPE": "Public Place of Amusement", 
    "LEGAL_NAME": "MOHAMED FARAJ", 
    "STATE": "IL", 
    "DOING_BUSINESS_AS_NAME": "BEIRUT RESTURANT", 
    "POP_AT_RISK": 84955, 
    "ZIP": 60625, 
    "ADDRESS": "4714 N KEDZIE AVE 1ST", 
    "YEAR": 1998, 
    "LONGITUDE": -87.708577093, 
    "LATTITUDE": 41.967114771
  }, 
  {
    "BUSINESS_TYPE": "Public Place of Amusement", 
    "LEGAL_NAME": "GRANDOR ENTERPRISES, INC.", 
    "STATE": "IL", 
    "DOING_BUSINESS_AS_NAME": "GRANDOR ENTERPRISES", 
    "POP_AT_RISK": 70835, 
    "ZIP": 60610, 
    "ADDRESS": "318 W GRAND AVE", 
    "YEAR": 1998, 
    "LONGITUDE": -87.636386557, 
    "LATTITUDE": 41.891662304
  }, 
  {
    "BUSINESS_TYPE": "Public Place of Amusement", 
    "LEGAL_NAME": "THADDEUS MOODY", 
    "STATE": "IL", 
    "DOING_BUSINESS_AS_NAME": "FAMILY BILLIARDS", 
    "POP_AT_RISK": 40077, 
    "ZIP": 60620, 
    "ADDRESS": "8130 S ASHLAND AVE 1ST", 
    "YEAR": 1998, 
    "LONGITUDE": -87.663468621, 
    "LATTITUDE": 41.745774185
  }, 
  {
    "BUSINESS_TYPE": "Public Place of Amusement", 
    "LEGAL_NAME": "PRESTON PEOPLES", 
    "STATE": "IL", 
    "DOING_BUSINESS_AS_NAME": "PEOPLES RECREATION CENTER", 
    "POP_AT_RISK": 47256, 
    "ZIP": 60624, 
    "ADDRESS": "3846 W ROOSEVELT RD", 
    "YEAR": 1998, 
    "LONGITUDE": -87.722128165, 
    "LATTITUDE": 41.866323425
  }, 
  {
    "BUSINESS_TYPE": "Public Place of Amusement", 
    "LEGAL_NAME": "CHICAGO SPORTS & ENT. COMPLEX", 
    "STATE": "IL", 
    "DOING_BUSINESS_AS_NAME": "NEW INTERNATIONAL AMPHITHEATER", 
    "POP_AT_RISK": 14040, 
    "ZIP": 60609, 
    "ADDRESS": "4220 S HALSTED ST  WHOLE", 
    "YEAR": 1998, 
    "LONGITUDE": -87.645894101, 
    "LATTITUDE": 41.81692866
  }, 
  {
    "BUSINESS_TYPE": "Public Place of Amusement", 
    "LEGAL_NAME": "JOSEPH R ROSS", 
    "STATE": "IL", 
    "DOING_BUSINESS_AS_NAME": "VETERANS RECREATION", 
    "POP_AT_RISK": 34712, 
    "ZIP": 60653, 
    "ADDRESS": "3660 S INDIANA AVE 1ST", 
    "YEAR": 1998, 
    "LONGITUDE": -87.6218411, 
    "LATTITUDE": 41.827896685
  }, 
  {
    "BUSINESS_TYPE": "Public Place of Amusement", 
    "LEGAL_NAME": "SHILLA INTERNATIONAL INC.", 
    "STATE": "IL", 
    "DOING_BUSINESS_AS_NAME": "SHILLA INTERNATIONAL INC.", 
    "POP_AT_RISK": 55358, 
    "ZIP": 60659, 
    "ADDRESS": "5912-5930 N LINCOLN AVE", 
    "YEAR": 1998, 
    "LONGITUDE": -87.704394167, 
    "LATTITUDE": 41.988471038
  }, 
  {
    "BUSINESS_TYPE": "Public Place of Amusement", 
    "LEGAL_NAME": "JJ'S BAR , INC.", 
    "STATE": "IL", 
    "DOING_BUSINESS_AS_NAME": "JACKHAMMER", 
    "POP_AT_RISK": 67015, 
    "ZIP": 60626, 
    "ADDRESS": "6406 N CLARK ST 1ST", 
    "YEAR": 1998, 
    "LONGITUDE": -87.670809306, 
    "LATTITUDE": 41.998257404
  }, 
  {
    "BUSINESS_TYPE": "Public Place of Amusement", 
    "LEGAL_NAME": "CHARLES W AGER", 
    "STATE": "IL", 
    "DOING_BUSINESS_AS_NAME": "SWINGING TIMES ADULT BOOKSTORE", 
    "POP_AT_RISK": 63597, 
    "ZIP": 60610, 
    "ADDRESS": "1403  -01405 N WELLS ST  1", 
    "YEAR": 1998, 
    "LONGITUDE": -87.634462253, 
    "LATTITUDE": 41.907798662
  }, 
  {
    "BUSINESS_TYPE": "Public Place of Amusement", 
    "LEGAL_NAME": "HOME RUN INN, INC.", 
    "STATE": "IL", 
    "DOING_BUSINESS_AS_NAME": "HOME RUN INN", 
    "POP_AT_RISK": 32697, 
    "ZIP": 60623, 
    "ADDRESS": "4254 W 31ST ST", 
    "YEAR": 1998, 
    "LONGITUDE": -87.731411296, 
    "LATTITUDE": 41.836913225
  }
]