[
  {
    "BUSINESS_TYPE": "Accessory Garage", 
    "LEGAL_NAME": "PIONEER PARKING, INC.", 
    "STATE": "IL", 
    "DOING_BUSINESS_AS_NAME": "PARKING", 
    "POP_AT_RISK": 83359, 
    "ZIP": 60611, 
    "ADDRESS": "201 E CHESTNUT ST", 
    "YEAR": 2020, 
    "LONGITUDE": -87.621769791, 
    "LATTITUDE": 41.898310887
  }, 
  {
    "BUSINESS_TYPE": "Accessory Garage", 
    "LEGAL_NAME": "PIONEER PARKING, INC.", 
    "STATE": "IL", 
    "DOING_BUSINESS_AS_NAME": "PIONEER PARKING INC.", 
    "POP_AT_RISK": 65569, 
    "ZIP": 60613, 
    "ADDRESS": "3950 N LAKE SHORE DR 1-2", 
    "YEAR": 2020, 
    "LONGITUDE": -87.645349621, 
    "LATTITUDE": 41.954344719
  }, 
  {
    "BUSINESS_TYPE": "Accessory Garage", 
    "LEGAL_NAME": "PIONEER PARKING, INC.", 
    "STATE": "IL", 
    "DOING_BUSINESS_AS_NAME": "PARKING", 
    "POP_AT_RISK": 65383, 
    "ZIP": 60657, 
    "ADDRESS": "3440 N LAKE SHORE DR", 
    "YEAR": 2020, 
    "LONGITUDE": -87.641384093, 
    "LATTITUDE": 41.944706905
  }, 
  {
    "BUSINESS_TYPE": "Accessory Garage", 
    "LEGAL_NAME": "PIONEER PARKING, INC.", 
    "STATE": "IL", 
    "DOING_BUSINESS_AS_NAME": "PIONEER PARKING, INC.", 
    "POP_AT_RISK": 63657, 
    "ZIP": 60610, 
    "ADDRESS": "1415 N DEARBORN ST LL1 - 3", 
    "YEAR": 2020, 
    "LONGITUDE": -87.629970926, 
    "LATTITUDE": 41.908271423
  }, 
  {
    "BUSINESS_TYPE": "Accessory Garage", 
    "LEGAL_NAME": "PIONEER PARKING, INC.", 
    "STATE": "IL", 
    "DOING_BUSINESS_AS_NAME": "PIONEER PARKING INC", 
    "POP_AT_RISK": 55942, 
    "ZIP": 60657, 
    "ADDRESS": "2800 N LAKE SHORE DR 1-3", 
    "YEAR": 2020, 
    "LONGITUDE": -87.636373165, 
    "LATTITUDE": 41.932902467
  }
]