[
  {
    "BUSINESS_TYPE": "Mobile Frozen Desserts Dispenser - Non-Motorized", 
    "LEGAL_NAME": "MARJONES, LLC", 
    "STATE": "IL", 
    "DOING_BUSINESS_AS_NAME": "CHISCREAM", 
    "POP_AT_RISK": 37092, 
    "ZIP": 60612, 
    "ADDRESS": "324 N LEAVITT ST 1 1", 
    "YEAR": 2013, 
    "LONGITUDE": -87.681849494, 
    "LATTITUDE": 41.88743405
  }, 
  {
    "BUSINESS_TYPE": "Mobile Frozen Desserts Dispenser - Non-Motorized", 
    "LEGAL_NAME": "ISAI F. PAGAZA", 
    "STATE": "IL", 
    "DOING_BUSINESS_AS_NAME": "ISAI F. PAGAZA", 
    "POP_AT_RISK": 21953, 
    "ZIP": 60617, 
    "ADDRESS": "10400 S AVENUE L", 
    "YEAR": 2013, 
    "LONGITUDE": -87.536640136, 
    "LATTITUDE": 41.706302047
  }, 
  {
    "BUSINESS_TYPE": "Mobile Frozen Desserts Dispenser - Non-Motorized", 
    "LEGAL_NAME": "DUJUAN A MORGAN, SR.", 
    "STATE": "IL", 
    "DOING_BUSINESS_AS_NAME": "DUJUAN A MORGAN, SR.", 
    "POP_AT_RISK": 49247, 
    "ZIP": 60620, 
    "ADDRESS": "8026 S RACINE AVE", 
    "YEAR": 2013, 
    "LONGITUDE": -87.653812753, 
    "LATTITUDE": 41.747849555
  }, 
  {
    "BUSINESS_TYPE": "Mobile Frozen Desserts Dispenser - Non-Motorized", 
    "LEGAL_NAME": "LaTondria K Glasper-Pickett", 
    "STATE": "IL", 
    "DOING_BUSINESS_AS_NAME": "Catered Goods", 
    "POP_AT_RISK": 28225, 
    "ZIP": 60644, 
    "ADDRESS": "4825 W ARTHINGTON ST 1", 
    "YEAR": 2013, 
    "LONGITUDE": -87.745892712, 
    "LATTITUDE": 41.869236207
  }, 
  {
    "BUSINESS_TYPE": "Mobile Frozen Desserts Dispenser - Non-Motorized", 
    "LEGAL_NAME": "ANDREANA LLC", 
    "STATE": "IL", 
    "DOING_BUSINESS_AS_NAME": "ANDREANA LLC", 
    "POP_AT_RISK": 47514, 
    "ZIP": 60625, 
    "ADDRESS": "5333 N LINCOLN AVE 1", 
    "YEAR": 2013, 
    "LONGITUDE": -87.692481579, 
    "LATTITUDE": 41.978707105
  }, 
  {
    "BUSINESS_TYPE": "Mobile Frozen Desserts Dispenser - Non-Motorized", 
    "LEGAL_NAME": "ALBERTA GOODSON", 
    "STATE": "IL", 
    "DOING_BUSINESS_AS_NAME": "BEE'S ICE CREAM", 
    "POP_AT_RISK": 38193, 
    "ZIP": 60637, 
    "ADDRESS": "6324 S EBERHART AVE 1", 
    "YEAR": 2013, 
    "LONGITUDE": -87.613336814, 
    "LATTITUDE": 41.779512994
  }
]