{
{"STATE":"IL","ZIP":60642,"LATTITUDE":41.90128364339324,"ADDRESS":"1072 N MILWAUKEE AVE  ","YEAR":2002,"DOING_BUSINESS_AS_NAME":"THE FRONTIER","POP_AT_RISK":787136,"BUSINESS_TYPE":"Outdoor Patio","LEGAL_NAME":"CHR CORPORATION","LONGITUDE":-87.66348362488465},
{"STATE":"IL","ZIP":60606,"LATTITUDE":41.88670922202607,"ADDRESS":"225 W WACKER DR 1ST ","YEAR":2002,"DOING_BUSINESS_AS_NAME":"CAFFE BACI","POP_AT_RISK":552447,"BUSINESS_TYPE":"Outdoor Patio","LEGAL_NAME":"TUTTO MONDO, INC.","LONGITUDE":-87.6347108994595},
{"STATE":"IL","ZIP":60657,"LATTITUDE":41.93708671022796,"ADDRESS":"3019 N BROADWAY   ","YEAR":2002,"DOING_BUSINESS_AS_NAME":"MONSIGNOR MURPHY'S","POP_AT_RISK":697780,"BUSINESS_TYPE":"Outdoor Patio","LEGAL_NAME":"MONSIGNOR MURPHY'S INC","LONGITUDE":-87.6441543182686},
{"STATE":"IL","ZIP":60660,"LATTITUDE":41.99397270196283,"ADDRESS":"6157 N BROADWAY   ","YEAR":2002,"DOING_BUSINESS_AS_NAME":"THE PUMPING CO INC","POP_AT_RISK":1457700,"BUSINESS_TYPE":"Outdoor Patio","LEGAL_NAME":"THE PUMPING COMPANY, INC","LONGITUDE":-87.66024237516903},
{"STATE":"IL","ZIP":60657,"LATTITUDE":41.939880229590166,"ADDRESS":"1358 W BELMONT AVE  ","YEAR":2002,"DOING_BUSINESS_AS_NAME":"EL PACIFICO","POP_AT_RISK":1704822,"BUSINESS_TYPE":"Outdoor Patio","LEGAL_NAME":"EL PACIFICO ENTERPRISES INC","LONGITUDE":-87.66348524057356},
}