[
  {
    "BUSINESS_TYPE": "Retail Computing Center", 
    "LEGAL_NAME": "SAMILIPRO COMPUTERS INCORPORATED", 
    "STATE": "IL", 
    "DOING_BUSINESS_AS_NAME": "SAMILIPRO COMPUTERS INCORPORATED", 
    "POP_AT_RISK": 42572, 
    "ZIP": 60632, 
    "ADDRESS": "4309 S ARCHER AVE 1ST", 
    "YEAR": 2007, 
    "LONGITUDE": -87.702273175, 
    "LATTITUDE": 41.815159065
  }, 
  {
    "BUSINESS_TYPE": "Retail Computing Center", 
    "LEGAL_NAME": "INTERNET WORLD, INC.", 
    "STATE": "IL", 
    "DOING_BUSINESS_AS_NAME": "LA BELLA CAFE & INTERNET", 
    "POP_AT_RISK": 68645, 
    "ZIP": 60626, 
    "ADDRESS": "6624 N CLARK ST  2", 
    "YEAR": 2007, 
    "LONGITUDE": -87.67227603, 
    "LATTITUDE": 42.002473724
  }, 
  {
    "BUSINESS_TYPE": "Retail Computing Center", 
    "LEGAL_NAME": "SIMS M. THOMAS", 
    "STATE": "IL", 
    "DOING_BUSINESS_AS_NAME": "ONE STOP BROWSING", 
    "POP_AT_RISK": 51268, 
    "ZIP": 60634, 
    "ADDRESS": "6040 W IRVING PARK RD", 
    "YEAR": 2007, 
    "LONGITUDE": -87.778402716, 
    "LATTITUDE": 41.95313498
  }, 
  {
    "BUSINESS_TYPE": "Retail Computing Center", 
    "LEGAL_NAME": "KIDS CONCIERGE INC.", 
    "STATE": "IL", 
    "DOING_BUSINESS_AS_NAME": "KIDS CONCIERGE CYBER LOUNGE", 
    "POP_AT_RISK": 38939, 
    "ZIP": 60615, 
    "ADDRESS": "1459 E 53RD ST 2ND 2WEST", 
    "YEAR": 2007, 
    "LONGITUDE": -87.589479335, 
    "LATTITUDE": 41.79943078
  }, 
  {
    "BUSINESS_TYPE": "Retail Computing Center", 
    "LEGAL_NAME": "CLARK FOOD & CYBER CAFE, INC.", 
    "STATE": "IL", 
    "DOING_BUSINESS_AS_NAME": "CLARK FOOD & CYBER CAFE, INC.", 
    "POP_AT_RISK": 76668, 
    "ZIP": 60640, 
    "ADDRESS": "4401 N CLARK ST 1 1", 
    "YEAR": 2007, 
    "LONGITUDE": -87.665836501, 
    "LATTITUDE": 41.961748076
  }, 
  {
    "BUSINESS_TYPE": "Retail Computing Center", 
    "LEGAL_NAME": "BLUE LINE MEDIA, INC.", 
    "STATE": "IL", 
    "DOING_BUSINESS_AS_NAME": "GOTCHA WIRELESS", 
    "POP_AT_RISK": 47604, 
    "ZIP": 60608, 
    "ADDRESS": "1641 W 18TH ST 1ST FLOOR", 
    "YEAR": 2007, 
    "LONGITUDE": -87.667893985, 
    "LATTITUDE": 41.857657044
  }, 
  {
    "BUSINESS_TYPE": "Retail Computing Center", 
    "LEGAL_NAME": "CHUPICUARO LLC", 
    "STATE": "IL", 
    "DOING_BUSINESS_AS_NAME": "CHUPICUARO CARNICERIA Y FRUTERIA", 
    "POP_AT_RISK": 62067, 
    "ZIP": 60623, 
    "ADDRESS": "3000 S DRAKE AVE 1ST", 
    "YEAR": 2007, 
    "LONGITUDE": -87.713564857, 
    "LATTITUDE": 41.838816062
  }, 
  {
    "BUSINESS_TYPE": "Retail Computing Center", 
    "LEGAL_NAME": "ROCHELLE SMITH", 
    "STATE": "IL", 
    "DOING_BUSINESS_AS_NAME": "R & R COMPUTER SERVICES", 
    "POP_AT_RISK": 25250, 
    "ZIP": 60628, 
    "ADDRESS": "10846 S HALSTED ST", 
    "YEAR": 2007, 
    "LONGITUDE": -87.642654121, 
    "LATTITUDE": 41.696468267
  }, 
  {
    "BUSINESS_TYPE": "Retail Computing Center", 
    "LEGAL_NAME": "MARIA A CARABEZ", 
    "STATE": "IL", 
    "DOING_BUSINESS_AS_NAME": "COMPUTER AND NETWORK SOLUTIONS", 
    "POP_AT_RISK": 59870, 
    "ZIP": 60632, 
    "ADDRESS": "5311 S KEDZIE AVE", 
    "YEAR": 2007, 
    "LONGITUDE": -87.70350236, 
    "LATTITUDE": 41.796780663
  }, 
  {
    "BUSINESS_TYPE": "Retail Computing Center", 
    "LEGAL_NAME": "RESTART, INC", 
    "STATE": "IL", 
    "DOING_BUSINESS_AS_NAME": "RESTART", 
    "POP_AT_RISK": 65958, 
    "ZIP": 60618, 
    "ADDRESS": "3715 W BELMONT AVE", 
    "YEAR": 2007, 
    "LONGITUDE": -87.720344543, 
    "LATTITUDE": 41.939069987
  }, 
  {
    "BUSINESS_TYPE": "Retail Computing Center", 
    "LEGAL_NAME": "JAE S KIM", 
    "STATE": "IL", 
    "DOING_BUSINESS_AS_NAME": "CHICAGO CYBER CAFE", 
    "POP_AT_RISK": 51736, 
    "ZIP": 60659, 
    "ADDRESS": "3220 W BRYN MAWR AVE", 
    "YEAR": 2007, 
    "LONGITUDE": -87.709708634, 
    "LATTITUDE": 41.983171365
  }, 
  {
    "BUSINESS_TYPE": "Retail Computing Center", 
    "LEGAL_NAME": "JOSUE JAIMES", 
    "STATE": "IL", 
    "DOING_BUSINESS_AS_NAME": "JXJ CYBER CAFE", 
    "POP_AT_RISK": 40702, 
    "ZIP": 60632, 
    "ADDRESS": "5220 S PULASKI RD 1 W22", 
    "YEAR": 2007, 
    "LONGITUDE": -87.723443741, 
    "LATTITUDE": 41.79799187
  }, 
  {
    "BUSINESS_TYPE": "Retail Computing Center", 
    "LEGAL_NAME": "BRONZEVILLE CORPORATIUM, INC.", 
    "STATE": "IL", 
    "DOING_BUSINESS_AS_NAME": "BRONZEVILLE CORPORATIUM", 
    "POP_AT_RISK": 31169, 
    "ZIP": 60616, 
    "ADDRESS": "215 E 31ST ST 1", 
    "YEAR": 2007, 
    "LONGITUDE": -87.621233367, 
    "LATTITUDE": 41.838263596
  }, 
  {
    "BUSINESS_TYPE": "Retail Computing Center", 
    "LEGAL_NAME": "INTERNET WORLD, INC.", 
    "STATE": "IL", 
    "DOING_BUSINESS_AS_NAME": "BELLA INTERNET CAFE", 
    "POP_AT_RISK": 47384, 
    "ZIP": 60645, 
    "ADDRESS": "2358 W TOUHY AVE", 
    "YEAR": 2007, 
    "LONGITUDE": -87.689936629, 
    "LATTITUDE": 42.012389417
  }, 
  {
    "BUSINESS_TYPE": "Retail Computing Center", 
    "LEGAL_NAME": "RIGOBERTO  ILLESCAS", 
    "STATE": "IL", 
    "DOING_BUSINESS_AS_NAME": "ECU-MEX TRAVEL EXPRESS", 
    "POP_AT_RISK": 75767, 
    "ZIP": 60639, 
    "ADDRESS": "4236 W FULLERTON AVE 1", 
    "YEAR": 2007, 
    "LONGITUDE": -87.73319141, 
    "LATTITUDE": 41.924517532
  }, 
  {
    "BUSINESS_TYPE": "Retail Computing Center", 
    "LEGAL_NAME": "FEDEX OFFICE AND PRINT SERVICES, INC.", 
    "STATE": "IL", 
    "DOING_BUSINESS_AS_NAME": "FEDEX OFFICE AND PRINT SVCS, INC.", 
    "POP_AT_RISK": 74829, 
    "ZIP": 60610, 
    "ADDRESS": "1201 N DEARBORN ST  1", 
    "YEAR": 2007, 
    "LONGITUDE": -87.629841921, 
    "LATTITUDE": 41.904019547
  }, 
  {
    "BUSINESS_TYPE": "Retail Computing Center", 
    "LEGAL_NAME": "CHICAGO TECHNICAL CENTERS LTD.", 
    "STATE": "IL", 
    "DOING_BUSINESS_AS_NAME": "CHICAGO TECHNICAL CENTERS LTD.", 
    "POP_AT_RISK": 26216, 
    "ZIP": 60632, 
    "ADDRESS": "4616 S PULASKI RD", 
    "YEAR": 2007, 
    "LONGITUDE": -87.723777778, 
    "LATTITUDE": 41.809156487
  }, 
  {
    "BUSINESS_TYPE": "Retail Computing Center", 
    "LEGAL_NAME": "FEDEX OFFICE AND PRINT SERVICES, INC.", 
    "STATE": "IL", 
    "DOING_BUSINESS_AS_NAME": "FEDEX OFFICE #1935", 
    "POP_AT_RISK": 80209, 
    "ZIP": 60614, 
    "ADDRESS": "744 W FULLERTON AVE 1ST 1C", 
    "YEAR": 2007, 
    "LONGITUDE": -87.648110929, 
    "LATTITUDE": 41.925572327
  }, 
  {
    "BUSINESS_TYPE": "Retail Computing Center", 
    "LEGAL_NAME": "DIGITAL ZONE CORPORATION", 
    "STATE": "IL", 
    "DOING_BUSINESS_AS_NAME": "DIGITAL ZONE CORPORATION", 
    "POP_AT_RISK": 38439, 
    "ZIP": 60619, 
    "ADDRESS": "8613 S COTTAGE GROVE AVE", 
    "YEAR": 2007, 
    "LONGITUDE": -87.604717348, 
    "LATTITUDE": 41.73803642
  }, 
  {
    "BUSINESS_TYPE": "Retail Computing Center", 
    "LEGAL_NAME": "MARTIN H HOUSTON", 
    "STATE": "IL", 
    "DOING_BUSINESS_AS_NAME": "HOUSTON & ASSOCIATES COFFEE PLUS", 
    "POP_AT_RISK": 34970, 
    "ZIP": 60628, 
    "ADDRESS": "415 W 119TH ST", 
    "YEAR": 2007, 
    "LONGITUDE": -87.632961684, 
    "LATTITUDE": 41.677802698
  }, 
  {
    "BUSINESS_TYPE": "Retail Computing Center", 
    "LEGAL_NAME": "KIERKEN CORPORATION", 
    "STATE": "IL", 
    "DOING_BUSINESS_AS_NAME": "COMPUTERS BY THE HOUR & COPYING TOO", 
    "POP_AT_RISK": 39464, 
    "ZIP": 60619, 
    "ADDRESS": "358 E 79TH ST 1", 
    "YEAR": 2007, 
    "LONGITUDE": -87.615830187, 
    "LATTITUDE": 41.751211575
  }, 
  {
    "BUSINESS_TYPE": "Retail Computing Center", 
    "LEGAL_NAME": "COMPUTER LOUNGE INC.", 
    "STATE": "IL", 
    "DOING_BUSINESS_AS_NAME": "COMPUTER LOUNGE INC", 
    "POP_AT_RISK": 32608, 
    "ZIP": 60634, 
    "ADDRESS": "7105 W ADDISON ST", 
    "YEAR": 2007, 
    "LONGITUDE": -87.803524842, 
    "LATTITUDE": 41.945221717
  }, 
  {
    "BUSINESS_TYPE": "Retail Computing Center", 
    "LEGAL_NAME": "LUIS T RINCONENO", 
    "STATE": "IL", 
    "DOING_BUSINESS_AS_NAME": "SOUTH SOUNDS / CHICAGO INK", 
    "POP_AT_RISK": 25210, 
    "ZIP": 60617, 
    "ADDRESS": "8832 S COMMERCIAL AVE 1", 
    "YEAR": 2007, 
    "LONGITUDE": -87.551514168, 
    "LATTITUDE": 41.734556954
  }, 
  {
    "BUSINESS_TYPE": "Retail Computing Center", 
    "LEGAL_NAME": "FEDERICO BUCIO", 
    "STATE": "IL", 
    "DOING_BUSINESS_AS_NAME": "CAFE INTERNET LATINO", 
    "POP_AT_RISK": 74185, 
    "ZIP": 60639, 
    "ADDRESS": "4036 W ARMITAGE AVE", 
    "YEAR": 2007, 
    "LONGITUDE": -87.728079345, 
    "LATTITUDE": 41.917255335
  }, 
  {
    "BUSINESS_TYPE": "Retail Computing Center", 
    "LEGAL_NAME": "FEDEX OFFICE AND PRINT SERVICES, INC.", 
    "STATE": "IL", 
    "DOING_BUSINESS_AS_NAME": "FEDEX KINKO'S OFFICE & PRINT SERVICES #3615", 
    "POP_AT_RISK": 48450, 
    "ZIP": 60607, 
    "ADDRESS": "843 W VAN BUREN ST 1ST", 
    "YEAR": 2007, 
    "LONGITUDE": -87.648854833, 
    "LATTITUDE": 41.876538629
  }, 
  {
    "BUSINESS_TYPE": "Retail Computing Center", 
    "LEGAL_NAME": "XYROGENIC COMPUTER CORP.", 
    "STATE": "IL", 
    "DOING_BUSINESS_AS_NAME": "XYROGENIC COMPUTER CORP.", 
    "POP_AT_RISK": 48797, 
    "ZIP": 60634, 
    "ADDRESS": "6444 W BELMONT AVE 1 101A", 
    "YEAR": 2007, 
    "LONGITUDE": -87.787826992, 
    "LATTITUDE": 41.938398156
  }, 
  {
    "BUSINESS_TYPE": "Retail Computing Center", 
    "LEGAL_NAME": "FEDEX OFFICE AND PRINT SERVICES, INC.", 
    "STATE": "IL", 
    "DOING_BUSINESS_AS_NAME": "FEDEX OFFICE AND PRINT SVCS, INC.", 
    "POP_AT_RISK": 36853, 
    "ZIP": 60637, 
    "ADDRESS": "1315 E 57TH ST  1", 
    "YEAR": 2007, 
    "LONGITUDE": -87.594187285, 
    "LATTITUDE": 41.791359581
  }
]