[
  {
    "BUSINESS_TYPE": "Laundry, Late Hour", 
    "LEGAL_NAME": "Y & K LAUNDRY & CLEANERS, INC.", 
    "STATE": "IL", 
    "DOING_BUSINESS_AS_NAME": "Aqua Wash Laundry", 
    "POP_AT_RISK": 33177, 
    "ZIP": 60649, 
    "ADDRESS": "7120-7128 S YATES BLVD", 
    "YEAR": 2014, 
    "LONGITUDE": -87.566651058, 
    "LATTITUDE": 41.765509266
  }, 
  {
    "BUSINESS_TYPE": "Laundry, Late Hour", 
    "LEGAL_NAME": "EVENCIO RAMIREZ", 
    "STATE": "IL", 
    "DOING_BUSINESS_AS_NAME": "RIO BRAVO LAUNDROMAT", 
    "POP_AT_RISK": 58549, 
    "ZIP": 60623, 
    "ADDRESS": "2858 S HOMAN AVE", 
    "YEAR": 2014, 
    "LONGITUDE": -87.709908669, 
    "LATTITUDE": 41.839059712
  }, 
  {
    "BUSINESS_TYPE": "Laundry, Late Hour", 
    "LEGAL_NAME": "SUDZ COIN LAUNDRY, INC.", 
    "STATE": "IL", 
    "DOING_BUSINESS_AS_NAME": "SUDZ COIN LAUNDRY, INC.", 
    "POP_AT_RISK": 40266, 
    "ZIP": 60649, 
    "ADDRESS": "2660 E 79TH ST", 
    "YEAR": 2014, 
    "LONGITUDE": -87.559086946, 
    "LATTITUDE": 41.751937934
  }, 
  {
    "BUSINESS_TYPE": "Laundry, Late Hour", 
    "LEGAL_NAME": "SUDZ ENTERPRISE, INC.", 
    "STATE": "IL", 
    "DOING_BUSINESS_AS_NAME": "QUICK WASH", 
    "POP_AT_RISK": 59083, 
    "ZIP": 60636, 
    "ADDRESS": "6036 S WESTERN AVE 1ST", 
    "YEAR": 2014, 
    "LONGITUDE": -87.683908948, 
    "LATTITUDE": 41.783622212
  }, 
  {
    "BUSINESS_TYPE": "Laundry, Late Hour", 
    "LEGAL_NAME": "J J 43, INC.", 
    "STATE": "IL", 
    "DOING_BUSINESS_AS_NAME": "71ST BEST COIN LAUNDRY", 
    "POP_AT_RISK": 38963, 
    "ZIP": 60636, 
    "ADDRESS": "7110-7114 S WESTERN AVE 1", 
    "YEAR": 2014, 
    "LONGITUDE": -87.683380034, 
    "LATTITUDE": 41.764325166
  }, 
  {
    "BUSINESS_TYPE": "Laundry, Late Hour", 
    "LEGAL_NAME": "THE WASH TUB I INC", 
    "STATE": "IL", 
    "DOING_BUSINESS_AS_NAME": "THE WASH TUB I", 
    "POP_AT_RISK": 69055, 
    "ZIP": 60623, 
    "ADDRESS": "2200 S PULASKI RD 1ST", 
    "YEAR": 2014, 
    "LONGITUDE": -87.724904787, 
    "LATTITUDE": 41.851521442
  }, 
  {
    "BUSINESS_TYPE": "Laundry, Late Hour", 
    "LEGAL_NAME": "SUDZ LAUNDROMAT INC", 
    "STATE": "IL", 
    "DOING_BUSINESS_AS_NAME": "SUDS LAUNDROMAT", 
    "POP_AT_RISK": 60985, 
    "ZIP": 60622, 
    "ADDRESS": "1246-1248 N ASHLAND AVE 1ST", 
    "YEAR": 2014, 
    "LONGITUDE": -87.667675966, 
    "LATTITUDE": 41.904589414
  }, 
  {
    "BUSINESS_TYPE": "Laundry, Late Hour", 
    "LEGAL_NAME": "OSA ENTERPRISE, INC.", 
    "STATE": "IL", 
    "DOING_BUSINESS_AS_NAME": "EL RIO GRANDE", 
    "POP_AT_RISK": 35642, 
    "ZIP": 60609, 
    "ADDRESS": "4400-4406 S ASHLAND AVE 1ST", 
    "YEAR": 2014, 
    "LONGITUDE": -87.665253929, 
    "LATTITUDE": 41.813966327
  }, 
  {
    "BUSINESS_TYPE": "Laundry, Late Hour", 
    "LEGAL_NAME": "LEE & K LAUNDRY, INC.", 
    "STATE": "IL", 
    "DOING_BUSINESS_AS_NAME": "VILLAGE LAUNDRY", 
    "POP_AT_RISK": 56583, 
    "ZIP": 60622, 
    "ADDRESS": "1055 N WESTERN AVE 1ST", 
    "YEAR": 2014, 
    "LONGITUDE": -87.686827961, 
    "LATTITUDE": 41.90103185
  }, 
  {
    "BUSINESS_TYPE": "Laundry, Late Hour", 
    "LEGAL_NAME": "J J 43, INC.", 
    "STATE": "IL", 
    "DOING_BUSINESS_AS_NAME": "CHATHAM COIN LAUNDRY", 
    "POP_AT_RISK": 37593, 
    "ZIP": 60619, 
    "ADDRESS": "716 - 724 E 83RD ST 1", 
    "YEAR": 2014, 
    "LONGITUDE": -87.606723826, 
    "LATTITUDE": 41.744048665
  }, 
  {
    "BUSINESS_TYPE": "Laundry, Late Hour", 
    "LEGAL_NAME": "ALL IN MADISON INC.", 
    "STATE": "IL", 
    "DOING_BUSINESS_AS_NAME": "SPIN CYCLE", 
    "POP_AT_RISK": 33567, 
    "ZIP": 60624, 
    "ADDRESS": "4258 W MADISON ST", 
    "YEAR": 2014, 
    "LONGITUDE": -87.732904633, 
    "LATTITUDE": 41.880750119
  }, 
  {
    "BUSINESS_TYPE": "Laundry, Late Hour", 
    "LEGAL_NAME": "ALEXANDER FLETCHER", 
    "STATE": "IL", 
    "DOING_BUSINESS_AS_NAME": "FLETCHER LAUNDRYWORLD I", 
    "POP_AT_RISK": 26271, 
    "ZIP": 60621, 
    "ADDRESS": "6049 S HALSTED ST", 
    "YEAR": 2014, 
    "LONGITUDE": -87.644735386, 
    "LATTITUDE": 41.783558052
  }, 
  {
    "BUSINESS_TYPE": "Laundry, Late Hour", 
    "LEGAL_NAME": "Illinois Laundry, LLC", 
    "STATE": "IL", 
    "DOING_BUSINESS_AS_NAME": "Bubbleland", 
    "POP_AT_RISK": 47389, 
    "ZIP": 60609, 
    "ADDRESS": "5101 S WESTERN BLVD 1ST", 
    "YEAR": 2014, 
    "LONGITUDE": -87.683524899, 
    "LATTITUDE": 41.801085567
  }, 
  {
    "BUSINESS_TYPE": "Laundry, Late Hour", 
    "LEGAL_NAME": "J & L DEVELOPERS L.L.C.", 
    "STATE": "IL", 
    "DOING_BUSINESS_AS_NAME": "WASH & RELAX LAUNDRY & DELI", 
    "POP_AT_RISK": 40969, 
    "ZIP": 60621, 
    "ADDRESS": "1153-55 W 69TH ST 1ST", 
    "YEAR": 2014, 
    "LONGITUDE": -87.653896207, 
    "LATTITUDE": 41.768589705
  }, 
  {
    "BUSINESS_TYPE": "Laundry, Late Hour", 
    "LEGAL_NAME": "TRKAM LLC", 
    "STATE": "IL", 
    "DOING_BUSINESS_AS_NAME": "QUIK WASH #5", 
    "POP_AT_RISK": 39265, 
    "ZIP": 60609, 
    "ADDRESS": "1356 W 47TH ST", 
    "YEAR": 2014, 
    "LONGITUDE": -87.659956857, 
    "LATTITUDE": 41.808780247
  }, 
  {
    "BUSINESS_TYPE": "Laundry, Late Hour", 
    "LEGAL_NAME": "O & B ENTERPRISE, INC.", 
    "STATE": "IL", 
    "DOING_BUSINESS_AS_NAME": "SOAP OPERA", 
    "POP_AT_RISK": 33545, 
    "ZIP": 60612, 
    "ADDRESS": "100 N KEDZIE AVE", 
    "YEAR": 2014, 
    "LONGITUDE": -87.706318214, 
    "LATTITUDE": 41.882832314
  }, 
  {
    "BUSINESS_TYPE": "Laundry, Late Hour", 
    "LEGAL_NAME": "ALEXANDER FLETCHER", 
    "STATE": "IL", 
    "DOING_BUSINESS_AS_NAME": "FLETCHER LAUNDRYWORLD II", 
    "POP_AT_RISK": 35021, 
    "ZIP": 60619, 
    "ADDRESS": "1346 E 75TH ST", 
    "YEAR": 2014, 
    "LONGITUDE": -87.591366127, 
    "LATTITUDE": 41.758827894
  }
]