[
{"STATE":"IL","ZIP":60625,"LATTITUDE":41.978707104958744,"ADDRESS":"5333 N LINCOLN AVE 1 ","YEAR":2012,"DOING_BUSINESS_AS_NAME":"ANDREANA LLC","POP_AT_RISK":222645,"BUSINESS_TYPE":"Mobile Frozen Desserts Dispenser - Non-Motorized","LEGAL_NAME":"ANDREANA LLC","LONGITUDE":-87.69248157921781},
{"STATE":"IL","ZIP":60612,"LATTITUDE":41.88743405025222,"ADDRESS":"324 N LEAVITT ST 1 1","YEAR":2012,"DOING_BUSINESS_AS_NAME":"CHISCREAM","POP_AT_RISK":630564,"BUSINESS_TYPE":"Mobile Frozen Desserts Dispenser - Non-Motorized","LEGAL_NAME":"MARJONES, LLC","LONGITUDE":-87.68184949426895},
{"STATE":"IL","ZIP":60617,"LATTITUDE":41.70630204741836,"ADDRESS":"10400 S AVENUE L   ","YEAR":2012,"DOING_BUSINESS_AS_NAME":"ISAI F. PAGAZA","POP_AT_RISK":109765,"BUSINESS_TYPE":"Mobile Frozen Desserts Dispenser - Non-Motorized","LEGAL_NAME":"ISAI F. PAGAZA","LONGITUDE":-87.5366401357901},
{"STATE":"IL","ZIP":60637,"LATTITUDE":41.77951299434515,"ADDRESS":"6324 S EBERHART AVE 1 ","YEAR":2012,"DOING_BUSINESS_AS_NAME":"BEE'S ICE CREAM","POP_AT_RISK":638571,"BUSINESS_TYPE":"Mobile Frozen Desserts Dispenser - Non-Motorized","LEGAL_NAME":"ALBERTA GOODSON","LONGITUDE":-87.613336813933},
{"STATE":"IL","ZIP":60620,"LATTITUDE":41.74784955544534,"ADDRESS":"8026 S RACINE AVE  ","YEAR":2012,"DOING_BUSINESS_AS_NAME":"DUJUAN A MORGAN, SR.","POP_AT_RISK":738705,"BUSINESS_TYPE":"Mobile Frozen Desserts Dispenser - Non-Motorized","LEGAL_NAME":"DUJUAN A MORGAN, SR.","LONGITUDE":-87.65381275340782},
{"STATE":"IL","ZIP":60644,"LATTITUDE":41.86923620697448,"ADDRESS":"4825 W ARTHINGTON ST 1 ","YEAR":2012,"DOING_BUSINESS_AS_NAME":"Catered Goods","POP_AT_RISK":439164,"BUSINESS_TYPE":"Mobile Frozen Desserts Dispenser - Non-Motorized","LEGAL_NAME":"LaTondria K Glasper-Pickett","LONGITUDE":-87.74589271238392},
{}]