[
  {
    "BUSINESS_TYPE": "Valet Parking Operator", 
    "LEGAL_NAME": "FIRST CLASS VALET, INC.", 
    "STATE": "IL", 
    "DOING_BUSINESS_AS_NAME": "FIRST CLASS VALET, INC.", 
    "POP_AT_RISK": 20644, 
    "ZIP": 60617, 
    "ADDRESS": "2320 E 93RD ST", 
    "YEAR": 2017, 
    "LONGITUDE": -87.567270908, 
    "LATTITUDE": 41.726329231
  }, 
  {
    "BUSINESS_TYPE": "Valet Parking Operator", 
    "LEGAL_NAME": "MIDWEST VALET, INC.", 
    "STATE": "IL", 
    "DOING_BUSINESS_AS_NAME": "MIDWEST VALET", 
    "POP_AT_RISK": 59593, 
    "ZIP": 60618, 
    "ADDRESS": "3123 N CLYBOURN AVE", 
    "YEAR": 2017, 
    "LONGITUDE": -87.686204472, 
    "LATTITUDE": 41.93827782
  }, 
  {
    "BUSINESS_TYPE": "Valet Parking Operator", 
    "LEGAL_NAME": "CONTRAST PARKING, LLC", 
    "STATE": "IL", 
    "DOING_BUSINESS_AS_NAME": "CONTRAST PARKING", 
    "POP_AT_RISK": 53961, 
    "ZIP": 60626, 
    "ADDRESS": "1209 W ALBION AVE", 
    "YEAR": 2017, 
    "LONGITUDE": -87.661191152, 
    "LATTITUDE": 42.002437643
  }, 
  {
    "BUSINESS_TYPE": "Valet Parking Operator", 
    "LEGAL_NAME": "ABC PARKING CORP.", 
    "STATE": "IL", 
    "DOING_BUSINESS_AS_NAME": "ABC PARKING", 
    "POP_AT_RISK": 41088, 
    "ZIP": 60608, 
    "ADDRESS": "1800-1802 S CARPENTER ST", 
    "YEAR": 2017, 
    "LONGITUDE": -87.653357735, 
    "LATTITUDE": 41.857963127
  }, 
  {
    "BUSINESS_TYPE": "Valet Parking Operator", 
    "LEGAL_NAME": "ADVANTAGE VALET PARKING, INC.", 
    "STATE": "IL", 
    "DOING_BUSINESS_AS_NAME": "ADVANTAGE VALET INC/  ST. ANTHONY'S HOSPITAL", 
    "POP_AT_RISK": 50982, 
    "ZIP": 60623, 
    "ADDRESS": "2875 W 19TH ST", 
    "YEAR": 2017, 
    "LONGITUDE": -87.698707545, 
    "LATTITUDE": 41.855402894
  }, 
  {
    "BUSINESS_TYPE": "Valet Parking Operator", 
    "LEGAL_NAME": "RIVER NORTH PARKING INC.", 
    "STATE": "IL", 
    "DOING_BUSINESS_AS_NAME": "RIVER NORTH PARKING/ COCO RESTAURANT", 
    "POP_AT_RISK": 56846, 
    "ZIP": 60622, 
    "ADDRESS": "2723 W DIVISION ST", 
    "YEAR": 2017, 
    "LONGITUDE": -87.695378052, 
    "LATTITUDE": 41.902828503
  }, 
  {
    "BUSINESS_TYPE": "Valet Parking Operator", 
    "LEGAL_NAME": "LAZ PARKING CHICAGO, LLC", 
    "STATE": "IL", 
    "DOING_BUSINESS_AS_NAME": "LAZ PARKING", 
    "POP_AT_RISK": 38939, 
    "ZIP": 60615, 
    "ADDRESS": "5235 S HARPER AVE 1-4", 
    "YEAR": 2017, 
    "LONGITUDE": -87.588954038, 
    "LATTITUDE": 41.799925684
  }, 
  {
    "BUSINESS_TYPE": "Valet Parking Operator", 
    "LEGAL_NAME": "SELECT PARKING INC", 
    "STATE": "IL", 
    "DOING_BUSINESS_AS_NAME": "SELECT PARKING INC", 
    "POP_AT_RISK": 65272, 
    "ZIP": 60623, 
    "ADDRESS": "2501 S KEDZIE AVE", 
    "YEAR": 2017, 
    "LONGITUDE": -87.704945372, 
    "LATTITUDE": 41.846245644
  }, 
  {
    "BUSINESS_TYPE": "Valet Parking Operator", 
    "LEGAL_NAME": "V.I.P. VALET SERVICES, INC.", 
    "STATE": "IL", 
    "DOING_BUSINESS_AS_NAME": "V.I.P. VALET SERVICES INC.", 
    "POP_AT_RISK": 54038, 
    "ZIP": 60626, 
    "ADDRESS": "1330 W MORSE AVE", 
    "YEAR": 2017, 
    "LONGITUDE": -87.664973924, 
    "LATTITUDE": 42.008035999
  }, 
  {
    "BUSINESS_TYPE": "Valet Parking Operator", 
    "LEGAL_NAME": "VALET CHICAGO PARKING INC.", 
    "STATE": "IL", 
    "DOING_BUSINESS_AS_NAME": "VALET CHICAGO PARKING INC.", 
    "POP_AT_RISK": 36274, 
    "ZIP": 60612, 
    "ADDRESS": "1659 W OGDEN AVE", 
    "YEAR": 2017, 
    "LONGITUDE": -87.668312382, 
    "LATTITUDE": 41.879430511
  }, 
  {
    "BUSINESS_TYPE": "Valet Parking Operator", 
    "LEGAL_NAME": "FIVE STAR VALET CORP.", 
    "STATE": "IL", 
    "DOING_BUSINESS_AS_NAME": "FIVE STAR VALET CORP.", 
    "POP_AT_RISK": 40277, 
    "ZIP": 60615, 
    "ADDRESS": "1364 E 53RD ST", 
    "YEAR": 2017, 
    "LONGITUDE": -87.592695408, 
    "LATTITUDE": 41.799608974
  }, 
  {
    "BUSINESS_TYPE": "Valet Parking Operator", 
    "LEGAL_NAME": "SHAY'S VALET PARKING, INC.", 
    "STATE": "IL", 
    "DOING_BUSINESS_AS_NAME": "SHAY'S VALET PARKING, INC.", 
    "POP_AT_RISK": 70926, 
    "ZIP": 60640, 
    "ADDRESS": "4810 N BROADWAY", 
    "YEAR": 2017, 
    "LONGITUDE": -87.659826569, 
    "LATTITUDE": 41.969357482
  }, 
  {
    "BUSINESS_TYPE": "Valet Parking Operator", 
    "LEGAL_NAME": "VETPRIDE SERVICES, INC.", 
    "STATE": "IL", 
    "DOING_BUSINESS_AS_NAME": "VETPRIDE SERVICES, INC.", 
    "POP_AT_RISK": 27045, 
    "ZIP": 60612, 
    "ADDRESS": "820 S DAMEN AVE", 
    "YEAR": 2017, 
    "LONGITUDE": -87.67651265, 
    "LATTITUDE": 41.870889496
  }, 
  {
    "BUSINESS_TYPE": "Valet Parking Operator", 
    "LEGAL_NAME": "SP PLUS CORPORATION", 
    "STATE": "IL", 
    "DOING_BUSINESS_AS_NAME": "SP PLUS CORPORATION", 
    "POP_AT_RISK": 35622, 
    "ZIP": 60616, 
    "ADDRESS": "2233 S DR MARTIN LUTHER KING JR DR", 
    "YEAR": 2017, 
    "LONGITUDE": -87.618850804, 
    "LATTITUDE": 41.852075574
  }, 
  {
    "BUSINESS_TYPE": "Valet Parking Operator", 
    "LEGAL_NAME": "P.V.M. LLC", 
    "STATE": "IL", 
    "DOING_BUSINESS_AS_NAME": "P.V.M. LLC/ RESURRECTION MEDICAL CENTER", 
    "POP_AT_RISK": 21744, 
    "ZIP": 60631, 
    "ADDRESS": "7435 W TALCOTT AVE", 
    "YEAR": 2017, 
    "LONGITUDE": -87.812977912, 
    "LATTITUDE": 41.988575183
  }, 
  {
    "BUSINESS_TYPE": "Valet Parking Operator", 
    "LEGAL_NAME": "PREMIER VALET LLC", 
    "STATE": "IL", 
    "DOING_BUSINESS_AS_NAME": "PREMIER VALET LLC", 
    "POP_AT_RISK": 79857, 
    "ZIP": 60647, 
    "ADDRESS": "2408 N KEDZIE BLVD", 
    "YEAR": 2017, 
    "LONGITUDE": -87.70737521, 
    "LATTITUDE": 41.925066449
  }, 
  {
    "BUSINESS_TYPE": "Valet Parking Operator", 
    "LEGAL_NAME": "PREFER VALET PARKING SERVICE, INC.", 
    "STATE": "IL", 
    "DOING_BUSINESS_AS_NAME": "PREFER VALET PARKING SERVICE, INC.", 
    "POP_AT_RISK": 8687, 
    "ZIP": 60628, 
    "ADDRESS": "12054 S DOTY AVE", 
    "YEAR": 2017, 
    "LONGITUDE": -87.601683005, 
    "LATTITUDE": 41.674788301
  }
]