[
  {
    "BUSINESS_TYPE": "Retail Computing Center", 
    "LEGAL_NAME": "NH CHICAGO, LLC", 
    "STATE": "IL", 
    "DOING_BUSINESS_AS_NAME": "NH CHICAGO LLC", 
    "POP_AT_RISK": 19154, 
    "ZIP": 60631, 
    "ADDRESS": "8550 W BRYN MAWR AVE 400", 
    "YEAR": 2012, 
    "LONGITUDE": -87.841087375, 
    "LATTITUDE": 41.981143964
  }, 
  {
    "BUSINESS_TYPE": "Retail Computing Center", 
    "LEGAL_NAME": "DCW TECH MECHS LLC", 
    "STATE": "IL", 
    "DOING_BUSINESS_AS_NAME": "DCW TECHNICAL MECHANICS", 
    "POP_AT_RISK": 21672, 
    "ZIP": 60643, 
    "ADDRESS": "10931 S WESTERN AVE 1ST", 
    "YEAR": 2012, 
    "LONGITUDE": -87.681094947, 
    "LATTITUDE": 41.694458543
  }, 
  {
    "BUSINESS_TYPE": "Retail Computing Center", 
    "LEGAL_NAME": "BITS N BYTEZ, LTD.", 
    "STATE": "IL", 
    "DOING_BUSINESS_AS_NAME": "BITS N BYTEZ, LTD.", 
    "POP_AT_RISK": 33821, 
    "ZIP": 60632, 
    "ADDRESS": "5078 S ARCHER AVE 1ST", 
    "YEAR": 2012, 
    "LONGITUDE": -87.727920134, 
    "LATTITUDE": 41.801114148
  }, 
  {
    "BUSINESS_TYPE": "Retail Computing Center", 
    "LEGAL_NAME": "FEDEX OFFICE AND PRINT SERVICES, INC.", 
    "STATE": "IL", 
    "DOING_BUSINESS_AS_NAME": "FEDEX OFFICE AND PRINT SVCS, INC.", 
    "POP_AT_RISK": 48612, 
    "ZIP": 60661, 
    "ADDRESS": "608 W LAKE ST", 
    "YEAR": 2012, 
    "LONGITUDE": -87.643199942, 
    "LATTITUDE": 41.885814492
  }, 
  {
    "BUSINESS_TYPE": "Retail Computing Center", 
    "LEGAL_NAME": "INDIO IMPORT & EXPORT CORPORATION", 
    "STATE": "IL", 
    "DOING_BUSINESS_AS_NAME": "ENVIOS XPRESS AND SERVICES", 
    "POP_AT_RISK": 71374, 
    "ZIP": 60629, 
    "ADDRESS": "3201 W 59TH ST", 
    "YEAR": 2012, 
    "LONGITUDE": -87.703407041, 
    "LATTITUDE": 41.786137818
  }, 
  {
    "BUSINESS_TYPE": "Retail Computing Center", 
    "LEGAL_NAME": "MATHER LIFEWAYS COMMUNITY INITIATIVES", 
    "STATE": "IL", 
    "DOING_BUSINESS_AS_NAME": "MATHER'S MORE THAN A CAFE", 
    "POP_AT_RISK": 28988, 
    "ZIP": 60619, 
    "ADDRESS": "33 E 83RD ST 1ST", 
    "YEAR": 2012, 
    "LONGITUDE": -87.622955366, 
    "LATTITUDE": 41.74356768
  }, 
  {
    "BUSINESS_TYPE": "Retail Computing Center", 
    "LEGAL_NAME": "ZAI CARGO, INC.", 
    "STATE": "IL", 
    "DOING_BUSINESS_AS_NAME": "ZAI CARGO, INC.", 
    "POP_AT_RISK": 71070, 
    "ZIP": 60613, 
    "ADDRESS": "1924 W MONTROSE AVE 1", 
    "YEAR": 2012, 
    "LONGITUDE": -87.677081979, 
    "LATTITUDE": 41.961588677
  }, 
  {
    "BUSINESS_TYPE": "Retail Computing Center", 
    "LEGAL_NAME": "ADEL NASSAR", 
    "STATE": "IL", 
    "DOING_BUSINESS_AS_NAME": "COMP-NET SOLUTIONS", 
    "POP_AT_RISK": 30396, 
    "ZIP": 60609, 
    "ADDRESS": "3543 S ARCHER AVE 1", 
    "YEAR": 2012, 
    "LONGITUDE": -87.678768812, 
    "LATTITUDE": 41.82956111
  }, 
  {
    "BUSINESS_TYPE": "Retail Computing Center", 
    "LEGAL_NAME": "CYBERK COMPUTEK INC.", 
    "STATE": "IL", 
    "DOING_BUSINESS_AS_NAME": "CYBERK COMPUTEK INC.", 
    "POP_AT_RISK": 53653, 
    "ZIP": 60632, 
    "ADDRESS": "3982 S ARCHER AVE 1", 
    "YEAR": 2012, 
    "LONGITUDE": -87.692649685, 
    "LATTITUDE": 41.821344318
  }, 
  {
    "BUSINESS_TYPE": "Retail Computing Center", 
    "LEGAL_NAME": "OFFICE MART INC.", 
    "STATE": "IL", 
    "DOING_BUSINESS_AS_NAME": "OFFICE MART", 
    "POP_AT_RISK": 31938, 
    "ZIP": 60645, 
    "ADDRESS": "2801 W TOUHY AVE", 
    "YEAR": 2012, 
    "LONGITUDE": -87.699830232, 
    "LATTITUDE": 42.011953888
  }, 
  {
    "BUSINESS_TYPE": "Retail Computing Center", 
    "LEGAL_NAME": "MATHER LIFEWAYS COMMUNITY INITIATIVES", 
    "STATE": "IL", 
    "DOING_BUSINESS_AS_NAME": "MATHER'S MORE THAN A CAFE", 
    "POP_AT_RISK": 24680, 
    "ZIP": 60656, 
    "ADDRESS": "7134 W HIGGINS AVE 1ST", 
    "YEAR": 2012, 
    "LONGITUDE": -87.805905466, 
    "LATTITUDE": 41.981000342
  }, 
  {
    "BUSINESS_TYPE": "Retail Computing Center", 
    "LEGAL_NAME": "DJW INFORMATION SERVICE INC", 
    "STATE": "IL", 
    "DOING_BUSINESS_AS_NAME": "DJW INFORMATION SERVICE INC", 
    "POP_AT_RISK": 40038, 
    "ZIP": 60649, 
    "ADDRESS": "1723 E 71ST ST", 
    "YEAR": 2012, 
    "LONGITUDE": -87.582674956, 
    "LATTITUDE": 41.765904109
  }, 
  {
    "BUSINESS_TYPE": "Retail Computing Center", 
    "LEGAL_NAME": "WORLD CONNECT, INC", 
    "STATE": "IL", 
    "DOING_BUSINESS_AS_NAME": "THE NEW STAR", 
    "POP_AT_RISK": 71359, 
    "ZIP": 60659, 
    "ADDRESS": "2425 W DEVON AVE 1 B", 
    "YEAR": 2012, 
    "LONGITUDE": -87.690956121, 
    "LATTITUDE": 41.997601949
  }, 
  {
    "BUSINESS_TYPE": "Retail Computing Center", 
    "LEGAL_NAME": "JEONG S KIM", 
    "STATE": "IL", 
    "DOING_BUSINESS_AS_NAME": "COPY MAX", 
    "POP_AT_RISK": 53529, 
    "ZIP": 60622, 
    "ADDRESS": "1321 N MILWAUKEE AVE 1ST", 
    "YEAR": 2012, 
    "LONGITUDE": -87.67014703, 
    "LATTITUDE": 41.905843325
  }, 
  {
    "BUSINESS_TYPE": "Retail Computing Center", 
    "LEGAL_NAME": "SUPERATEC, INC.", 
    "STATE": "IL", 
    "DOING_BUSINESS_AS_NAME": "SUPERATEC", 
    "POP_AT_RISK": 68079, 
    "ZIP": 60639, 
    "ADDRESS": "5649 W FULLERTON AVE 1ST 1", 
    "YEAR": 2012, 
    "LONGITUDE": -87.767966751, 
    "LATTITUDE": 41.923840384
  }, 
  {
    "BUSINESS_TYPE": "Retail Computing Center", 
    "LEGAL_NAME": "FEDEX OFFICE AND PRINT SERVICES, INC.", 
    "STATE": "IL", 
    "DOING_BUSINESS_AS_NAME": "FEDEX OFFICE AND PRINT SVCS, INC.", 
    "POP_AT_RISK": 74829, 
    "ZIP": 60610, 
    "ADDRESS": "1201 N DEARBORN ST  1", 
    "YEAR": 2012, 
    "LONGITUDE": -87.629841921, 
    "LATTITUDE": 41.904019547
  }, 
  {
    "BUSINESS_TYPE": "Retail Computing Center", 
    "LEGAL_NAME": "KHALIF ALI ADEN", 
    "STATE": "IL", 
    "DOING_BUSINESS_AS_NAME": "GOGOL CO", 
    "POP_AT_RISK": 79728, 
    "ZIP": 60610, 
    "ADDRESS": "858 N ORLEANS ST 1ST A21", 
    "YEAR": 2012, 
    "LONGITUDE": -87.637380154, 
    "LATTITUDE": 41.898198097
  }, 
  {
    "BUSINESS_TYPE": "Retail Computing Center", 
    "LEGAL_NAME": "J. PINEDA, INC.", 
    "STATE": "IL", 
    "DOING_BUSINESS_AS_NAME": "PASTELERIA EL NUEVO MUNDO", 
    "POP_AT_RISK": 54952, 
    "ZIP": 60629, 
    "ADDRESS": "3950-3952 W 63RD ST 1 1", 
    "YEAR": 2012, 
    "LONGITUDE": -87.722335812, 
    "LATTITUDE": 41.778772541
  }, 
  {
    "BUSINESS_TYPE": "Retail Computing Center", 
    "LEGAL_NAME": "VICTOR VIDAL AND JUANA MORATO", 
    "STATE": "IL", 
    "DOING_BUSINESS_AS_NAME": "V & J AMERICA MULTISERVICES", 
    "POP_AT_RISK": 57728, 
    "ZIP": 60639, 
    "ADDRESS": "4420 W ARMITAGE AVE 1ST", 
    "YEAR": 2012, 
    "LONGITUDE": -87.73731122, 
    "LATTITUDE": 41.917143136
  }, 
  {
    "BUSINESS_TYPE": "Retail Computing Center", 
    "LEGAL_NAME": "BRONZEVILLE CORPORATIUM, INC.", 
    "STATE": "IL", 
    "DOING_BUSINESS_AS_NAME": "BRONZEVILLE CORPORATIUM", 
    "POP_AT_RISK": 31169, 
    "ZIP": 60616, 
    "ADDRESS": "215 E 31ST ST 1", 
    "YEAR": 2012, 
    "LONGITUDE": -87.621233367, 
    "LATTITUDE": 41.838263596
  }, 
  {
    "BUSINESS_TYPE": "Retail Computing Center", 
    "LEGAL_NAME": "MARIA DE LA LUZ ANAYA-ZAMORA", 
    "STATE": "IL", 
    "DOING_BUSINESS_AS_NAME": "INTERNET CITY", 
    "POP_AT_RISK": 36943, 
    "ZIP": 60609, 
    "ADDRESS": "1710 W 48TH ST 1ST", 
    "YEAR": 2012, 
    "LONGITUDE": -87.667870782, 
    "LATTITUDE": 41.806862703
  }, 
  {
    "BUSINESS_TYPE": "Retail Computing Center", 
    "LEGAL_NAME": "FEDEX OFFICE AND PRINT SERVICES, INC.", 
    "STATE": "IL", 
    "DOING_BUSINESS_AS_NAME": "FEDEX OFFICE #1935", 
    "POP_AT_RISK": 80209, 
    "ZIP": 60614, 
    "ADDRESS": "744 W FULLERTON AVE 1ST 1C", 
    "YEAR": 2012, 
    "LONGITUDE": -87.648110929, 
    "LATTITUDE": 41.925572327
  }, 
  {
    "BUSINESS_TYPE": "Retail Computing Center", 
    "LEGAL_NAME": "DEKACHE BODY WORK'S CORP.", 
    "STATE": "IL", 
    "DOING_BUSINESS_AS_NAME": "DEKACHE BODY WORK'S", 
    "POP_AT_RISK": 20340, 
    "ZIP": 60609, 
    "ADDRESS": "4100 S ASHLAND AVE INSIDE 333&334", 
    "YEAR": 2012, 
    "LONGITUDE": -87.665375545, 
    "LATTITUDE": 41.819441426
  }, 
  {
    "BUSINESS_TYPE": "Retail Computing Center", 
    "LEGAL_NAME": "KIERKEN CORPORATION", 
    "STATE": "IL", 
    "DOING_BUSINESS_AS_NAME": "COMPUTERS BY THE HOUR & COPYING TOO", 
    "POP_AT_RISK": 39464, 
    "ZIP": 60619, 
    "ADDRESS": "358 E 79TH ST 1", 
    "YEAR": 2012, 
    "LONGITUDE": -87.615830187, 
    "LATTITUDE": 41.751211575
  }, 
  {
    "BUSINESS_TYPE": "Retail Computing Center", 
    "LEGAL_NAME": "FUTUREWORLD NFP", 
    "STATE": "IL", 
    "DOING_BUSINESS_AS_NAME": "FUTUREWORLD", 
    "POP_AT_RISK": 29206, 
    "ZIP": 60615, 
    "ADDRESS": "1744 E 55TH ST", 
    "YEAR": 2012, 
    "LONGITUDE": -87.582220608, 
    "LATTITUDE": 41.795356009
  }, 
  {
    "BUSINESS_TYPE": "Retail Computing Center", 
    "LEGAL_NAME": "COMPUTERWOW, INC.", 
    "STATE": "IL", 
    "DOING_BUSINESS_AS_NAME": "COMPUTERWOW, INC.", 
    "POP_AT_RISK": 65921, 
    "ZIP": 60623, 
    "ADDRESS": "2700 S RIDGEWAY AVE 1ST", 
    "YEAR": 2012, 
    "LONGITUDE": -87.718550524, 
    "LATTITUDE": 41.84240395
  }, 
  {
    "BUSINESS_TYPE": "Retail Computing Center", 
    "LEGAL_NAME": "DEKACHE BODY WORK'S CORP.", 
    "STATE": "IL", 
    "DOING_BUSINESS_AS_NAME": "DEKACHE BODY WORK'S CORP.", 
    "POP_AT_RISK": 41950, 
    "ZIP": 60608, 
    "ADDRESS": "1819 W CERMAK RD 1", 
    "YEAR": 2012, 
    "LONGITUDE": -87.67174259, 
    "LATTITUDE": 41.85212642
  }, 
  {
    "BUSINESS_TYPE": "Retail Computing Center", 
    "LEGAL_NAME": "EDISON S. CUZCO", 
    "STATE": "IL", 
    "DOING_BUSINESS_AS_NAME": "ECUANET", 
    "POP_AT_RISK": 75887, 
    "ZIP": 60647, 
    "ADDRESS": "3401 W ARMITAGE AVE 1ST", 
    "YEAR": 2012, 
    "LONGITUDE": -87.711983389, 
    "LATTITUDE": 41.917231488
  }, 
  {
    "BUSINESS_TYPE": "Retail Computing Center", 
    "LEGAL_NAME": "ACADEMIA DCITELLY NORTH CHICAGO", 
    "STATE": "IL", 
    "DOING_BUSINESS_AS_NAME": "ACADEMIA DCITELLY", 
    "POP_AT_RISK": 55383, 
    "ZIP": 60641, 
    "ADDRESS": "5024 W IRVING PARK RD 1ST", 
    "YEAR": 2012, 
    "LONGITUDE": -87.753248591, 
    "LATTITUDE": 41.953454847
  }, 
  {
    "BUSINESS_TYPE": "Retail Computing Center", 
    "LEGAL_NAME": "SUPERATEC, INC.", 
    "STATE": "IL", 
    "DOING_BUSINESS_AS_NAME": "SUPERATEC", 
    "POP_AT_RISK": 17199, 
    "ZIP": 60632, 
    "ADDRESS": "4440 S PULASKI RD 1 1", 
    "YEAR": 2012, 
    "LONGITUDE": -87.723888842, 
    "LATTITUDE": 41.812138755
  }, 
  {
    "BUSINESS_TYPE": "Retail Computing Center", 
    "LEGAL_NAME": "JOSE M. CASTILLO", 
    "STATE": "IL", 
    "DOING_BUSINESS_AS_NAME": "ANTHONY'S DOLLAR AND MORE", 
    "POP_AT_RISK": 74727, 
    "ZIP": 60623, 
    "ADDRESS": "3535-3537 W CERMAK RD 1ST", 
    "YEAR": 2012, 
    "LONGITUDE": -87.713835343, 
    "LATTITUDE": 41.851565678
  }, 
  {
    "BUSINESS_TYPE": "Retail Computing Center", 
    "LEGAL_NAME": "DAVID A WEATHERSTON", 
    "STATE": "IL", 
    "DOING_BUSINESS_AS_NAME": "ANGEL'S TECH", 
    "POP_AT_RISK": 38126, 
    "ZIP": 60634, 
    "ADDRESS": "3134 N HARLEM AVE 1ST", 
    "YEAR": 2012, 
    "LONGITUDE": -87.806874831, 
    "LATTITUDE": 41.937404051
  }, 
  {
    "BUSINESS_TYPE": "Retail Computing Center", 
    "LEGAL_NAME": "JUNGLE GYM FITNESS CORPORATION", 
    "STATE": "IL", 
    "DOING_BUSINESS_AS_NAME": "CHEETAH GYM", 
    "POP_AT_RISK": 64542, 
    "ZIP": 60622, 
    "ADDRESS": "1934 - 1942 W NORTH AVE", 
    "YEAR": 2012, 
    "LONGITUDE": -87.676339175, 
    "LATTITUDE": 41.910614441
  }, 
  {
    "BUSINESS_TYPE": "Retail Computing Center", 
    "LEGAL_NAME": "FEDEX OFFICE AND PRINT SERVICES, INC.", 
    "STATE": "IL", 
    "DOING_BUSINESS_AS_NAME": "FEDEX OFFICE AND PRINT SVCS, INC.", 
    "POP_AT_RISK": 36853, 
    "ZIP": 60637, 
    "ADDRESS": "1315 E 57TH ST  1", 
    "YEAR": 2012, 
    "LONGITUDE": -87.594187285, 
    "LATTITUDE": 41.791359581
  }
]