[
  {
    "BUSINESS_TYPE": "Day Care Center 2 - 6 Years", 
    "LEGAL_NAME": "THE CATHOLIC CHARITIES OF THE ARCHDIOCESE OF CHICAGO", 
    "STATE": "IL", 
    "DOING_BUSINESS_AS_NAME": "OUR LADY OF GUADALUPE HEADSRT.", 
    "POP_AT_RISK": 19777, 
    "ZIP": 60617, 
    "ADDRESS": "9129 S BURLEY AVE  1ST F", 
    "YEAR": 2005, 
    "LONGITUDE": -87.545490119, 
    "LATTITUDE": 41.729228294
  }, 
  {
    "BUSINESS_TYPE": "Day Care Center 2 - 6 Years", 
    "LEGAL_NAME": "LITTLE LEARNERS DAYCARE INCORPORATED", 
    "STATE": "IL", 
    "DOING_BUSINESS_AS_NAME": "LITTLE LEARNERS DAYCARE", 
    "POP_AT_RISK": 18938, 
    "ZIP": 60638, 
    "ADDRESS": "5923 W 63RD ST 1ST", 
    "YEAR": 2005, 
    "LONGITUDE": -87.769972577, 
    "LATTITUDE": 41.777782013
  }, 
  {
    "BUSINESS_TYPE": "Day Care Center 2 - 6 Years", 
    "LEGAL_NAME": "PRESENCE CHICAGO HOSPITALS NETWORK", 
    "STATE": "IL", 
    "DOING_BUSINESS_AS_NAME": "PRESENCE RESURRECTION MEDICAL CENTER", 
    "POP_AT_RISK": 21744, 
    "ZIP": 60631, 
    "ADDRESS": "7435 W TALCOTT AVE", 
    "YEAR": 2005, 
    "LONGITUDE": -87.812977912, 
    "LATTITUDE": 41.988575183
  }, 
  {
    "BUSINESS_TYPE": "Day Care Center 2 - 6 Years", 
    "LEGAL_NAME": "CHILDREN'S CAMPUS, INC.", 
    "STATE": "IL", 
    "DOING_BUSINESS_AS_NAME": "CHILDREN CAMPUS INC", 
    "POP_AT_RISK": 15272, 
    "ZIP": 60631, 
    "ADDRESS": "7250 W TOUHY AVE", 
    "YEAR": 2005, 
    "LONGITUDE": -87.808643543, 
    "LATTITUDE": 42.011776153
  }, 
  {
    "BUSINESS_TYPE": "Day Care Center 2 - 6 Years", 
    "LEGAL_NAME": "HULL HOUSE  ASSOCIATION", 
    "STATE": "IL", 
    "DOING_BUSINESS_AS_NAME": "LE CLAIRE HEADSTART CENTER", 
    "POP_AT_RISK": 9840, 
    "ZIP": 60638, 
    "ADDRESS": "4410 S LAPORTE AVE", 
    "YEAR": 2005, 
    "LONGITUDE": -87.747211174, 
    "LATTITUDE": 41.812595077
  }, 
  {
    "BUSINESS_TYPE": "Day Care Center 2 - 6 Years", 
    "LEGAL_NAME": "THE CATHOLIC CHARITIES OF THE ARCHDIOCESE OF CHICAGO", 
    "STATE": "IL", 
    "DOING_BUSINESS_AS_NAME": "OUR LADY OF TEPEYAC HEADSTART", 
    "POP_AT_RISK": 69707, 
    "ZIP": 60623, 
    "ADDRESS": "2414 S ALBANY AVE  1", 
    "YEAR": 2005, 
    "LONGITUDE": -87.702827592, 
    "LATTITUDE": 41.847685263
  }, 
  {
    "BUSINESS_TYPE": "Day Care Center 2 - 6 Years", 
    "LEGAL_NAME": "LITTLE TYKES PRE-SCHOOL, INC.", 
    "STATE": "IL", 
    "DOING_BUSINESS_AS_NAME": "LITTLE TYKES PRE-SCHOOL INC.", 
    "POP_AT_RISK": 26182, 
    "ZIP": 60609, 
    "ADDRESS": "1711 W 35TH ST  1ST F", 
    "YEAR": 2005, 
    "LONGITUDE": -87.668435534, 
    "LATTITUDE": 41.830358931
  }, 
  {
    "BUSINESS_TYPE": "Day Care Center 2 - 6 Years", 
    "LEGAL_NAME": "CARE-A -LOT EARLY LEARNING CENTER, INC.", 
    "STATE": "IL", 
    "DOING_BUSINESS_AS_NAME": "CARE-A-LOT INC", 
    "POP_AT_RISK": 17956, 
    "ZIP": 60646, 
    "ADDRESS": "6441 N CENTRAL AVE", 
    "YEAR": 2005, 
    "LONGITUDE": -87.7631935, 
    "LATTITUDE": 41.998589123
  }, 
  {
    "BUSINESS_TYPE": "Day Care Center 2 - 6 Years", 
    "LEGAL_NAME": "EARLY EDUCATION UNLIMITED, INC.", 
    "STATE": "IL", 
    "DOING_BUSINESS_AS_NAME": "KIDDIE CORNER NURSERY SCHOOL", 
    "POP_AT_RISK": 24262, 
    "ZIP": 60638, 
    "ADDRESS": "6640 W ARCHER AVE 1ST", 
    "YEAR": 2005, 
    "LONGITUDE": -87.788315368, 
    "LATTITUDE": 41.792329559
  }, 
  {
    "BUSINESS_TYPE": "Day Care Center 2 - 6 Years", 
    "LEGAL_NAME": "TEDDY BEAR SERVICES CORP", 
    "STATE": "IL", 
    "DOING_BUSINESS_AS_NAME": "TEDDY BEAR SERVICES CORP", 
    "POP_AT_RISK": 40702, 
    "ZIP": 60632, 
    "ADDRESS": "5160 S PULASKI RD  1", 
    "YEAR": 2005, 
    "LONGITUDE": -87.72346641, 
    "LATTITUDE": 41.798750257
  }, 
  {
    "BUSINESS_TYPE": "Day Care Center 2 - 6 Years", 
    "LEGAL_NAME": "TEDDY BEAR NURSERY SCHOOLS, INC.", 
    "STATE": "IL", 
    "DOING_BUSINESS_AS_NAME": "TEDDY BEAR NURSERY SCHOOLS INC", 
    "POP_AT_RISK": 27493, 
    "ZIP": 60652, 
    "ADDRESS": "3800 W 84TH ST  1", 
    "YEAR": 2005, 
    "LONGITUDE": -87.716876593, 
    "LATTITUDE": 41.740535937
  }, 
  {
    "BUSINESS_TYPE": "Day Care Center 2 - 6 Years", 
    "LEGAL_NAME": "KIDDIE GARDEN LITTLE ANGELS CORP.", 
    "STATE": "IL", 
    "DOING_BUSINESS_AS_NAME": "KIDDIE GARDEN LITTLE ANGELS", 
    "POP_AT_RISK": 40641, 
    "ZIP": 60632, 
    "ADDRESS": "4235 S KEDZIE AVE", 
    "YEAR": 2005, 
    "LONGITUDE": -87.704148728, 
    "LATTITUDE": 41.81619537
  }, 
  {
    "BUSINESS_TYPE": "Day Care Center 2 - 6 Years", 
    "LEGAL_NAME": "LYDIA HOME ASSOCIATION", 
    "STATE": "IL", 
    "DOING_BUSINESS_AS_NAME": "LYDIA HOME ASSOCIATION DAY CARE", 
    "POP_AT_RISK": 53428, 
    "ZIP": 60641, 
    "ADDRESS": "4300 W IRVING PARK RD 1ST", 
    "YEAR": 2005, 
    "LONGITUDE": -87.735507825, 
    "LATTITUDE": 41.953667894
  }, 
  {
    "BUSINESS_TYPE": "Day Care Center 2 - 6 Years", 
    "LEGAL_NAME": "THE BRICKTON MONTESSORI SCHOOL", 
    "STATE": "IL", 
    "DOING_BUSINESS_AS_NAME": "BRICKTON MONTESSORI SCHOOL", 
    "POP_AT_RISK": 19154, 
    "ZIP": 60656, 
    "ADDRESS": "8622 W CATALPA AVE 1ST", 
    "YEAR": 2005, 
    "LONGITUDE": -87.842478389, 
    "LATTITUDE": 41.979309653
  }, 
  {
    "BUSINESS_TYPE": "Day Care Center 2 - 6 Years", 
    "LEGAL_NAME": "LITTLE HANDS LEARNING CENTER, INC.", 
    "STATE": "IL", 
    "DOING_BUSINESS_AS_NAME": "LITTLE HANDS LEARNING CENTER", 
    "POP_AT_RISK": 18624, 
    "ZIP": 60643, 
    "ADDRESS": "2324 W 111TH ST", 
    "YEAR": 2005, 
    "LONGITUDE": -87.679856206, 
    "LATTITUDE": 41.691897416
  }, 
  {
    "BUSINESS_TYPE": "Day Care Center 2 - 6 Years", 
    "LEGAL_NAME": "JFH EDUCATIONAL ACADEMY INC", 
    "STATE": "IL", 
    "DOING_BUSINESS_AS_NAME": "JOLLY FUN HOUSE PLAYSCHOOLS", 
    "POP_AT_RISK": 19762, 
    "ZIP": 60634, 
    "ADDRESS": "7559 W ADDISON ST 1ST", 
    "YEAR": 2005, 
    "LONGITUDE": -87.816734028, 
    "LATTITUDE": 41.945064857
  }, 
  {
    "BUSINESS_TYPE": "Day Care Center 2 - 6 Years", 
    "LEGAL_NAME": "A.B.A., INC.", 
    "STATE": "IL", 
    "DOING_BUSINESS_AS_NAME": "TOTS N TALES PRE-SCHOOL II", 
    "POP_AT_RISK": 22813, 
    "ZIP": 60638, 
    "ADDRESS": "5784 S ARCHER AVE 1ST 1", 
    "YEAR": 2005, 
    "LONGITUDE": -87.757837109, 
    "LATTITUDE": 41.796529625
  }, 
  {
    "BUSINESS_TYPE": "Day Care Center 2 - 6 Years", 
    "LEGAL_NAME": "MT. ARARAT DAYCARE CENTER, L.L.C.", 
    "STATE": "IL", 
    "DOING_BUSINESS_AS_NAME": "MT ARARAT DAYCARE CENTER", 
    "POP_AT_RISK": 27312, 
    "ZIP": 60656, 
    "ADDRESS": "6514-6516 W HIGGINS AVE", 
    "YEAR": 2005, 
    "LONGITUDE": -87.790854282, 
    "LATTITUDE": 41.977374595
  }
]