[
  {
    "BUSINESS_TYPE": "Tavern", 
    "LEGAL_NAME": "ROMAN MYTNIK", 
    "STATE": "IL", 
    "DOING_BUSINESS_AS_NAME": "ROMANS INN", 
    "POP_AT_RISK": 20191, 
    "ZIP": 60631, 
    "ADDRESS": "6448 N MILWAUKEE AVE 1ST", 
    "YEAR": 2002, 
    "LONGITUDE": -87.789014216, 
    "LATTITUDE": 41.998404308
  }, 
  {
    "BUSINESS_TYPE": "Tavern", 
    "LEGAL_NAME": "THE NEW SOME PLACE ELSE, INC.", 
    "STATE": "IL", 
    "DOING_BUSINESS_AS_NAME": "THE NEW SOME PLACE ELSE LOUNGE", 
    "POP_AT_RISK": 26744, 
    "ZIP": 60643, 
    "ADDRESS": "11043 S ASHLAND AVE 1ST", 
    "YEAR": 2002, 
    "LONGITUDE": -87.661711113, 
    "LATTITUDE": 41.692637091
  }, 
  {
    "BUSINESS_TYPE": "Tavern", 
    "LEGAL_NAME": "STELLA OWENS", 
    "STATE": "IL", 
    "DOING_BUSINESS_AS_NAME": "ROYAL LOUNGE", 
    "POP_AT_RISK": 15082, 
    "ZIP": 60617, 
    "ADDRESS": "9924 S TORRENCE AVE 1ST", 
    "YEAR": 2002, 
    "LONGITUDE": -87.559910506, 
    "LATTITUDE": 41.714581314
  }, 
  {
    "BUSINESS_TYPE": "Tavern", 
    "LEGAL_NAME": "NORTHWOODS LOUNGE INC", 
    "STATE": "IL", 
    "DOING_BUSINESS_AS_NAME": "NORTHWOODS LOUNGE", 
    "POP_AT_RISK": 24933, 
    "ZIP": 60656, 
    "ADDRESS": "5342 N CUMBERLAND AVE 1ST", 
    "YEAR": 2002, 
    "LONGITUDE": -87.836760961, 
    "LATTITUDE": 41.976805394
  }, 
  {
    "BUSINESS_TYPE": "Tavern", 
    "LEGAL_NAME": "THE 9705 CORPORATION", 
    "STATE": "IL", 
    "DOING_BUSINESS_AS_NAME": "9705 CORP", 
    "POP_AT_RISK": 25334, 
    "ZIP": 60628, 
    "ADDRESS": "9705 S HALSTED ST  1", 
    "YEAR": 2002, 
    "LONGITUDE": -87.642958666, 
    "LATTITUDE": 41.717541962
  }, 
  {
    "BUSINESS_TYPE": "Tavern", 
    "LEGAL_NAME": "PAUL STROMBECK", 
    "STATE": "IL", 
    "DOING_BUSINESS_AS_NAME": "PAUL STROMBECK", 
    "POP_AT_RISK": 3373, 
    "ZIP": 60827, 
    "ADDRESS": "13421 S VERNON AVE 1ST", 
    "YEAR": 2002, 
    "LONGITUDE": -87.610453477, 
    "LATTITUDE": 41.651314225
  }, 
  {
    "BUSINESS_TYPE": "Tavern", 
    "LEGAL_NAME": "LEON RICHARDSON", 
    "STATE": "IL", 
    "DOING_BUSINESS_AS_NAME": "LEON'S 722 LOUNGE", 
    "POP_AT_RISK": 42510, 
    "ZIP": 60653, 
    "ADDRESS": "722 E 47TH ST", 
    "YEAR": 2002, 
    "LONGITUDE": -87.607951193, 
    "LATTITUDE": 41.809622828
  }
]