[
  {
    "BUSINESS_TYPE": "Regulated Business License", 
    "LEGAL_NAME": "Kyung Y Chon", 
    "STATE": "IL", 
    "DOING_BUSINESS_AS_NAME": "Ritz Cleaners", 
    "POP_AT_RISK": 80389, 
    "ZIP": 60657, 
    "ADDRESS": "3565 N BROADWAY  1", 
    "YEAR": 2002, 
    "LONGITUDE": -87.647088555, 
    "LATTITUDE": 41.947308232
  }, 
  {
    "BUSINESS_TYPE": "Regulated Business License", 
    "LEGAL_NAME": "HALSTED TAN AND SPA, LLC", 
    "STATE": "IL", 
    "DOING_BUSINESS_AS_NAME": "HALSTED TAN AND SPA, LLC", 
    "POP_AT_RISK": 45304, 
    "ZIP": 60607, 
    "ADDRESS": "1255 S HALSTED ST 1ST", 
    "YEAR": 2002, 
    "LONGITUDE": -87.646722508, 
    "LATTITUDE": 41.865543157
  }, 
  {
    "BUSINESS_TYPE": "Regulated Business License", 
    "LEGAL_NAME": "SONA TANCUN, INC.", 
    "STATE": "IL", 
    "DOING_BUSINESS_AS_NAME": "L.A. TAN", 
    "POP_AT_RISK": 56518, 
    "ZIP": 60647, 
    "ADDRESS": "2010 N DAMEN AVE 1 C", 
    "YEAR": 2002, 
    "LONGITUDE": -87.677780539, 
    "LATTITUDE": 41.918105342
  }, 
  {
    "BUSINESS_TYPE": "Regulated Business License", 
    "LEGAL_NAME": "HAM FITNESS, LTD.", 
    "STATE": "IL", 
    "DOING_BUSINESS_AS_NAME": "SNAP FITNESS", 
    "POP_AT_RISK": 50642, 
    "ZIP": 60641, 
    "ADDRESS": "4504 W IRVING PARK RD 1", 
    "YEAR": 2002, 
    "LONGITUDE": -87.740815447, 
    "LATTITUDE": 41.953602978
  }, 
  {
    "BUSINESS_TYPE": "Regulated Business License", 
    "LEGAL_NAME": "TANNING PLANET LLC", 
    "STATE": "IL", 
    "DOING_BUSINESS_AS_NAME": "TANNING PLANET LLC", 
    "POP_AT_RISK": 13444, 
    "ZIP": 60638, 
    "ADDRESS": "6950 W ARCHER AVE", 
    "YEAR": 2002, 
    "LONGITUDE": -87.796062228, 
    "LATTITUDE": 41.792180605
  }, 
  {
    "BUSINESS_TYPE": "Regulated Business License", 
    "LEGAL_NAME": "TANNING MANAGEMENT CORPORATION", 
    "STATE": "IL", 
    "DOING_BUSINESS_AS_NAME": "L.A. TAN", 
    "POP_AT_RISK": 71895, 
    "ZIP": 60611, 
    "ADDRESS": "405 N WABASH AVE 1", 
    "YEAR": 2002, 
    "LONGITUDE": -87.626509274, 
    "LATTITUDE": 41.889465329
  }, 
  {
    "BUSINESS_TYPE": "Regulated Business License", 
    "LEGAL_NAME": "YOGAVIEW, LLC", 
    "STATE": "IL", 
    "DOING_BUSINESS_AS_NAME": "yogaview-division", 
    "POP_AT_RISK": 63742, 
    "ZIP": 60622, 
    "ADDRESS": "1745 W DIVISION ST 2", 
    "YEAR": 2002, 
    "LONGITUDE": -87.671644951, 
    "LATTITUDE": 41.903168562
  }, 
  {
    "BUSINESS_TYPE": "Regulated Business License", 
    "LEGAL_NAME": "VICENTE SARMIENTO", 
    "STATE": "IL", 
    "DOING_BUSINESS_AS_NAME": "SARMIENTO'S TAILOR SHOP", 
    "POP_AT_RISK": 54016, 
    "ZIP": 60608, 
    "ADDRESS": "2149 S CALIFORNIA AVE", 
    "YEAR": 2002, 
    "LONGITUDE": -87.695309075, 
    "LATTITUDE": 41.852266238
  }, 
  {
    "BUSINESS_TYPE": "Regulated Business License", 
    "LEGAL_NAME": "CorePower Yoga", 
    "STATE": "IL", 
    "DOING_BUSINESS_AS_NAME": "CorePower Yoga", 
    "POP_AT_RISK": 74829, 
    "ZIP": 60610, 
    "ADDRESS": "12 W MAPLE ST 4TH FLR", 
    "YEAR": 2002, 
    "LONGITUDE": -87.62884465, 
    "LATTITUDE": 41.901987846
  }, 
  {
    "BUSINESS_TYPE": "Regulated Business License", 
    "LEGAL_NAME": "CARDINAL FITNESS", 
    "STATE": "IL", 
    "DOING_BUSINESS_AS_NAME": "CARDINAL FITNESS OF MADISON AVE., LLC", 
    "POP_AT_RISK": 41809, 
    "ZIP": 60607, 
    "ADDRESS": "1301 W MADISON ST", 
    "YEAR": 2002, 
    "LONGITUDE": -87.65966035, 
    "LATTITUDE": 41.881463025
  }, 
  {
    "BUSINESS_TYPE": "Regulated Business License", 
    "LEGAL_NAME": "B.B. BEAR ENTERPRISES, INC.", 
    "STATE": "IL", 
    "DOING_BUSINESS_AS_NAME": "B. BARE TANNING", 
    "POP_AT_RISK": 22463, 
    "ZIP": 60638, 
    "ADDRESS": "6057 W 63RD ST 1 1", 
    "YEAR": 2002, 
    "LONGITUDE": -87.77379431, 
    "LATTITUDE": 41.777709152
  }
]