{
{"STATE":"IL","ZIP":60636,"LATTITUDE":41.78746930336788,"ADDRESS":"5828 S WESTERN AVE 1ST ","YEAR":2010,"DOING_BUSINESS_AS_NAME":"PRO CUSTOM TATTOO","POP_AT_RISK":372491,"BUSINESS_TYPE":"Body Piercing","LEGAL_NAME":"CARLOS  L  SOTO","LONGITUDE":-87.68400478419849},
{"STATE":"IL","ZIP":60626,"LATTITUDE":42.00822126786242,"ADDRESS":"6956 N CLARK ST 1ST ","YEAR":2010,"DOING_BUSINESS_AS_NAME":"MARS HILL","POP_AT_RISK":461676,"BUSINESS_TYPE":"Body Piercing","LEGAL_NAME":"THOMAS J. DAVIS","LONGITUDE":-87.67393371996435},
{"STATE":"IL","ZIP":60625,"LATTITUDE":41.96842952509285,"ADDRESS":"2737 W LAWRENCE AVE 1ST ","YEAR":2010,"DOING_BUSINESS_AS_NAME":"BEE TATTOO, INC.","POP_AT_RISK":573588,"BUSINESS_TYPE":"Body Piercing","LEGAL_NAME":"BEE TATTOO, INC.","LONGITUDE":-87.69772059464243},
{"STATE":"IL","ZIP":60642,"LATTITUDE":41.90110296450634,"ADDRESS":"1062 N MILWAUKEE AVE 1ST ","YEAR":2010,"DOING_BUSINESS_AS_NAME":"INSIGHT STUDIOS","POP_AT_RISK":196784,"BUSINESS_TYPE":"Body Piercing","LEGAL_NAME":"HTH INCORPORATED","LONGITUDE":-87.66319844892888},
{"STATE":"IL","ZIP":60652,"LATTITUDE":41.74045023530922,"ADDRESS":"8356 S PULASKI RD  STORE","YEAR":2010,"DOING_BUSINESS_AS_NAME":"ETCHED IN SKIN","POP_AT_RISK":127368,"BUSINESS_TYPE":"Body Piercing","LEGAL_NAME":"MICHELLE L RYBKA","LONGITUDE":-87.72176928391136},
{"STATE":"IL","ZIP":60640,"LATTITUDE":41.962842630026145,"ADDRESS":"4439-4443 N BROADWAY   ","YEAR":2010,"DOING_BUSINESS_AS_NAME":"TATTOO FACTORY","POP_AT_RISK":69855,"BUSINESS_TYPE":"Body Piercing","LEGAL_NAME":"PAUL COLLURAFICI","LONGITUDE":-87.6556745694617},
{"STATE":"IL","ZIP":60647,"LATTITUDE":41.9173234757404,"ADDRESS":"3816 W ARMITAGE AVE 1 ","YEAR":2010,"DOING_BUSINESS_AS_NAME":"DIAMOND TATTOOS","POP_AT_RISK":715904,"BUSINESS_TYPE":"Body Piercing","LEGAL_NAME":"JOSE F. RODRIGUEZ","LONGITUDE":-87.72235907727797},
{"STATE":"IL","ZIP":60608,"LATTITUDE":41.834745401604216,"ADDRESS":"3265 S ARCHER AVE 1 ","YEAR":2010,"DOING_BUSINESS_AS_NAME":"THE SHOP TATTOO STUDIO","POP_AT_RISK":33383,"BUSINESS_TYPE":"Body Piercing","LEGAL_NAME":"MARIA D. GRIMALDO","LONGITUDE":-87.67031467723689},
{"STATE":"IL","ZIP":60607,"LATTITUDE":41.86953354394101,"ADDRESS":"1150 W TAYLOR ST 1ST ","YEAR":2010,"DOING_BUSINESS_AS_NAME":"TAYLOR STREET TATTOO AND BODY PIERCING COMPANY","POP_AT_RISK":480315,"BUSINESS_TYPE":"Body Piercing","LEGAL_NAME":"UNDERWOOD ART. CO.","LONGITUDE":-87.65626097874001},
{"STATE":"IL","ZIP":60640,"LATTITUDE":41.961910293557445,"ADDRESS":"4407 N CLARK ST 1ST FLOOR 1","YEAR":2010,"DOING_BUSINESS_AS_NAME":"MASTERMIND INK","POP_AT_RISK":333360,"BUSINESS_TYPE":"Body Piercing","LEGAL_NAME":"MASTERMIND INK, LLC","LONGITUDE":-87.66587203904609},
{"STATE":"IL","ZIP":60610,"LATTITUDE":41.903968430883985,"ADDRESS":"166 W DIVISION ST 1 ","YEAR":2010,"DOING_BUSINESS_AS_NAME":"WINDY CITY INK, LLC","POP_AT_RISK":409305,"BUSINESS_TYPE":"Body Piercing","LEGAL_NAME":"WINDY CITY INK, LLC","LONGITUDE":-87.6340742094126},
{"STATE":"IL","ZIP":60618,"LATTITUDE":41.95319638735252,"ADDRESS":"3962 N ELSTON AVE 1ST ","YEAR":2010,"DOING_BUSINESS_AS_NAME":"VINTAGE TATTOO","POP_AT_RISK":64463,"BUSINESS_TYPE":"Body Piercing","LEGAL_NAME":"VINTAGE TATTOO  INC.","LONGITUDE":-87.71862219092723},
{"STATE":"IL","ZIP":60622,"LATTITUDE":41.89577571634698,"ADDRESS":"2706 W CHICAGO AVE GROUND ","YEAR":2010,"DOING_BUSINESS_AS_NAME":"dermawerx","POP_AT_RISK":288596,"BUSINESS_TYPE":"Body Piercing","LEGAL_NAME":"wesley d landsberger","LONGITUDE":-87.69450806537272},
{"STATE":"IL","ZIP":60639,"LATTITUDE":41.91946387531173,"ADDRESS":"5718 W GRAND AVE 1 ","YEAR":2010,"DOING_BUSINESS_AS_NAME":"FIFTH SUN GRAPHIX, INC.","POP_AT_RISK":218468,"BUSINESS_TYPE":"Body Piercing","LEGAL_NAME":"FIFTH SUN GRAPHIX, INC","LONGITUDE":-87.76903584780901},
{"STATE":"IL","ZIP":60630,"LATTITUDE":41.96971194683792,"ADDRESS":"4901 N ELSTON AVE 1 ","YEAR":2010,"DOING_BUSINESS_AS_NAME":"THE GALLERY OF INK","POP_AT_RISK":84230,"BUSINESS_TYPE":"Body Piercing","LEGAL_NAME":"THE GALLERY OF INK LLC","LONGITUDE":-87.7425332271635},
{"STATE":"IL","ZIP":60609,"LATTITUDE":41.82339041040023,"ADDRESS":"1848 W PERSHING RD 1 ","YEAR":2010,"DOING_BUSINESS_AS_NAME":"TINA'S SPA SALON CORP.","POP_AT_RISK":29620,"BUSINESS_TYPE":"Body Piercing","LEGAL_NAME":"TINA'S SPA SALON CORP.","LONGITUDE":-87.67194448459976},
{"STATE":"IL","ZIP":60660,"LATTITUDE":41.996093875952845,"ADDRESS":"6317 N RIDGE AVE 1 ","YEAR":2010,"DOING_BUSINESS_AS_NAME":"AEROSTUDIOS","POP_AT_RISK":222837,"BUSINESS_TYPE":"Body Piercing","LEGAL_NAME":"AEROSTUDIOS INCORPORATED","LONGITUDE":-87.67580653154624},
{"STATE":"IL","ZIP":60602,"LATTITUDE":41.88219177285317,"ADDRESS":"5 N STATE ST  ","YEAR":2010,"DOING_BUSINESS_AS_NAME":"CLAIRE'S","POP_AT_RISK":139284,"BUSINESS_TYPE":"Body Piercing","LEGAL_NAME":"CLAIRE'S BOUTIQUES, INC.","LONGITUDE":-87.6276868832079},
{"STATE":"IL","ZIP":60614,"LATTITUDE":41.92521232759425,"ADDRESS":"1730 W FULLERTON AVE  21","YEAR":2010,"DOING_BUSINESS_AS_NAME":"CLAIRE'S","POP_AT_RISK":53942,"BUSINESS_TYPE":"Body Piercing","LEGAL_NAME":"CLAIRE'S BOUTIQUES, INC.","LONGITUDE":-87.67192542513618},
{"STATE":"IL","ZIP":60639,"LATTITUDE":41.929256687663745,"ADDRESS":"2700 N NARRAGANSETT AVE  S6","YEAR":2010,"DOING_BUSINESS_AS_NAME":"CLAIRE'S #5601","POP_AT_RISK":93576,"BUSINESS_TYPE":"Body Piercing","LEGAL_NAME":"CLAIRE'S BOUTIQUES, INC.","LONGITUDE":-87.78579516503306},
{"STATE":"IL","ZIP":60661,"LATTITUDE":41.88199433820508,"ADDRESS":"500 W MADISON ST # 6696","YEAR":2010,"DOING_BUSINESS_AS_NAME":"CLAIRE'S BOUTIQUE #6696","POP_AT_RISK":63203,"BUSINESS_TYPE":"Body Piercing","LEGAL_NAME":"CLAIRE'S BOUTIQUES, INC.","LONGITUDE":-87.6397586848809},
{"STATE":"IL","ZIP":60609,"LATTITUDE":41.82993946178982,"ADDRESS":"3527 S HALSTED ST 1ST FLR ","YEAR":2010,"DOING_BUSINESS_AS_NAME":"BRIDGEPORT TATTOO CO.","POP_AT_RISK":333297,"BUSINESS_TYPE":"Body Piercing","LEGAL_NAME":"BROKEN HEART STUDIOS, INC.","LONGITUDE":-87.64594226697791},
{"STATE":"IL","ZIP":60623,"LATTITUDE":41.84776668182944,"ADDRESS":"2410 S KEDZIE AVE  ","YEAR":2010,"DOING_BUSINESS_AS_NAME":"AGELESS ARTS","POP_AT_RISK":806773,"BUSINESS_TYPE":"Body Piercing","LEGAL_NAME":"EXOTIC BODY CREATIONS INC.","LONGITUDE":-87.70528457405833},
{"STATE":"IL","ZIP":60641,"LATTITUDE":41.95739629659589,"ADDRESS":"4211 N MILWAUKEE AVE 1ST ","YEAR":2010,"DOING_BUSINESS_AS_NAME":"STAINED IN PAIN TATTOOS","POP_AT_RISK":37704,"BUSINESS_TYPE":"Body Piercing","LEGAL_NAME":"TAT 2 JIMMYS' BODY SHOP LLC","LONGITUDE":-87.7515031559091},
{"STATE":"IL","ZIP":60657,"LATTITUDE":41.940646213272494,"ADDRESS":"3228 N CLARK ST GROUND ","YEAR":2010,"DOING_BUSINESS_AS_NAME":"THE ALLEY","POP_AT_RISK":181022,"BUSINESS_TYPE":"Body Piercing","LEGAL_NAME":"RAGS 2 RICHES FASHIONS, LTD.","LONGITUDE":-87.65140950812834},
{"STATE":"IL","ZIP":60657,"LATTITUDE":41.93979110570738,"ADDRESS":"1017 W BELMONT AVE  ","YEAR":2010,"DOING_BUSINESS_AS_NAME":"THE CHICAGO TATTOOING CO INC","POP_AT_RISK":86172,"BUSINESS_TYPE":"Body Piercing","LEGAL_NAME":"THE CHICAGO TATTOOING CO INC","LONGITUDE":-87.65474668661226},
{"STATE":"IL","ZIP":60617,"LATTITUDE":41.7477492117195,"ADDRESS":"8100 S STONY ISLAND AVE 1ST ","YEAR":2010,"DOING_BUSINESS_AS_NAME":"INKFUL THOUGHTS ART STUDIO INC.","POP_AT_RISK":179210,"BUSINESS_TYPE":"Body Piercing","LEGAL_NAME":"INKFUL THOUGHTS ART STUDIO INC.","LONGITUDE":-87.58603741639237},
{"STATE":"IL","ZIP":60660,"LATTITUDE":41.996566735480926,"ADDRESS":"6305 N CLARK ST 1 ","YEAR":2010,"DOING_BUSINESS_AS_NAME":"GEORGE PAPAS TATTOO","POP_AT_RISK":521622,"BUSINESS_TYPE":"Body Piercing","LEGAL_NAME":"EPIDERMAL ENGRAVING EMPORIUM INC.","LONGITUDE":-87.6700921173751},
{"STATE":"IL","ZIP":60617,"LATTITUDE":41.73909042472304,"ADDRESS":"8548 S STONY ISLAND AVE  ","YEAR":2010,"DOING_BUSINESS_AS_NAME":"SOUTHSIDE TATTOOS & BODY PIERCING LLC","POP_AT_RISK":130492,"BUSINESS_TYPE":"Body Piercing","LEGAL_NAME":"SOUTHSIDE TATTOOS & BODY PIERCING LLC","LONGITUDE":-87.5858420548468},
{"STATE":"IL","ZIP":60641,"LATTITUDE":41.93763137415776,"ADDRESS":"3120 N CICERO AVE  B","YEAR":2010,"DOING_BUSINESS_AS_NAME":"MYSTIC TATTOO ART & BODY PIERCING","POP_AT_RISK":65610,"BUSINESS_TYPE":"Body Piercing","LEGAL_NAME":"MYSTIC TATTOO ART & BODY PIERCING CORP.","LONGITUDE":-87.7469880315815},
{"STATE":"IL","ZIP":60634,"LATTITUDE":41.94614067741539,"ADDRESS":"3629 N HARLEM AVE 1ST ","YEAR":2010,"DOING_BUSINESS_AS_NAME":"KIDD JOE' S TAT CAVE TATTOO & BODY PIERCING","POP_AT_RISK":302176,"BUSINESS_TYPE":"Body Piercing","LEGAL_NAME":"KIDD JOE' S TAT CAVE TATTOO & BODY PIERCING LLC","LONGITUDE":-87.80688892934933},
}