[
{"STATE":"IL","ZIP":60659,"LATTITUDE":41.99030999052824,"ADDRESS":"2945 W PETERSON AVE  103","YEAR":2012,"DOING_BUSINESS_AS_NAME":"TOP CAB CORP.","POP_AT_RISK":173244,"BUSINESS_TYPE":"Taxicab Two-Way Dispatch Service License","LEGAL_NAME":"TOP CAB CORP.","LONGITUDE":-87.70360306662427},
{"STATE":"IL","ZIP":60656,"LATTITUDE":41.97331138411917,"ADDRESS":"9696 W FOSTER AVE  ","YEAR":2012,"DOING_BUSINESS_AS_NAME":"FLASH CAB CO.","POP_AT_RISK":16526,"BUSINESS_TYPE":"Taxicab Two-Way Dispatch Service License","LEGAL_NAME":"5 STAR FLASH, INC.","LONGITUDE":-87.86672075423944},
{"STATE":"IL","ZIP":60614,"LATTITUDE":41.929772012140184,"ADDRESS":"2635 N ASHLAND AVE 2 2","YEAR":2012,"DOING_BUSINESS_AS_NAME":"DRIVEN SOLUTIONS, LLC","POP_AT_RISK":1209348,"BUSINESS_TYPE":"Taxicab Two-Way Dispatch Service License","LEGAL_NAME":"DRIVEN SOLUTIONS, LLC","LONGITUDE":-87.6681593334758},
{"STATE":"IL","ZIP":60610,"LATTITUDE":41.90136490893587,"ADDRESS":"1031 N ORLEANS ST  ","YEAR":2012,"DOING_BUSINESS_AS_NAME":"HAILO NETWORK USA, INC.","POP_AT_RISK":969813,"BUSINESS_TYPE":"Taxicab Two-Way Dispatch Service License","LEGAL_NAME":"HAILO NETWORK USA, INC.","LONGITUDE":-87.63720932437906},
{"STATE":"IL","ZIP":60659,"LATTITUDE":41.9834252692414,"ADDRESS":"5606 N WESTERN AVE 1 ","YEAR":2012,"DOING_BUSINESS_AS_NAME":"24 SEVEN TAXI AFFILIATION","POP_AT_RISK":287125,"BUSINESS_TYPE":"Taxicab Two-Way Dispatch Service License","LEGAL_NAME":"24 SEVEN TAXI ASSN., INC","LONGITUDE":-87.68960548027884},
{"STATE":"IL","ZIP":60641,"LATTITUDE":41.94482073871164,"ADDRESS":"4626 W CORNELIA AVE  ","YEAR":2012,"DOING_BUSINESS_AS_NAME":"SUN TAXI ASSOCIATION, INC.","POP_AT_RISK":511984,"BUSINESS_TYPE":"Taxicab Two-Way Dispatch Service License","LEGAL_NAME":"SUN TAXI ASSOCIATION, INC.","LONGITUDE":-87.74351231039856},
{"STATE":"IL","ZIP":60630,"LATTITUDE":41.96831434717787,"ADDRESS":"4118 W LAWRENCE AVE  ","YEAR":2012,"DOING_BUSINESS_AS_NAME":"GLOBE TAXI ASSOCIATION, INC.","POP_AT_RISK":682572,"BUSINESS_TYPE":"Taxicab Two-Way Dispatch Service License","LEGAL_NAME":"GLOBE TAXI ASSOCIATION, INC.","LONGITUDE":-87.73126903965267},
{"STATE":"IL","ZIP":60642,"LATTITUDE":41.90707715928355,"ADDRESS":"1440 N KINGSBURY ST  122","YEAR":2012,"DOING_BUSINESS_AS_NAME":"PEACE TAXI ASSOCIATION, INC.","POP_AT_RISK":227700,"BUSINESS_TYPE":"Taxicab Two-Way Dispatch Service License","LEGAL_NAME":"PEACE TAXI ASSOCIATION, INC.","LONGITUDE":-87.65111407093622},
{"STATE":"IL","ZIP":60626,"LATTITUDE":42.00138489583853,"ADDRESS":"6550 N CLARK ST  ","YEAR":2012,"DOING_BUSINESS_AS_NAME":"Choice Taxi Association Inc.","POP_AT_RISK":71506,"BUSINESS_TYPE":"Taxicab Two-Way Dispatch Service License","LEGAL_NAME":"CHOICE TAXI ASSOCIATION, INC.","LONGITUDE":-87.67189776065382},
{"STATE":"IL","ZIP":60660,"LATTITUDE":41.99465804747477,"ADDRESS":"1210 W GRANVILLE AVE  107-W","YEAR":2012,"DOING_BUSINESS_AS_NAME":"SERVICE TAXI ASSOCIATION","POP_AT_RISK":200787,"BUSINESS_TYPE":"Taxicab Two-Way Dispatch Service License","LEGAL_NAME":"SERVICE TAXI ASSOCIATION INC.","LONGITUDE":-87.66088516214597},
{"STATE":"IL","ZIP":60640,"LATTITUDE":41.964760947569914,"ADDRESS":"4542 N BROADWAY   ","YEAR":2012,"DOING_BUSINESS_AS_NAME":"GOLD COAST TAXI ASSOCIATION LLC","POP_AT_RISK":1275642,"BUSINESS_TYPE":"Taxicab Two-Way Dispatch Service License","LEGAL_NAME":"GOLD COAST TAXI ASSOCIATION LLC","LONGITUDE":-87.6572287212424},
{"STATE":"IL","ZIP":60619,"LATTITUDE":41.74919731465365,"ADDRESS":"8000 S DR MARTIN LUTHER KING JR DR  ","YEAR":2012,"DOING_BUSINESS_AS_NAME":"KING DRIVE CAB AFFILIATION, INC.","POP_AT_RISK":490092,"BUSINESS_TYPE":"Taxicab Two-Way Dispatch Service License","LEGAL_NAME":"KING DRIVE CAB AFFILIATION, INC.","LONGITUDE":-87.61506453142316},
{"STATE":"IL","ZIP":60646,"LATTITUDE":41.992025442366575,"ADDRESS":"4020 W GLENLAKE AVE 1 ","YEAR":2012,"DOING_BUSINESS_AS_NAME":"BLUE RIBBON TAXI ASSOCIATION INC.","POP_AT_RISK":17974,"BUSINESS_TYPE":"Taxicab Two-Way Dispatch Service License","LEGAL_NAME":"BLUE RIBBON TAXI ASSOCIATION INC.","LONGITUDE":-87.72984048928724},
{}]