[
  {
    "BUSINESS_TYPE": "Shared Kitchen User", 
    "LEGAL_NAME": "PAPO'S TACOS INC.", 
    "STATE": "IL", 
    "DOING_BUSINESS_AS_NAME": "LATIN FUSION", 
    "POP_AT_RISK": 37937, 
    "ZIP": 60629, 
    "ADDRESS": "6132 S KILBOURN AVE", 
    "YEAR": 2012, 
    "LONGITUDE": -87.735193889, 
    "LATTITUDE": 41.781162681
  }, 
  {
    "BUSINESS_TYPE": "Shared Kitchen User", 
    "LEGAL_NAME": "SMITH & DONOVAN CONFECTIONS, INC.", 
    "STATE": "IL", 
    "DOING_BUSINESS_AS_NAME": "SMITH & DONOVAN CONFECTIONS, INC.", 
    "POP_AT_RISK": 84412, 
    "ZIP": 60611, 
    "ADDRESS": "800 N MICHIGAN AVE 36 3603", 
    "YEAR": 2012, 
    "LONGITUDE": -87.624380655, 
    "LATTITUDE": 41.896790572
  }, 
  {
    "BUSINESS_TYPE": "Shared Kitchen User", 
    "LEGAL_NAME": "STABLE FOODS, INC.", 
    "STATE": "IL", 
    "DOING_BUSINESS_AS_NAME": "SOUL VEGAN", 
    "POP_AT_RISK": 43701, 
    "ZIP": 60649, 
    "ADDRESS": "7735 S MERRILL AVE 1 1", 
    "YEAR": 2012, 
    "LONGITUDE": -87.572230405, 
    "LATTITUDE": 41.754237812
  }, 
  {
    "BUSINESS_TYPE": "Shared Kitchen User", 
    "LEGAL_NAME": "DOKKAEBI TACOS LLC", 
    "STATE": "IL", 
    "DOING_BUSINESS_AS_NAME": "DOKKAEBI TACOS", 
    "POP_AT_RISK": 54163, 
    "ZIP": 60622, 
    "ADDRESS": "2426 W IOWA ST 1ST 1E", 
    "YEAR": 2012, 
    "LONGITUDE": -87.688007166, 
    "LATTITUDE": 41.89765822
  }, 
  {
    "BUSINESS_TYPE": "Shared Kitchen User", 
    "LEGAL_NAME": "JJ PASTRIES BY DESIGN LLC", 
    "STATE": "IL", 
    "DOING_BUSINESS_AS_NAME": "JJ PASTRIES BY DESIGN LLC", 
    "POP_AT_RISK": 22616, 
    "ZIP": 60655, 
    "ADDRESS": "11235 S FAIRFIELD AVE", 
    "YEAR": 2012, 
    "LONGITUDE": -87.689516137, 
    "LATTITUDE": 41.688837409
  }, 
  {
    "BUSINESS_TYPE": "Shared Kitchen User", 
    "LEGAL_NAME": "A CHEF'S CHRONICLES, INC.", 
    "STATE": "IL", 
    "DOING_BUSINESS_AS_NAME": "A CHEF'S CHRONICLES, INC.", 
    "POP_AT_RISK": 25921, 
    "ZIP": 60643, 
    "ADDRESS": "10601 S PROSPECT AVE", 
    "YEAR": 2012, 
    "LONGITUDE": -87.661699063, 
    "LATTITUDE": 41.701054786
  }, 
  {
    "BUSINESS_TYPE": "Shared Kitchen User", 
    "LEGAL_NAME": "LETICIA DOMINGUEZ-GONZALEZ", 
    "STATE": "IL", 
    "DOING_BUSINESS_AS_NAME": "THE TRADITIONALS", 
    "POP_AT_RISK": 67281, 
    "ZIP": 60623, 
    "ADDRESS": "2452 S HOMAN AVE 3RD 3F", 
    "YEAR": 2012, 
    "LONGITUDE": -87.710116181, 
    "LATTITUDE": 41.846518029
  }, 
  {
    "BUSINESS_TYPE": "Shared Kitchen User", 
    "LEGAL_NAME": "VALENCY WHITE", 
    "STATE": "IL", 
    "DOING_BUSINESS_AS_NAME": "VEELICIOUS", 
    "POP_AT_RISK": 28159, 
    "ZIP": 60620, 
    "ADDRESS": "219 W 93RD PL", 
    "YEAR": 2012, 
    "LONGITUDE": -87.629981758, 
    "LATTITUDE": 41.72465532
  }, 
  {
    "BUSINESS_TYPE": "Shared Kitchen User", 
    "LEGAL_NAME": "WHEELS2FREEDOM, LLC", 
    "STATE": "IL", 
    "DOING_BUSINESS_AS_NAME": "GETTA POLPETTA", 
    "POP_AT_RISK": 36038, 
    "ZIP": 60607, 
    "ADDRESS": "1000 W ADAMS ST  817", 
    "YEAR": 2012, 
    "LONGITUDE": -87.652085613, 
    "LATTITUDE": 41.879246636
  }, 
  {
    "BUSINESS_TYPE": "Shared Kitchen User", 
    "LEGAL_NAME": "THE PEACE OF PIE, INC.", 
    "STATE": "IL", 
    "DOING_BUSINESS_AS_NAME": "THE PEACE OF PIE, INC.", 
    "POP_AT_RISK": 31593, 
    "ZIP": 60619, 
    "ADDRESS": "7220 S LANGLEY AVE", 
    "YEAR": 2012, 
    "LONGITUDE": -87.608098899, 
    "LATTITUDE": 41.763352192
  }, 
  {
    "BUSINESS_TYPE": "Shared Kitchen User", 
    "LEGAL_NAME": "BEE'S KNEES FOOD COMPANY", 
    "STATE": "IL", 
    "DOING_BUSINESS_AS_NAME": "BEE'S KNEES FOOD COMPANY", 
    "POP_AT_RISK": 89583, 
    "ZIP": 60657, 
    "ADDRESS": "924 W WOLFRAM ST", 
    "YEAR": 2012, 
    "LONGITUDE": -87.652492565, 
    "LATTITUDE": 41.933676823
  }, 
  {
    "BUSINESS_TYPE": "Shared Kitchen User", 
    "LEGAL_NAME": "BAYLOR WATSON ENTERPRISES INC.", 
    "STATE": "IL", 
    "DOING_BUSINESS_AS_NAME": "THE BAKEHOUSE", 
    "POP_AT_RISK": 42912, 
    "ZIP": 60612, 
    "ADDRESS": "738 S KEDZIE AVE  3", 
    "YEAR": 2012, 
    "LONGITUDE": -87.705988379, 
    "LATTITUDE": 41.87163438
  }, 
  {
    "BUSINESS_TYPE": "Shared Kitchen User", 
    "LEGAL_NAME": "DANIELLE P FIELDS", 
    "STATE": "IL", 
    "DOING_BUSINESS_AS_NAME": "THE DESSERT KART", 
    "POP_AT_RISK": 16658, 
    "ZIP": 60609, 
    "ADDRESS": "4500 S UNION AVE", 
    "YEAR": 2012, 
    "LONGITUDE": -87.643358833, 
    "LATTITUDE": 41.812469698
  }, 
  {
    "BUSINESS_TYPE": "Shared Kitchen User", 
    "LEGAL_NAME": "STOP N GO LLC", 
    "STATE": "IL", 
    "DOING_BUSINESS_AS_NAME": "MY KIDS MEALS", 
    "POP_AT_RISK": 61812, 
    "ZIP": 60634, 
    "ADDRESS": "2900 N MANGO AVE 1ST S", 
    "YEAR": 2012, 
    "LONGITUDE": -87.77010331, 
    "LATTITUDE": 41.933138117
  }, 
  {
    "BUSINESS_TYPE": "Shared Kitchen User", 
    "LEGAL_NAME": "SWEET SPOT BY C. BAKESHOP LLC", 
    "STATE": "IL", 
    "DOING_BUSINESS_AS_NAME": "SWEET SPOT BY C. BAKESHOP", 
    "POP_AT_RISK": 41511, 
    "ZIP": 60620, 
    "ADDRESS": "1621 W 80TH ST 3RD 3", 
    "YEAR": 2012, 
    "LONGITUDE": -87.664289573, 
    "LATTITUDE": 41.748411232
  }, 
  {
    "BUSINESS_TYPE": "Shared Kitchen User", 
    "LEGAL_NAME": "ANTIQUE TACO, LLC", 
    "STATE": "IL", 
    "DOING_BUSINESS_AS_NAME": "ANTIQUE KITCHEN", 
    "POP_AT_RISK": 40018, 
    "ZIP": 60609, 
    "ADDRESS": "974 W 35TH PL", 
    "YEAR": 2012, 
    "LONGITUDE": -87.650619898, 
    "LATTITUDE": 41.829764331
  }, 
  {
    "BUSINESS_TYPE": "Shared Kitchen User", 
    "LEGAL_NAME": "THE BAKED ESCAPE, LLC", 
    "STATE": "IL", 
    "DOING_BUSINESS_AS_NAME": "THE BAKED ESCAPE", 
    "POP_AT_RISK": 75310, 
    "ZIP": 60647, 
    "ADDRESS": "2510 N KEDZIE BLVD 1ST 1S", 
    "YEAR": 2012, 
    "LONGITUDE": -87.707429759, 
    "LATTITUDE": 41.926936825
  }, 
  {
    "BUSINESS_TYPE": "Shared Kitchen User", 
    "LEGAL_NAME": "CHEAP TART BAKERY LLC", 
    "STATE": "IL", 
    "DOING_BUSINESS_AS_NAME": "CHEAP TART BAKERY LLC", 
    "POP_AT_RISK": 63227, 
    "ZIP": 60651, 
    "ADDRESS": "3304 W BEACH AVE  3", 
    "YEAR": 2012, 
    "LONGITUDE": -87.709655926, 
    "LATTITUDE": 41.907454885
  }, 
  {
    "BUSINESS_TYPE": "Shared Kitchen User", 
    "LEGAL_NAME": "CONFECTIONS ELSE LLC", 
    "STATE": "IL", 
    "DOING_BUSINESS_AS_NAME": "CONFECTIONS ELSE LLC", 
    "POP_AT_RISK": 77328, 
    "ZIP": 60647, 
    "ADDRESS": "3606 W DICKENS AVE  G", 
    "YEAR": 2012, 
    "LONGITUDE": -87.717180577, 
    "LATTITUDE": 41.919219259
  }, 
  {
    "BUSINESS_TYPE": "Shared Kitchen User", 
    "LEGAL_NAME": "MARY'S CATERING SERVICE, INC.", 
    "STATE": "IL", 
    "DOING_BUSINESS_AS_NAME": "MARY'S CATERING SERVICE, INC.", 
    "POP_AT_RISK": 63177, 
    "ZIP": 60618, 
    "ADDRESS": "4341 N AVERS AVE", 
    "YEAR": 2012, 
    "LONGITUDE": -87.723994755, 
    "LATTITUDE": 41.960395082
  }, 
  {
    "BUSINESS_TYPE": "Shared Kitchen User", 
    "LEGAL_NAME": "24 KARAT CAKES, INC.", 
    "STATE": "IL", 
    "DOING_BUSINESS_AS_NAME": "CUPCAKE GANGSTERS", 
    "POP_AT_RISK": 30274, 
    "ZIP": 60637, 
    "ADDRESS": "6213 S WOODLAWN AVE  A", 
    "YEAR": 2012, 
    "LONGITUDE": -87.596090206, 
    "LATTITUDE": 41.781914638
  }, 
  {
    "BUSINESS_TYPE": "Shared Kitchen User", 
    "LEGAL_NAME": "ANAGRA CAFE LLC", 
    "STATE": "IL", 
    "DOING_BUSINESS_AS_NAME": "ANAGRA CAFE LLC", 
    "POP_AT_RISK": 26452, 
    "ZIP": 60634, 
    "ADDRESS": "3763 N OCTAVIA AVE", 
    "YEAR": 2012, 
    "LONGITUDE": -87.809390638, 
    "LATTITUDE": 41.948477087
  }, 
  {
    "BUSINESS_TYPE": "Shared Kitchen User", 
    "LEGAL_NAME": "50PERCENTFUNDRAISING.COM, INC.", 
    "STATE": "IL", 
    "DOING_BUSINESS_AS_NAME": "REVOLUTION SNACKS", 
    "POP_AT_RISK": 51298, 
    "ZIP": 60639, 
    "ADDRESS": "5406 W CORTLAND ST  1", 
    "YEAR": 2012, 
    "LONGITUDE": -87.761036509, 
    "LATTITUDE": 41.914528882
  }, 
  {
    "BUSINESS_TYPE": "Shared Kitchen User", 
    "LEGAL_NAME": "MARY E. SHERROD", 
    "STATE": "IL", 
    "DOING_BUSINESS_AS_NAME": "JMJ CHOICE", 
    "POP_AT_RISK": 36115, 
    "ZIP": 60620, 
    "ADDRESS": "7658 S SEELEY AVE", 
    "YEAR": 2012, 
    "LONGITUDE": -87.674601603, 
    "LATTITUDE": 41.753950878
  }, 
  {
    "BUSINESS_TYPE": "Shared Kitchen User", 
    "LEGAL_NAME": "RANDALL HUNT", 
    "STATE": "IL", 
    "DOING_BUSINESS_AS_NAME": "COOKIES BY ESSY", 
    "POP_AT_RISK": 45576, 
    "ZIP": 60609, 
    "ADDRESS": "4953 S WINCHESTER AVE", 
    "YEAR": 2012, 
    "LONGITUDE": -87.673198555, 
    "LATTITUDE": 41.803315206
  }, 
  {
    "BUSINESS_TYPE": "Shared Kitchen User", 
    "LEGAL_NAME": "FRANCES JEAN LLC", 
    "STATE": "IL", 
    "DOING_BUSINESS_AS_NAME": "FRANCES JEAN LLC", 
    "POP_AT_RISK": 73000, 
    "ZIP": 60657, 
    "ADDRESS": "1845 W MELROSE ST 1ST 1", 
    "YEAR": 2012, 
    "LONGITUDE": -87.675700096, 
    "LATTITUDE": 41.940409198
  }, 
  {
    "BUSINESS_TYPE": "Shared Kitchen User", 
    "LEGAL_NAME": "SENAIT ZEKUSKUAM", 
    "STATE": "IL", 
    "DOING_BUSINESS_AS_NAME": "SENI CATERING", 
    "POP_AT_RISK": 56950, 
    "ZIP": 60626, 
    "ADDRESS": "1222 W PRATT BLVD", 
    "YEAR": 2012, 
    "LONGITUDE": -87.661902812, 
    "LATTITUDE": 42.005635753
  }, 
  {
    "BUSINESS_TYPE": "Shared Kitchen User", 
    "LEGAL_NAME": "CAFE MARMALADE, LTD.", 
    "STATE": "IL", 
    "DOING_BUSINESS_AS_NAME": "SWEET PEA CATERING SERVICES", 
    "POP_AT_RISK": 42100, 
    "ZIP": 60608, 
    "ADDRESS": "1334 W 18TH PL 1R", 
    "YEAR": 2012, 
    "LONGITUDE": -87.660263628, 
    "LATTITUDE": 41.857093116
  }, 
  {
    "BUSINESS_TYPE": "Shared Kitchen User", 
    "LEGAL_NAME": "COURTNEY  NGOZI NZERIBE", 
    "STATE": "IL", 
    "DOING_BUSINESS_AS_NAME": "COCO COOKS", 
    "POP_AT_RISK": 39605, 
    "ZIP": 60615, 
    "ADDRESS": "4752 S ELLIS AVE", 
    "YEAR": 2012, 
    "LONGITUDE": -87.601815055, 
    "LATTITUDE": 41.80802998
  }, 
  {
    "BUSINESS_TYPE": "Shared Kitchen User", 
    "LEGAL_NAME": "\"SWEET SUGAH\" CATERING BOUTIQUE, INC.", 
    "STATE": "IL", 
    "DOING_BUSINESS_AS_NAME": "\"SWEET SUGAH\" CATERING BOUTIQUE", 
    "POP_AT_RISK": 37431, 
    "ZIP": 60629, 
    "ADDRESS": "3500 W 72ND ST 1ST", 
    "YEAR": 2012, 
    "LONGITUDE": -87.710207911, 
    "LATTITUDE": 41.762561993
  }, 
  {
    "BUSINESS_TYPE": "Shared Kitchen User", 
    "LEGAL_NAME": "AUNTIE JO'S YUMMIES, INC.", 
    "STATE": "IL", 
    "DOING_BUSINESS_AS_NAME": "AUNTIE JO'S YUMMIES, INC.", 
    "POP_AT_RISK": 44841, 
    "ZIP": 60625, 
    "ADDRESS": "2637 W BALMORAL AVE 1ST 1 E", 
    "YEAR": 2012, 
    "LONGITUDE": -87.695655417, 
    "LATTITUDE": 41.979381927
  }, 
  {
    "BUSINESS_TYPE": "Shared Kitchen User", 
    "LEGAL_NAME": "MADDIEBIRD BAKERY, LLC", 
    "STATE": "IL", 
    "DOING_BUSINESS_AS_NAME": "MADDIEBIRD BAKERY", 
    "POP_AT_RISK": 72977, 
    "ZIP": 60660, 
    "ADDRESS": "1515 W THORNDALE AVE", 
    "YEAR": 2012, 
    "LONGITUDE": -87.668846503, 
    "LATTITUDE": 41.989817774
  }, 
  {
    "BUSINESS_TYPE": "Shared Kitchen User", 
    "LEGAL_NAME": "LATITUDE20 LLC", 
    "STATE": "IL", 
    "DOING_BUSINESS_AS_NAME": "LATITUDE20 LLC", 
    "POP_AT_RISK": 53090, 
    "ZIP": 60618, 
    "ADDRESS": "2452 W FLETCHER ST 1ST", 
    "YEAR": 2012, 
    "LONGITUDE": -87.689885107, 
    "LATTITUDE": 41.938613262
  }, 
  {
    "BUSINESS_TYPE": "Shared Kitchen User", 
    "LEGAL_NAME": "THE JIBARITO STOP, LLC", 
    "STATE": "IL", 
    "DOING_BUSINESS_AS_NAME": "THE JIBARITO STOP LLC", 
    "POP_AT_RISK": 48249, 
    "ZIP": 60608, 
    "ADDRESS": "2100 W CULLERTON ST 1ST 1 M", 
    "YEAR": 2012, 
    "LONGITUDE": -87.678490302, 
    "LATTITUDE": 41.855002325
  }, 
  {
    "BUSINESS_TYPE": "Shared Kitchen User", 
    "LEGAL_NAME": "LUCILA' S HOMEMADE, LLC", 
    "STATE": "IL", 
    "DOING_BUSINESS_AS_NAME": "LUCILA' S HOMEMADE", 
    "POP_AT_RISK": 72387, 
    "ZIP": 60618, 
    "ADDRESS": "4151 N CLAREMONT AVE", 
    "YEAR": 2012, 
    "LONGITUDE": -87.687205902, 
    "LATTITUDE": 41.957370038
  }, 
  {
    "BUSINESS_TYPE": "Shared Kitchen User", 
    "LEGAL_NAME": "CHARMAINE BURTON-JOHNSON", 
    "STATE": "IL", 
    "DOING_BUSINESS_AS_NAME": "JAZZY BONES CATERING", 
    "POP_AT_RISK": 49394, 
    "ZIP": 60624, 
    "ADDRESS": "3644 W GRENSHAW ST 3RD", 
    "YEAR": 2012, 
    "LONGITUDE": -87.717189706, 
    "LATTITUDE": 41.867288501
  }, 
  {
    "BUSINESS_TYPE": "Shared Kitchen User", 
    "LEGAL_NAME": "THE BACON LADY, INC.", 
    "STATE": "IL", 
    "DOING_BUSINESS_AS_NAME": "THE BACON LADY, INC.", 
    "POP_AT_RISK": 23928, 
    "ZIP": 60631, 
    "ADDRESS": "6979 W DEVON AVE", 
    "YEAR": 2012, 
    "LONGITUDE": -87.802362205, 
    "LATTITUDE": 41.997254547
  }, 
  {
    "BUSINESS_TYPE": "Shared Kitchen User", 
    "LEGAL_NAME": "MS PATTI SWEET CAKES LLC", 
    "STATE": "IL", 
    "DOING_BUSINESS_AS_NAME": "MS PATTI SWEET CAKES LLC", 
    "POP_AT_RISK": 28106, 
    "ZIP": 60637, 
    "ADDRESS": "5632 S PRAIRIE AVE 1ST 1N", 
    "YEAR": 2012, 
    "LONGITUDE": -87.619298631, 
    "LATTITUDE": 41.791946936
  }, 
  {
    "BUSINESS_TYPE": "Shared Kitchen User", 
    "LEGAL_NAME": "URBAN VEGETARIAN LLC", 
    "STATE": "IL", 
    "DOING_BUSINESS_AS_NAME": "URBAN VEGETARIAN LLC", 
    "POP_AT_RISK": 35236, 
    "ZIP": 60653, 
    "ADDRESS": "4245 S DR MARTIN LUTHER KING JR DR", 
    "YEAR": 2012, 
    "LONGITUDE": -87.616660559, 
    "LATTITUDE": 41.817153441
  }, 
  {
    "BUSINESS_TYPE": "Shared Kitchen User", 
    "LEGAL_NAME": "OLUSHOLA ABIDEMI JOHNSON", 
    "STATE": "IL", 
    "DOING_BUSINESS_AS_NAME": "E'CLAT TAPAS", 
    "POP_AT_RISK": 38766, 
    "ZIP": 60616, 
    "ADDRESS": "2920 S WENTWORTH AVE  2", 
    "YEAR": 2012, 
    "LONGITUDE": -87.631867249, 
    "LATTITUDE": 41.840490133
  }, 
  {
    "BUSINESS_TYPE": "Shared Kitchen User", 
    "LEGAL_NAME": "O'NEAL HENRY WILBURN", 
    "STATE": "IL", 
    "DOING_BUSINESS_AS_NAME": "NEAL'S CUISINES", 
    "POP_AT_RISK": 22570, 
    "ZIP": 60619, 
    "ADDRESS": "9342 S FOREST AVE", 
    "YEAR": 2012, 
    "LONGITUDE": -87.616770431, 
    "LATTITUDE": 41.724219805
  }, 
  {
    "BUSINESS_TYPE": "Shared Kitchen User", 
    "LEGAL_NAME": "JOHNETTA REEVES", 
    "STATE": "IL", 
    "DOING_BUSINESS_AS_NAME": "JOHNETTA'S", 
    "POP_AT_RISK": 11739, 
    "ZIP": 60643, 
    "ADDRESS": "9327 S CLAREMONT AVE", 
    "YEAR": 2012, 
    "LONGITUDE": -87.680772324, 
    "LATTITUDE": 41.723732054
  }, 
  {
    "BUSINESS_TYPE": "Shared Kitchen User", 
    "LEGAL_NAME": "JUBA A. WILLIAMS", 
    "STATE": "IL", 
    "DOING_BUSINESS_AS_NAME": "J 'S GOURMET", 
    "POP_AT_RISK": 38121, 
    "ZIP": 60649, 
    "ADDRESS": "7309 S OGLESBY AVE 2 2", 
    "YEAR": 2012, 
    "LONGITUDE": -87.56751217, 
    "LATTITUDE": 41.76229178
  }, 
  {
    "BUSINESS_TYPE": "Shared Kitchen User", 
    "LEGAL_NAME": "WINDY CITY CHEFS, L.P.", 
    "STATE": "IL", 
    "DOING_BUSINESS_AS_NAME": "WINDY CITY CHEFS, L.P.", 
    "POP_AT_RISK": 41453, 
    "ZIP": 60620, 
    "ADDRESS": "8634 S ELIZABETH ST", 
    "YEAR": 2012, 
    "LONGITUDE": -87.654723226, 
    "LATTITUDE": 41.73668301
  }, 
  {
    "BUSINESS_TYPE": "Shared Kitchen User", 
    "LEGAL_NAME": "SHARNELL HENDERSON", 
    "STATE": "IL", 
    "DOING_BUSINESS_AS_NAME": "CAKE LADY'S HOMEMADE CAKES", 
    "POP_AT_RISK": 25978, 
    "ZIP": 60643, 
    "ADDRESS": "10649 S SANGAMON ST", 
    "YEAR": 2012, 
    "LONGITUDE": -87.646117769, 
    "LATTITUDE": 41.699931444
  }
]