[
  {
    "BUSINESS_TYPE": "Limited Business License", 
    "LEGAL_NAME": "WILLIE J GREEN", 
    "STATE": "IL", 
    "DOING_BUSINESS_AS_NAME": "GREEN'S JANITORIAL", 
    "POP_AT_RISK": 43564, 
    "ZIP": 60620, 
    "ADDRESS": "1150 W 78TH ST 1ST", 
    "YEAR": 1997, 
    "LONGITUDE": -87.653393652, 
    "LATTITUDE": 41.752433435
  }, 
  {
    "BUSINESS_TYPE": "Limited Business License", 
    "LEGAL_NAME": "M GUTIERREZ & C HELMS", 
    "STATE": "IL", 
    "DOING_BUSINESS_AS_NAME": "RAY'S LAWN CARE", 
    "POP_AT_RISK": 22620, 
    "ZIP": 60608, 
    "ADDRESS": "1850 W 33RD ST 1ST", 
    "YEAR": 1997, 
    "LONGITUDE": -87.672564423, 
    "LATTITUDE": 41.834179001
  }, 
  {
    "BUSINESS_TYPE": "Limited Business License", 
    "LEGAL_NAME": "GLADYS MIRANDA", 
    "STATE": "IL", 
    "DOING_BUSINESS_AS_NAME": "F M RESALE", 
    "POP_AT_RISK": 50264, 
    "ZIP": 60641, 
    "ADDRESS": "4908 W IRVING PARK RD 1ST", 
    "YEAR": 1997, 
    "LONGITUDE": -87.750248227, 
    "LATTITUDE": 41.953485015
  }, 
  {
    "BUSINESS_TYPE": "Limited Business License", 
    "LEGAL_NAME": "STEER FINANCIAL SERVICES INC", 
    "STATE": "IL", 
    "DOING_BUSINESS_AS_NAME": "STEER FINANCIAL SERVICE INC", 
    "POP_AT_RISK": 15722, 
    "ZIP": 60646, 
    "ADDRESS": "5901 N CICERO AVE 1ST", 
    "YEAR": 1997, 
    "LONGITUDE": -87.748175392, 
    "LATTITUDE": 41.988815533
  }, 
  {
    "BUSINESS_TYPE": "Limited Business License", 
    "LEGAL_NAME": "59TH & PULASKI INC", 
    "STATE": "IL", 
    "DOING_BUSINESS_AS_NAME": "59TH & PULASKI COIN LAUNDRY", 
    "POP_AT_RISK": 55296, 
    "ZIP": 60629, 
    "ADDRESS": "5849 S PULASKI RD 1ST", 
    "YEAR": 1997, 
    "LONGITUDE": -87.722826528, 
    "LATTITUDE": 41.786299253
  }, 
  {
    "BUSINESS_TYPE": "Limited Business License", 
    "LEGAL_NAME": "NORTHERN SUPPLY INC", 
    "STATE": "IL", 
    "DOING_BUSINESS_AS_NAME": "NORTHERN SUPPLY INC", 
    "POP_AT_RISK": 23740, 
    "ZIP": 60643, 
    "ADDRESS": "1818 W 103RD ST  1", 
    "YEAR": 1997, 
    "LONGITUDE": -87.667896916, 
    "LATTITUDE": 41.706713515
  }, 
  {
    "BUSINESS_TYPE": "Limited Business License", 
    "LEGAL_NAME": "LILIA RODRIQUEZ", 
    "STATE": "IL", 
    "DOING_BUSINESS_AS_NAME": "LILY'S UNISEX", 
    "POP_AT_RISK": 53523, 
    "ZIP": 60622, 
    "ADDRESS": "911 N ASHLAND AVE 1ST", 
    "YEAR": 1997, 
    "LONGITUDE": -87.667204516, 
    "LATTITUDE": 41.898232249
  }, 
  {
    "BUSINESS_TYPE": "Limited Business License", 
    "LEGAL_NAME": "STAR PACKING & SUPPLY CO", 
    "STATE": "IL", 
    "DOING_BUSINESS_AS_NAME": "STAR PACKING & SUPPLY COMPANY", 
    "POP_AT_RISK": 18918, 
    "ZIP": 60631, 
    "ADDRESS": "6672 N NORTHWEST HWY 1ST", 
    "YEAR": 1997, 
    "LONGITUDE": -87.815361573, 
    "LATTITUDE": 42.002132727
  }, 
  {
    "BUSINESS_TYPE": "Limited Business License", 
    "LEGAL_NAME": "JEROME TOWNSEL", 
    "STATE": "IL", 
    "DOING_BUSINESS_AS_NAME": "T.A PAGERS & COMMUNICATIONS", 
    "POP_AT_RISK": 36265, 
    "ZIP": 60636, 
    "ADDRESS": "1625 W 63RD ST 1ST", 
    "YEAR": 1997, 
    "LONGITUDE": -87.665395155, 
    "LATTITUDE": 41.779325841
  }, 
  {
    "BUSINESS_TYPE": "Limited Business License", 
    "LEGAL_NAME": "JAVIER GARCIA", 
    "STATE": "IL", 
    "DOING_BUSINESS_AS_NAME": "NEW MILLENIUM CLASSIC FURNITUR", 
    "POP_AT_RISK": 46845, 
    "ZIP": 60632, 
    "ADDRESS": "2552 W 51ST ST 1ST", 
    "YEAR": 1997, 
    "LONGITUDE": -87.688809629, 
    "LATTITUDE": 41.801187949
  }, 
  {
    "BUSINESS_TYPE": "Limited Business License", 
    "LEGAL_NAME": "SECURE ROLLING SHUTTERS", 
    "STATE": "IL", 
    "DOING_BUSINESS_AS_NAME": "SECURE ROLLING SHUTTERS", 
    "POP_AT_RISK": 40932, 
    "ZIP": 60639, 
    "ADDRESS": "1823 N MONITOR AVE  1ST", 
    "YEAR": 1997, 
    "LONGITUDE": -87.771465034, 
    "LATTITUDE": 41.913624223
  }, 
  {
    "BUSINESS_TYPE": "Limited Business License", 
    "LEGAL_NAME": "K & L TRADING CORP", 
    "STATE": "IL", 
    "DOING_BUSINESS_AS_NAME": "K & L TRADING CORP", 
    "POP_AT_RISK": 67350, 
    "ZIP": 60625, 
    "ADDRESS": "3636  -3638 W LAWRENCE AVE 1ST", 
    "YEAR": 1997, 
    "LONGITUDE": -87.719774093, 
    "LATTITUDE": 41.968441963
  }, 
  {
    "BUSINESS_TYPE": "Limited Business License", 
    "LEGAL_NAME": "ALLEN WITHERSPOON", 
    "STATE": "IL", 
    "DOING_BUSINESS_AS_NAME": "SPOON'S BLACK VARIETY SHOP", 
    "POP_AT_RISK": 31674, 
    "ZIP": 60628, 
    "ADDRESS": "11125 S MICHIGAN AVE  1", 
    "YEAR": 1997, 
    "LONGITUDE": -87.620893663, 
    "LATTITUDE": 41.691812019
  }, 
  {
    "BUSINESS_TYPE": "Limited Business License", 
    "LEGAL_NAME": "COUNTER MAGIC CO INC", 
    "STATE": "IL", 
    "DOING_BUSINESS_AS_NAME": "COUNTER MAGIC COMPANY INC", 
    "POP_AT_RISK": 17956, 
    "ZIP": 60646, 
    "ADDRESS": "6454 N CENTRAL AVE 1ST", 
    "YEAR": 1997, 
    "LONGITUDE": -87.763390168, 
    "LATTITUDE": 41.998903295
  }, 
  {
    "BUSINESS_TYPE": "Limited Business License", 
    "LEGAL_NAME": "CLARK RIDGE CURRENCY EXC#7 INC", 
    "STATE": "IL", 
    "DOING_BUSINESS_AS_NAME": "CLARK RIDGE CURRENCY EXCHANGE", 
    "POP_AT_RISK": 72977, 
    "ZIP": 60660, 
    "ADDRESS": "5918 N CLARK ST", 
    "YEAR": 1997, 
    "LONGITUDE": -87.670057694, 
    "LATTITUDE": 41.988965703
  }, 
  {
    "BUSINESS_TYPE": "Limited Business License", 
    "LEGAL_NAME": "WILLIE L HARRIS", 
    "STATE": "IL", 
    "DOING_BUSINESS_AS_NAME": "FABRIQUARD CLEANERS", 
    "POP_AT_RISK": 31111, 
    "ZIP": 60644, 
    "ADDRESS": "5200 W HARRISON ST  1", 
    "YEAR": 1997, 
    "LONGITUDE": -87.75484369, 
    "LATTITUDE": 41.873055576
  }, 
  {
    "BUSINESS_TYPE": "Limited Business License", 
    "LEGAL_NAME": "YOLANDA VASQUEZ", 
    "STATE": "IL", 
    "DOING_BUSINESS_AS_NAME": "YOLANDA HAIR STYLING", 
    "POP_AT_RISK": 58248, 
    "ZIP": 60622, 
    "ADDRESS": "1446 N MILWAUKEE AVE 1ST", 
    "YEAR": 1997, 
    "LONGITUDE": -87.674115323, 
    "LATTITUDE": 41.908089208
  }, 
  {
    "BUSINESS_TYPE": "Limited Business License", 
    "LEGAL_NAME": "SPARKLE CAR WASH INC.", 
    "STATE": "IL", 
    "DOING_BUSINESS_AS_NAME": "SPARKLE CAR WASH INC.", 
    "POP_AT_RISK": 29973, 
    "ZIP": 60632, 
    "ADDRESS": "5252 S ARCHER AVE", 
    "YEAR": 1997, 
    "LONGITUDE": -87.73721691, 
    "LATTITUDE": 41.799688993
  }, 
  {
    "BUSINESS_TYPE": "Limited Business License", 
    "LEGAL_NAME": "MARK BAUSONE", 
    "STATE": "IL", 
    "DOING_BUSINESS_AS_NAME": "BAUSONE'S NOVELTIES", 
    "POP_AT_RISK": 35339, 
    "ZIP": 60632, 
    "ADDRESS": "5109 S PULASKI RD 1ST", 
    "YEAR": 1997, 
    "LONGITUDE": -87.723213612, 
    "LATTITUDE": 41.800091534
  }, 
  {
    "BUSINESS_TYPE": "Limited Business License", 
    "LEGAL_NAME": "A & P AUTO SALES & SERVICE INC", 
    "STATE": "IL", 
    "DOING_BUSINESS_AS_NAME": "A & P AUTO SALES", 
    "POP_AT_RISK": 62755, 
    "ZIP": 60639, 
    "ADDRESS": "2036 N CICERO AVE  1", 
    "YEAR": 1997, 
    "LONGITUDE": -87.746298891, 
    "LATTITUDE": 41.91806312
  }, 
  {
    "BUSINESS_TYPE": "Limited Business License", 
    "LEGAL_NAME": "HAROLD JOHNS CO WAREHOUSE", 
    "STATE": "IL", 
    "DOING_BUSINESS_AS_NAME": "HAROLD JOHNS CO WAREHOUSE", 
    "POP_AT_RISK": 41808, 
    "ZIP": 60608, 
    "ADDRESS": "2412 W 16TH ST", 
    "YEAR": 1997, 
    "LONGITUDE": -87.686390468, 
    "LATTITUDE": 41.859467226
  }, 
  {
    "BUSINESS_TYPE": "Limited Business License", 
    "LEGAL_NAME": "DEXTER LOCK SERVICE", 
    "STATE": "IL", 
    "DOING_BUSINESS_AS_NAME": "DEXTER LOCK SERVICE", 
    "POP_AT_RISK": 91277, 
    "ZIP": 60657, 
    "ADDRESS": "3300 N HALSTED ST 1ST", 
    "YEAR": 1997, 
    "LONGITUDE": -87.649475714, 
    "LATTITUDE": 41.941838281
  }, 
  {
    "BUSINESS_TYPE": "Limited Business License", 
    "LEGAL_NAME": "THE SATIN PLEAT INC", 
    "STATE": "IL", 
    "DOING_BUSINESS_AS_NAME": "THE SATIN PLEAT INC", 
    "POP_AT_RISK": 42373, 
    "ZIP": 60632, 
    "ADDRESS": "4127 S RICHMOND ST 1ST", 
    "YEAR": 1997, 
    "LONGITUDE": -87.697920254, 
    "LATTITUDE": 41.818200576
  }, 
  {
    "BUSINESS_TYPE": "Limited Business License", 
    "LEGAL_NAME": "J M D CONSULTANTS INC", 
    "STATE": "IL", 
    "DOING_BUSINESS_AS_NAME": "J M D CONSULTANTS INC", 
    "POP_AT_RISK": 76711, 
    "ZIP": 60614, 
    "ADDRESS": "2501 N LINCOLN AVE  144", 
    "YEAR": 1997, 
    "LONGITUDE": -87.651219769, 
    "LATTITUDE": 41.927356167
  }, 
  {
    "BUSINESS_TYPE": "Limited Business License", 
    "LEGAL_NAME": "ALONZETTA JACKSON", 
    "STATE": "IL", 
    "DOING_BUSINESS_AS_NAME": "SALON 812", 
    "POP_AT_RISK": 48450, 
    "ZIP": 60607, 
    "ADDRESS": "812 W VAN BUREN ST 1ST", 
    "YEAR": 1997, 
    "LONGITUDE": -87.647788289, 
    "LATTITUDE": 41.876772487
  }, 
  {
    "BUSINESS_TYPE": "Limited Business License", 
    "LEGAL_NAME": "MIRANDA FURNITURE & ELECTRONIC", 
    "STATE": "IL", 
    "DOING_BUSINESS_AS_NAME": "MIRANDA FURNITURE & ELECTRONIC", 
    "POP_AT_RISK": 79068, 
    "ZIP": 60647, 
    "ADDRESS": "3306 W ARMITAGE AVE 1ST", 
    "YEAR": 1997, 
    "LONGITUDE": -87.710604191, 
    "LATTITUDE": 41.9174667
  }, 
  {
    "BUSINESS_TYPE": "Limited Business License", 
    "LEGAL_NAME": "CHARLES M EDWARDS", 
    "STATE": "IL", 
    "DOING_BUSINESS_AS_NAME": "CHAS HAIR CARE", 
    "POP_AT_RISK": 22570, 
    "ZIP": 60619, 
    "ADDRESS": "319 E 95TH ST", 
    "YEAR": 1997, 
    "LONGITUDE": -87.615682242, 
    "LATTITUDE": 41.721756302
  }, 
  {
    "BUSINESS_TYPE": "Limited Business License", 
    "LEGAL_NAME": "TIARA HOME OWNERS ASSOCIATION", 
    "STATE": "IL", 
    "DOING_BUSINESS_AS_NAME": "TIARA HOMEOWNERS ASSOCIATION", 
    "POP_AT_RISK": 52646, 
    "ZIP": 60660, 
    "ADDRESS": "6145  -6147 N SHERIDAN RD  1", 
    "YEAR": 1997, 
    "LONGITUDE": -87.655351217, 
    "LATTITUDE": 41.993640302
  }, 
  {
    "BUSINESS_TYPE": "Limited Business License", 
    "LEGAL_NAME": "DOUGLAS TV & APPLIANCE INC", 
    "STATE": "IL", 
    "DOING_BUSINESS_AS_NAME": "DOUGLAS TV & APPLIANCE INC", 
    "POP_AT_RISK": 74203, 
    "ZIP": 60618, 
    "ADDRESS": "4027 N LINCOLN AVE", 
    "YEAR": 1997, 
    "LONGITUDE": -87.679231515, 
    "LATTITUDE": 41.955074379
  }, 
  {
    "BUSINESS_TYPE": "Limited Business License", 
    "LEGAL_NAME": "TIMOTHY DAVIS", 
    "STATE": "IL", 
    "DOING_BUSINESS_AS_NAME": "DAVIS IRON WORKS", 
    "POP_AT_RISK": 54559, 
    "ZIP": 60644, 
    "ADDRESS": "4815 W LAKE ST 1ST", 
    "YEAR": 1997, 
    "LONGITUDE": -87.746165903, 
    "LATTITUDE": 41.886560934
  }, 
  {
    "BUSINESS_TYPE": "Limited Business License", 
    "LEGAL_NAME": "LORI'S HAIR FX SALON INC", 
    "STATE": "IL", 
    "DOING_BUSINESS_AS_NAME": "LORI'S HAIR FX SALON INC", 
    "POP_AT_RISK": 25250, 
    "ZIP": 60628, 
    "ADDRESS": "10824 S HALSTED ST", 
    "YEAR": 1997, 
    "LONGITUDE": -87.642672746, 
    "LATTITUDE": 41.697068314
  }, 
  {
    "BUSINESS_TYPE": "Limited Business License", 
    "LEGAL_NAME": "EAGLE COLLISON SPECALISTS INC", 
    "STATE": "IL", 
    "DOING_BUSINESS_AS_NAME": "EAGLE AUTO SALES", 
    "POP_AT_RISK": 55818, 
    "ZIP": 60647, 
    "ADDRESS": "2201 N MILWAUKEE AVE 1ST", 
    "YEAR": 1997, 
    "LONGITUDE": -87.6938545, 
    "LATTITUDE": 41.920903761
  }, 
  {
    "BUSINESS_TYPE": "Limited Business License", 
    "LEGAL_NAME": "EMPERATRIS L GUEVARA", 
    "STATE": "IL", 
    "DOING_BUSINESS_AS_NAME": "PAGER-26", 
    "POP_AT_RISK": 49064, 
    "ZIP": 60623, 
    "ADDRESS": "4058 W 26TH ST 1ST", 
    "YEAR": 1997, 
    "LONGITUDE": -87.72694215, 
    "LATTITUDE": 41.844331601
  }, 
  {
    "BUSINESS_TYPE": "Limited Business License", 
    "LEGAL_NAME": "POLVISION/POLSTUDIOS", 
    "STATE": "IL", 
    "DOING_BUSINESS_AS_NAME": "POLVISION/POLSTUDIOS", 
    "POP_AT_RISK": 69986, 
    "ZIP": 60618, 
    "ADDRESS": "3656 W BELMONT AVE", 
    "YEAR": 1997, 
    "LONGITUDE": -87.719634283, 
    "LATTITUDE": 41.939298486
  }, 
  {
    "BUSINESS_TYPE": "Limited Business License", 
    "LEGAL_NAME": "CHERRICH LIMITED", 
    "STATE": "IL", 
    "DOING_BUSINESS_AS_NAME": "BEVERLY HOT SPOT", 
    "POP_AT_RISK": 22491, 
    "ZIP": 60643, 
    "ADDRESS": "10324 S WESTERN AVE  1", 
    "YEAR": 1997, 
    "LONGITUDE": -87.681742568, 
    "LATTITUDE": 41.705604325
  }, 
  {
    "BUSINESS_TYPE": "Limited Business License", 
    "LEGAL_NAME": "HOAI NGUYEN", 
    "STATE": "IL", 
    "DOING_BUSINESS_AS_NAME": "HYDE PARK NAILS", 
    "POP_AT_RISK": 40277, 
    "ZIP": 60615, 
    "ADDRESS": "1350 E 53RD ST  1ST", 
    "YEAR": 1997, 
    "LONGITUDE": -87.592999562, 
    "LATTITUDE": 41.799604623
  }, 
  {
    "BUSINESS_TYPE": "Limited Business License", 
    "LEGAL_NAME": "GHASSAN BARAKAT", 
    "STATE": "IL", 
    "DOING_BUSINESS_AS_NAME": "AL-BOSTAAN PUBLISHING & PRINT", 
    "POP_AT_RISK": 27493, 
    "ZIP": 60652, 
    "ADDRESS": "8301 S PULASKI RD 1ST", 
    "YEAR": 1997, 
    "LONGITUDE": -87.721531071, 
    "LATTITUDE": 41.742136324
  }, 
  {
    "BUSINESS_TYPE": "Limited Business License", 
    "LEGAL_NAME": "THOMAS PEREZ", 
    "STATE": "IL", 
    "DOING_BUSINESS_AS_NAME": "AARON COMMUNICATIONS", 
    "POP_AT_RISK": 63279, 
    "ZIP": 60618, 
    "ADDRESS": "3535 W IRVING PARK RD", 
    "YEAR": 1997, 
    "LONGITUDE": -87.716804184, 
    "LATTITUDE": 41.953691151
  }, 
  {
    "BUSINESS_TYPE": "Limited Business License", 
    "LEGAL_NAME": "BONG KIM", 
    "STATE": "IL", 
    "DOING_BUSINESS_AS_NAME": "KIM'S CLEANERS", 
    "POP_AT_RISK": 34691, 
    "ZIP": 60626, 
    "ADDRESS": "7630  -7636 N ROGERS AVE  1", 
    "YEAR": 1997, 
    "LONGITUDE": -87.666945607, 
    "LATTITUDE": 42.020112714
  }, 
  {
    "BUSINESS_TYPE": "Limited Business License", 
    "LEGAL_NAME": "RAYMOND L BELL", 
    "STATE": "IL", 
    "DOING_BUSINESS_AS_NAME": "BELL'S CLEANERS", 
    "POP_AT_RISK": 20929, 
    "ZIP": 60617, 
    "ADDRESS": "9543 S JEFFERY AVE", 
    "YEAR": 1997, 
    "LONGITUDE": -87.575177695, 
    "LATTITUDE": 41.721146927
  }, 
  {
    "BUSINESS_TYPE": "Limited Business License", 
    "LEGAL_NAME": "J J HOBEAU INC", 
    "STATE": "IL", 
    "DOING_BUSINESS_AS_NAME": "J J HOBEAU INC", 
    "POP_AT_RISK": 46006, 
    "ZIP": 60608, 
    "ADDRESS": "1100 W CERMAK RD  C201", 
    "YEAR": 1997, 
    "LONGITUDE": -87.653088177, 
    "LATTITUDE": 41.852654288
  }, 
  {
    "BUSINESS_TYPE": "Limited Business License", 
    "LEGAL_NAME": "MARK BAUSONE", 
    "STATE": "IL", 
    "DOING_BUSINESS_AS_NAME": "BAUSONE'S NOVELTIES", 
    "POP_AT_RISK": 71374, 
    "ZIP": 60629, 
    "ADDRESS": "5859 S KEDZIE AVE 1ST", 
    "YEAR": 1997, 
    "LONGITUDE": -87.703204308, 
    "LATTITUDE": 41.786341198
  }
]