[
  {
    "BUSINESS_TYPE": "Regulated Business License", 
    "LEGAL_NAME": "Svetlana Schluter", 
    "STATE": "IL", 
    "DOING_BUSINESS_AS_NAME": "Chicago Permanent Makeup by Lana Schluter RN, BSN", 
    "POP_AT_RISK": 11498, 
    "ZIP": 60646, 
    "ADDRESS": "4001 W DEVON AVE 3RD FLOOR 320-A", 
    "YEAR": 2010, 
    "LONGITUDE": -87.728969868, 
    "LATTITUDE": 41.997129084
  }, 
  {
    "BUSINESS_TYPE": "Regulated Business License", 
    "LEGAL_NAME": "FITNESS & SPORTS CLUBS, LLC", 
    "STATE": "IL", 
    "DOING_BUSINESS_AS_NAME": "L A FIT, L A FITNESS  AND PRO RESULTS", 
    "POP_AT_RISK": 50298, 
    "ZIP": 60641, 
    "ADDRESS": "3970 N MILWAUKEE AVE", 
    "YEAR": 2010, 
    "LONGITUDE": -87.746709377, 
    "LATTITUDE": 41.952892541
  }, 
  {
    "BUSINESS_TYPE": "Regulated Business License", 
    "LEGAL_NAME": "SILVERIO ARIZMENDI", 
    "STATE": "IL", 
    "DOING_BUSINESS_AS_NAME": "LAVANDERIA YANELI'S", 
    "POP_AT_RISK": 62258, 
    "ZIP": 60651, 
    "ADDRESS": "1528 N PULASKI RD 1ST", 
    "YEAR": 2010, 
    "LONGITUDE": -87.726631667, 
    "LATTITUDE": 41.908989624
  }, 
  {
    "BUSINESS_TYPE": "Regulated Business License", 
    "LEGAL_NAME": "CHICAGO BIOFUELS LLC", 
    "STATE": "IL", 
    "DOING_BUSINESS_AS_NAME": "CHICAGO BIOFUELS LLC", 
    "POP_AT_RISK": 59065, 
    "ZIP": 60632, 
    "ADDRESS": "4800 S RICHMOND ST BASEMENT", 
    "YEAR": 2010, 
    "LONGITUDE": -87.697959339, 
    "LATTITUDE": 41.806253722
  }, 
  {
    "BUSINESS_TYPE": "Regulated Business License", 
    "LEGAL_NAME": "THE BURNT TIGER, INC.", 
    "STATE": "IL", 
    "DOING_BUSINESS_AS_NAME": "THE BURNT TIGER", 
    "POP_AT_RISK": 79768, 
    "ZIP": 60618, 
    "ADDRESS": "2438 W IRVING PARK RD 1", 
    "YEAR": 2010, 
    "LONGITUDE": -87.690009698, 
    "LATTITUDE": 41.954099595
  }, 
  {
    "BUSINESS_TYPE": "Regulated Business License", 
    "LEGAL_NAME": "SOLA LAWRENCE TAN, INC.", 
    "STATE": "IL", 
    "DOING_BUSINESS_AS_NAME": "L.A. TAN", 
    "POP_AT_RISK": 65743, 
    "ZIP": 60625, 
    "ADDRESS": "2545 W LAWRENCE AVE GROUND", 
    "YEAR": 2010, 
    "LONGITUDE": -87.693146582, 
    "LATTITUDE": 41.968467526
  }, 
  {
    "BUSINESS_TYPE": "Regulated Business License", 
    "LEGAL_NAME": "TAMPICO TAILOR SHOP", 
    "STATE": "IL", 
    "DOING_BUSINESS_AS_NAME": "TAMPICO TAILOR SHOP", 
    "POP_AT_RISK": 36484, 
    "ZIP": 60639, 
    "ADDRESS": "6054 W NORTH AVE", 
    "YEAR": 2010, 
    "LONGITUDE": -87.777449693, 
    "LATTITUDE": 41.909340027
  }, 
  {
    "BUSINESS_TYPE": "Regulated Business License", 
    "LEGAL_NAME": "SANG LEE", 
    "STATE": "IL", 
    "DOING_BUSINESS_AS_NAME": "Granville Cleaners", 
    "POP_AT_RISK": 58277, 
    "ZIP": 60660, 
    "ADDRESS": "1110 W GRANVILLE AVE 1", 
    "YEAR": 2010, 
    "LONGITUDE": -87.658793695, 
    "LATTITUDE": 41.99468023
  }, 
  {
    "BUSINESS_TYPE": "Regulated Business License", 
    "LEGAL_NAME": "UPTOWN GYM & FITNESS, INC.", 
    "STATE": "IL", 
    "DOING_BUSINESS_AS_NAME": "WORLD GYM - BISHOP", 
    "POP_AT_RISK": 42100, 
    "ZIP": 60608, 
    "ADDRESS": "1822 S BISHOP ST", 
    "YEAR": 2010, 
    "LONGITUDE": -87.662819921, 
    "LATTITUDE": 41.85707023
  }, 
  {
    "BUSINESS_TYPE": "Regulated Business License", 
    "LEGAL_NAME": "VICENTE SARMIENTO", 
    "STATE": "IL", 
    "DOING_BUSINESS_AS_NAME": "SARMIENTO'S TAILOR SHOP", 
    "POP_AT_RISK": 54016, 
    "ZIP": 60608, 
    "ADDRESS": "2149 S CALIFORNIA AVE", 
    "YEAR": 2010, 
    "LONGITUDE": -87.695309075, 
    "LATTITUDE": 41.852266238
  }, 
  {
    "BUSINESS_TYPE": "Regulated Business License", 
    "LEGAL_NAME": "JOSE RODRIGUEZ", 
    "STATE": "IL", 
    "DOING_BUSINESS_AS_NAME": "JOSE RODRIGUEZ", 
    "POP_AT_RISK": 59657, 
    "ZIP": 60630, 
    "ADDRESS": "4713 N KEYSTONE AVE", 
    "YEAR": 2010, 
    "LONGITUDE": -87.729036237, 
    "LATTITUDE": 41.966100992
  }, 
  {
    "BUSINESS_TYPE": "Regulated Business License", 
    "LEGAL_NAME": "B.B. BEAR ENTERPRISES, INC.", 
    "STATE": "IL", 
    "DOING_BUSINESS_AS_NAME": "B. BARE TANNING", 
    "POP_AT_RISK": 22463, 
    "ZIP": 60638, 
    "ADDRESS": "6057 W 63RD ST 1 1", 
    "YEAR": 2010, 
    "LONGITUDE": -87.77379431, 
    "LATTITUDE": 41.777709152
  }, 
  {
    "BUSINESS_TYPE": "Regulated Business License", 
    "LEGAL_NAME": "DIVINA G. CONDEMI", 
    "STATE": "IL", 
    "DOING_BUSINESS_AS_NAME": "ESCAPE TAN AND SPA", 
    "POP_AT_RISK": 39781, 
    "ZIP": 60616, 
    "ADDRESS": "459 W 26TH ST 1", 
    "YEAR": 2010, 
    "LONGITUDE": -87.638979851, 
    "LATTITUDE": 41.845317979
  }, 
  {
    "BUSINESS_TYPE": "Regulated Business License", 
    "LEGAL_NAME": "FRANCISCO PENALOZA", 
    "STATE": "IL", 
    "DOING_BUSINESS_AS_NAME": "FRANCISCO PENALOZA", 
    "POP_AT_RISK": 67703, 
    "ZIP": 60647, 
    "ADDRESS": "1825 N ST LOUIS AVE 2", 
    "YEAR": 2010, 
    "LONGITUDE": -87.71329815, 
    "LATTITUDE": 41.914462996
  }, 
  {
    "BUSINESS_TYPE": "Regulated Business License", 
    "LEGAL_NAME": "ALLIED WASTE TRANSPORTATION, INC.", 
    "STATE": "IL", 
    "DOING_BUSINESS_AS_NAME": "ALLIED WASTE OF CHICAGO", 
    "POP_AT_RISK": 40300, 
    "ZIP": 60608, 
    "ADDRESS": "2608 S DAMEN AVE", 
    "YEAR": 2010, 
    "LONGITUDE": -87.675788039, 
    "LATTITUDE": 41.844511469
  }, 
  {
    "BUSINESS_TYPE": "Regulated Business License", 
    "LEGAL_NAME": "ATHLETICO SPORTS MEDICINE & PHYSICAL THERAPY CENTER AT GARFIELD RIDGE, LLC", 
    "STATE": "IL", 
    "DOING_BUSINESS_AS_NAME": "ATHLETICO SPORTS MEDICINE", 
    "POP_AT_RISK": 27535, 
    "ZIP": 60638, 
    "ADDRESS": "6255 S ARCHER AVE", 
    "YEAR": 2010, 
    "LONGITUDE": -87.776536029, 
    "LATTITUDE": 41.793424749
  }, 
  {
    "BUSINESS_TYPE": "Regulated Business License", 
    "LEGAL_NAME": "FMHC CORPORATION", 
    "STATE": "IL", 
    "DOING_BUSINESS_AS_NAME": "DALIA FAYE LAUFER", 
    "POP_AT_RISK": 19154, 
    "ZIP": 60631, 
    "ADDRESS": "8600 W BRYN MAWR AVE 6TH 600 N", 
    "YEAR": 2010, 
    "LONGITUDE": -87.841638423, 
    "LATTITUDE": 41.981134545
  }, 
  {
    "BUSINESS_TYPE": "Regulated Business License", 
    "LEGAL_NAME": "CARDINAL FITNESS", 
    "STATE": "IL", 
    "DOING_BUSINESS_AS_NAME": "CARDINAL FITNESS OF MADISON AVE., LLC", 
    "POP_AT_RISK": 41809, 
    "ZIP": 60607, 
    "ADDRESS": "1301 W MADISON ST", 
    "YEAR": 2010, 
    "LONGITUDE": -87.65966035, 
    "LATTITUDE": 41.881463025
  }, 
  {
    "BUSINESS_TYPE": "Regulated Business License", 
    "LEGAL_NAME": "MIRA  5541 BELMONT TAN INC.", 
    "STATE": "IL", 
    "DOING_BUSINESS_AS_NAME": "L.A.TAN", 
    "POP_AT_RISK": 64311, 
    "ZIP": 60641, 
    "ADDRESS": "5541 W BELMONT AVE", 
    "YEAR": 2010, 
    "LONGITUDE": -87.765722636, 
    "LATTITUDE": 41.938474076
  }, 
  {
    "BUSINESS_TYPE": "Regulated Business License", 
    "LEGAL_NAME": "UPTOWN GYM & FITNESS, INC.", 
    "STATE": "IL", 
    "DOING_BUSINESS_AS_NAME": "UPTOWN GYM & FITNESS, INC.", 
    "POP_AT_RISK": 74302, 
    "ZIP": 60613, 
    "ADDRESS": "909 W MONTROSE AVE 1ST", 
    "YEAR": 2010, 
    "LONGITUDE": -87.652746616, 
    "LATTITUDE": 41.961694968
  }, 
  {
    "BUSINESS_TYPE": "Regulated Business License", 
    "LEGAL_NAME": "JUAN CARLOS GARCIA", 
    "STATE": "IL", 
    "DOING_BUSINESS_AS_NAME": "CINDY'S", 
    "POP_AT_RISK": 17702, 
    "ZIP": 60617, 
    "ADDRESS": "9023 S COMMERCIAL AVE", 
    "YEAR": 2010, 
    "LONGITUDE": -87.551136863, 
    "LATTITUDE": 41.731189225
  }, 
  {
    "BUSINESS_TYPE": "Regulated Business License", 
    "LEGAL_NAME": "FOREST EDGE HEALTHCARE & REHABILITATION CENTER, LLC", 
    "STATE": "IL", 
    "DOING_BUSINESS_AS_NAME": "FOREST EDGE HEALTHCARE & REHABILITATION CENTER", 
    "POP_AT_RISK": 34213, 
    "ZIP": 60620, 
    "ADDRESS": "8001 S WESTERN AVE", 
    "YEAR": 2010, 
    "LONGITUDE": -87.68265725, 
    "LATTITUDE": 41.748245609
  }, 
  {
    "BUSINESS_TYPE": "Regulated Business License", 
    "LEGAL_NAME": "PF Washington Square, LLC", 
    "STATE": "IL", 
    "DOING_BUSINESS_AS_NAME": "Planet Fitness", 
    "POP_AT_RISK": 59777, 
    "ZIP": 60639, 
    "ADDRESS": "4905 W NORTH AVE 1", 
    "YEAR": 2010, 
    "LONGITUDE": -87.748856431, 
    "LATTITUDE": 41.909480172
  }, 
  {
    "BUSINESS_TYPE": "Regulated Business License", 
    "LEGAL_NAME": "DIAMOND WASTE & RECYCLING CORP.", 
    "STATE": "IL", 
    "DOING_BUSINESS_AS_NAME": "DIAMOND WASTE & RECYCLING CORP.", 
    "POP_AT_RISK": 31358, 
    "ZIP": 60620, 
    "ADDRESS": "8149 S WALLACE ST", 
    "YEAR": 2010, 
    "LONGITUDE": -87.638939494, 
    "LATTITUDE": 41.745557717
  }, 
  {
    "BUSINESS_TYPE": "Regulated Business License", 
    "LEGAL_NAME": "RUBY SPA INC", 
    "STATE": "IL", 
    "DOING_BUSINESS_AS_NAME": "RUBY SPA", 
    "POP_AT_RISK": 34104, 
    "ZIP": 60608, 
    "ADDRESS": "2971 S ARCHER AVE 1ST", 
    "YEAR": 2010, 
    "LONGITUDE": -87.660119668, 
    "LATTITUDE": 41.840471177
  }, 
  {
    "BUSINESS_TYPE": "Regulated Business License", 
    "LEGAL_NAME": "WDLI ENTERPRISE INC.", 
    "STATE": "IL", 
    "DOING_BUSINESS_AS_NAME": "TAO MASSAGE", 
    "POP_AT_RISK": 48917, 
    "ZIP": 60622, 
    "ADDRESS": "2625 W CHICAGO AVE 1ST 1", 
    "YEAR": 2010, 
    "LONGITUDE": -87.692811206, 
    "LATTITUDE": 41.895573357
  }, 
  {
    "BUSINESS_TYPE": "Regulated Business License", 
    "LEGAL_NAME": "Sang H Lee", 
    "STATE": "IL", 
    "DOING_BUSINESS_AS_NAME": "Eagle Cleaners", 
    "POP_AT_RISK": 27493, 
    "ZIP": 60652, 
    "ADDRESS": "8341 S PULASKI RD 1", 
    "YEAR": 2010, 
    "LONGITUDE": -87.721491086, 
    "LATTITUDE": 41.740928386
  }, 
  {
    "BUSINESS_TYPE": "Regulated Business License", 
    "LEGAL_NAME": "ONE MAGNIFICENT TAN, INC.", 
    "STATE": "IL", 
    "DOING_BUSINESS_AS_NAME": "ULTIMATE EXPOSURE", 
    "POP_AT_RISK": 60458, 
    "ZIP": 60614, 
    "ADDRESS": "2210 N CLARK ST # 1ST", 
    "YEAR": 2010, 
    "LONGITUDE": -87.638604957, 
    "LATTITUDE": 41.922243754
  }, 
  {
    "BUSINESS_TYPE": "Regulated Business License", 
    "LEGAL_NAME": "LILLIE LEFLORE", 
    "STATE": "IL", 
    "DOING_BUSINESS_AS_NAME": "TAILOR MADE CLOTHING CO.", 
    "POP_AT_RISK": 33096, 
    "ZIP": 60619, 
    "ADDRESS": "354 E 71ST ST 1 1", 
    "YEAR": 2010, 
    "LONGITUDE": -87.616335065, 
    "LATTITUDE": 41.765798533
  }, 
  {
    "BUSINESS_TYPE": "Regulated Business License", 
    "LEGAL_NAME": "DILIP GOHEL", 
    "STATE": "IL", 
    "DOING_BUSINESS_AS_NAME": "GHANSHAM TAILORS", 
    "POP_AT_RISK": 50720, 
    "ZIP": 60659, 
    "ADDRESS": "2735 W DEVON AVE  204", 
    "YEAR": 2010, 
    "LONGITUDE": -87.698559542, 
    "LATTITUDE": 41.997468131
  }, 
  {
    "BUSINESS_TYPE": "Regulated Business License", 
    "LEGAL_NAME": "DYE & WAVE, INC.", 
    "STATE": "IL", 
    "DOING_BUSINESS_AS_NAME": "DYE & WAVE", 
    "POP_AT_RISK": 75818, 
    "ZIP": 60641, 
    "ADDRESS": "2841 N PULASKI RD 1", 
    "YEAR": 2010, 
    "LONGITUDE": -87.726865638, 
    "LATTITUDE": 41.933016261
  }, 
  {
    "BUSINESS_TYPE": "Regulated Business License", 
    "LEGAL_NAME": "SALVADOR FLORES", 
    "STATE": "IL", 
    "DOING_BUSINESS_AS_NAME": "SALVADOR FLORES", 
    "POP_AT_RISK": 21953, 
    "ZIP": 60617, 
    "ADDRESS": "10437 S AVENUE M", 
    "YEAR": 2010, 
    "LONGITUDE": -87.537559463, 
    "LATTITUDE": 41.705285902
  }, 
  {
    "BUSINESS_TYPE": "Regulated Business License", 
    "LEGAL_NAME": "NEW WAVES LAUNDROMAT CO.", 
    "STATE": "IL", 
    "DOING_BUSINESS_AS_NAME": "NEW WAVES LAUNDROMAT CO.", 
    "POP_AT_RISK": 56337, 
    "ZIP": 60634, 
    "ADDRESS": "6043 W ADDISON ST 1 A", 
    "YEAR": 2010, 
    "LONGITUDE": -87.778210264, 
    "LATTITUDE": 41.945644782
  }, 
  {
    "BUSINESS_TYPE": "Regulated Business License", 
    "LEGAL_NAME": "DWL CORPORATION", 
    "STATE": "IL", 
    "DOING_BUSINESS_AS_NAME": "LION II CLEANER", 
    "POP_AT_RISK": 39281, 
    "ZIP": 60621, 
    "ADDRESS": "7018 S HALSTED ST FIRST FLOOR", 
    "YEAR": 2010, 
    "LONGITUDE": -87.644590895, 
    "LATTITUDE": 41.766416294
  }, 
  {
    "BUSINESS_TYPE": "Regulated Business License", 
    "LEGAL_NAME": "Beverly Yoga Center Incorporated", 
    "STATE": "IL", 
    "DOING_BUSINESS_AS_NAME": "Beverly Yoga Center", 
    "POP_AT_RISK": 17795, 
    "ZIP": 60643, 
    "ADDRESS": "1917 W 103RD ST 2ND 201", 
    "YEAR": 2010, 
    "LONGITUDE": -87.669858373, 
    "LATTITUDE": 41.706462956
  }
]