[
  {
    "BUSINESS_TYPE": "Automatic Amusement Device Operator", 
    "LEGAL_NAME": "SYNERGY VENDING SYSTEMS", 
    "STATE": "IL", 
    "DOING_BUSINESS_AS_NAME": "SYNERGY VENDING SYSTEMS", 
    "POP_AT_RISK": 45230, 
    "ZIP": 60647, 
    "ADDRESS": "2004 W WEBSTER AVE  1ST", 
    "YEAR": 2001, 
    "LONGITUDE": -87.677974403, 
    "LATTITUDE": 41.921497728
  }, 
  {
    "BUSINESS_TYPE": "Automatic Amusement Device Operator", 
    "LEGAL_NAME": "J NOMDEN & SONS CORPORATION", 
    "STATE": "IL", 
    "DOING_BUSINESS_AS_NAME": "J NOMDEN & SONS CORP", 
    "POP_AT_RISK": 15722, 
    "ZIP": 60646, 
    "ADDRESS": "5906 N KNOX AVE", 
    "YEAR": 2001, 
    "LONGITUDE": -87.745507178, 
    "LATTITUDE": 41.988632547
  }, 
  {
    "BUSINESS_TYPE": "Automatic Amusement Device Operator", 
    "LEGAL_NAME": "LEISURE TIME VENDING, INC.", 
    "STATE": "IN", 
    "DOING_BUSINESS_AS_NAME": "LEISURE TIME VENDING INC", 
    "POP_AT_RISK": 41402, 
    "ZIP": 46319, 
    "ADDRESS": "1943 W 45TH AVE 1ST", 
    "YEAR": 2001, 
    "LONGITUDE": -87.674062099, 
    "LATTITUDE": 41.812045356
  }, 
  {
    "BUSINESS_TYPE": "Automatic Amusement Device Operator", 
    "LEGAL_NAME": "GEORGE LAMAS", 
    "STATE": "IL", 
    "DOING_BUSINESS_AS_NAME": "AMERICAN PHOENIX FITNESS TECHN", 
    "POP_AT_RISK": 54728, 
    "ZIP": 60618, 
    "ADDRESS": "4207 N ELSTON AVE 1ST", 
    "YEAR": 2001, 
    "LONGITUDE": -87.724589565, 
    "LATTITUDE": 41.957564158
  }, 
  {
    "BUSINESS_TYPE": "Automatic Amusement Device Operator", 
    "LEGAL_NAME": "ZURLA SALES INC", 
    "STATE": "IL", 
    "DOING_BUSINESS_AS_NAME": "ZURLA SALES INCORPORATED", 
    "POP_AT_RISK": 55096, 
    "ZIP": 60618, 
    "ADDRESS": "3012 N CLYBOURN AVE  1ST", 
    "YEAR": 2001, 
    "LONGITUDE": -87.683676194, 
    "LATTITUDE": 41.936144684
  }, 
  {
    "BUSINESS_TYPE": "Automatic Amusement Device Operator", 
    "LEGAL_NAME": "DENNIS GRECO", 
    "STATE": "IL", 
    "DOING_BUSINESS_AS_NAME": "DENNIS GRECO", 
    "POP_AT_RISK": 60268, 
    "ZIP": 60645, 
    "ADDRESS": "6509 N MAPLEWOOD AVE  1", 
    "YEAR": 2001, 
    "LONGITUDE": -87.693454434, 
    "LATTITUDE": 41.999799881
  }, 
  {
    "BUSINESS_TYPE": "Automatic Amusement Device Operator", 
    "LEGAL_NAME": "KEUM SOON KIM", 
    "STATE": "IL", 
    "DOING_BUSINESS_AS_NAME": "CHICAGO NO RA BANG", 
    "POP_AT_RISK": 55796, 
    "ZIP": 60625, 
    "ADDRESS": "5320 N KEDZIE AVE 1ST", 
    "YEAR": 2001, 
    "LONGITUDE": -87.708890002, 
    "LATTITUDE": 41.978241394
  }, 
  {
    "BUSINESS_TYPE": "Automatic Amusement Device Operator", 
    "LEGAL_NAME": "ROBERT BOWMAN", 
    "STATE": "IL", 
    "DOING_BUSINESS_AS_NAME": "ADVANCED AMUSEMENT", 
    "POP_AT_RISK": 47191, 
    "ZIP": 60622, 
    "ADDRESS": "1606 W GRAND AVE 1ST", 
    "YEAR": 2001, 
    "LONGITUDE": -87.66745852, 
    "LATTITUDE": 41.891086901
  }, 
  {
    "BUSINESS_TYPE": "Automatic Amusement Device Operator", 
    "LEGAL_NAME": "VIDEO - TECH INC", 
    "STATE": "IL", 
    "DOING_BUSINESS_AS_NAME": "FRONTIER AMUSEMENT", 
    "POP_AT_RISK": 62348, 
    "ZIP": 60622, 
    "ADDRESS": "1748 W NORTH AVE 1ST", 
    "YEAR": 2001, 
    "LONGITUDE": -87.672047911, 
    "LATTITUDE": 41.910678154
  }, 
  {
    "BUSINESS_TYPE": "Automatic Amusement Device Operator", 
    "LEGAL_NAME": "DAVID B KING", 
    "STATE": "IL", 
    "DOING_BUSINESS_AS_NAME": "MR KING'S GUMBALL MACHINES", 
    "POP_AT_RISK": 30208, 
    "ZIP": 60628, 
    "ADDRESS": "11444 S HALSTED ST 1ST", 
    "YEAR": 2001, 
    "LONGITUDE": -87.642313786, 
    "LATTITUDE": 41.68556562
  }, 
  {
    "BUSINESS_TYPE": "Automatic Amusement Device Operator", 
    "LEGAL_NAME": "ANTHONY O. JAMES", 
    "STATE": "IL", 
    "DOING_BUSINESS_AS_NAME": "JAMES AMUSEMENTS", 
    "POP_AT_RISK": 42824, 
    "ZIP": 60636, 
    "ADDRESS": "1825 W 59TH ST", 
    "YEAR": 2001, 
    "LONGITUDE": -87.670238981, 
    "LATTITUDE": 41.786564006
  }, 
  {
    "BUSINESS_TYPE": "Automatic Amusement Device Operator", 
    "LEGAL_NAME": "L V CROCKETT", 
    "STATE": "IL", 
    "DOING_BUSINESS_AS_NAME": "R & L VENDING", 
    "POP_AT_RISK": 22866, 
    "ZIP": 60619, 
    "ADDRESS": "8901 S COTTAGE GROVE AVE 1ST", 
    "YEAR": 2001, 
    "LONGITUDE": -87.604586765, 
    "LATTITUDE": 41.732957063
  }, 
  {
    "BUSINESS_TYPE": "Automatic Amusement Device Operator", 
    "LEGAL_NAME": "GREGORY KOLIS", 
    "STATE": "IL", 
    "DOING_BUSINESS_AS_NAME": "GREG'S VENDING SERVICES", 
    "POP_AT_RISK": 61192, 
    "ZIP": 60625, 
    "ADDRESS": "5038 N LINCOLN AVE", 
    "YEAR": 2001, 
    "LONGITUDE": -87.691448134, 
    "LATTITUDE": 41.972837002
  }
]