[
  {
    "BUSINESS_TYPE": "Package Goods", 
    "LEGAL_NAME": "DRAGO PROTEGA", 
    "STATE": "IL", 
    "DOING_BUSINESS_AS_NAME": "BALTIMORE FOOD STORE", 
    "POP_AT_RISK": 9426, 
    "ZIP": 60633, 
    "ADDRESS": "13322 S BALTIMORE AVE 1ST", 
    "YEAR": 2003, 
    "LONGITUDE": -87.547298653, 
    "LATTITUDE": 41.652964612
  }, 
  {
    "BUSINESS_TYPE": "Package Goods", 
    "LEGAL_NAME": "LA NACIONAL, INC.", 
    "STATE": "IL", 
    "DOING_BUSINESS_AS_NAME": "LA NACIONAL LIQUORS", 
    "POP_AT_RISK": 15008, 
    "ZIP": 60617, 
    "ADDRESS": "9901-9903 S EWING AVE", 
    "YEAR": 2003, 
    "LONGITUDE": -87.535129942, 
    "LATTITUDE": 41.71572435
  }, 
  {
    "BUSINESS_TYPE": "Package Goods", 
    "LEGAL_NAME": "KUPBOARD INC", 
    "STATE": "IL", 
    "DOING_BUSINESS_AS_NAME": "KUPBOARD FOOD & LIQUORS", 
    "POP_AT_RISK": 22894, 
    "ZIP": 60632, 
    "ADDRESS": "4101 W 47TH ST  1", 
    "YEAR": 2003, 
    "LONGITUDE": -87.726090494, 
    "LATTITUDE": 41.807730408
  }, 
  {
    "BUSINESS_TYPE": "Package Goods", 
    "LEGAL_NAME": "AMERICAN DRUG STORES LLC", 
    "STATE": "IL", 
    "DOING_BUSINESS_AS_NAME": "OSCO DRUG STORE #3477", 
    "POP_AT_RISK": 12033, 
    "ZIP": 60656, 
    "ADDRESS": "4734 N CUMBERLAND AVE", 
    "YEAR": 2003, 
    "LONGITUDE": -87.836831169, 
    "LATTITUDE": 41.966011401
  }, 
  {
    "BUSINESS_TYPE": "Package Goods", 
    "LEGAL_NAME": "11112 SOUTH HALSTED STREET CORPORATION", 
    "STATE": "IL", 
    "DOING_BUSINESS_AS_NAME": "SHELDON LIQUORS", 
    "POP_AT_RISK": 34675, 
    "ZIP": 60628, 
    "ADDRESS": "11112 S HALSTED ST 1ST", 
    "YEAR": 2003, 
    "LONGITUDE": -87.642514376, 
    "LATTITUDE": 41.691924093
  }
]