[
  {
    "BUSINESS_TYPE": "Laboratories", 
    "LEGAL_NAME": "ACCESS COMMUNITY HEALTH NETWORK", 
    "STATE": "IL", 
    "DOING_BUSINESS_AS_NAME": "SOUTH STATE FAMILY HEALTH CENTER", 
    "POP_AT_RISK": 24175, 
    "ZIP": 60609, 
    "ADDRESS": "5050 S STATE ST 2ND", 
    "YEAR": 2005, 
    "LONGITUDE": -87.626043589, 
    "LATTITUDE": 41.802247471
  }, 
  {
    "BUSINESS_TYPE": "Laboratories", 
    "LEGAL_NAME": "LITHOLINK CORPORATION", 
    "STATE": "IL", 
    "DOING_BUSINESS_AS_NAME": "LITHOLINK CORP", 
    "POP_AT_RISK": 27915, 
    "ZIP": 60612, 
    "ADDRESS": "2250 W CAMPBELL PARK DR 1", 
    "YEAR": 2005, 
    "LONGITUDE": -87.683168088, 
    "LATTITUDE": 41.872709545
  }, 
  {
    "BUSINESS_TYPE": "Laboratories", 
    "LEGAL_NAME": "ACCESS COMMUNITY HEALTH NETWORK", 
    "STATE": "IL", 
    "DOING_BUSINESS_AS_NAME": "NEAR NORTH FAMILY HEALTH CENTER", 
    "POP_AT_RISK": 79728, 
    "ZIP": 60610, 
    "ADDRESS": "361 W CHESTNUT ST 1ST #", 
    "YEAR": 2005, 
    "LONGITUDE": -87.637927981, 
    "LATTITUDE": 41.898041156
  }, 
  {
    "BUSINESS_TYPE": "Laboratories", 
    "LEGAL_NAME": "ADVOCATE HEALTH AND HOSPITALS CORPORATION", 
    "STATE": "IL", 
    "DOING_BUSINESS_AS_NAME": "LINCOLN PARK CENTER", 
    "POP_AT_RISK": 71714, 
    "ZIP": 60614, 
    "ADDRESS": "2400 N SHEFFIELD AVE 1ST", 
    "YEAR": 2005, 
    "LONGITUDE": -87.653760569, 
    "LATTITUDE": 41.925422392
  }, 
  {
    "BUSINESS_TYPE": "Laboratories", 
    "LEGAL_NAME": "ACCESS COMMUNITY HEALTH NETWORK", 
    "STATE": "IL", 
    "DOING_BUSINESS_AS_NAME": "WEST DIVISION FAMILY HEALTH CENTER", 
    "POP_AT_RISK": 47145, 
    "ZIP": 60651, 
    "ADDRESS": "4401 W DIVISION ST", 
    "YEAR": 2005, 
    "LONGITUDE": -87.736263785, 
    "LATTITUDE": 41.902399982
  }, 
  {
    "BUSINESS_TYPE": "Laboratories", 
    "LEGAL_NAME": "QUEST DIAGNOSTICS LLC", 
    "STATE": "IL", 
    "DOING_BUSINESS_AS_NAME": "QUEST DIAGNOSTICS LLC", 
    "POP_AT_RISK": 19796, 
    "ZIP": 60646, 
    "ADDRESS": "4747 W PETERSON AVE  204", 
    "YEAR": 2005, 
    "LONGITUDE": -87.747842562, 
    "LATTITUDE": 41.989792371
  }, 
  {
    "BUSINESS_TYPE": "Laboratories", 
    "LEGAL_NAME": "FLOOD TESTING LABS INC", 
    "STATE": "IL", 
    "DOING_BUSINESS_AS_NAME": "FLOOD TESTING LABS INC", 
    "POP_AT_RISK": 24898, 
    "ZIP": 60617, 
    "ADDRESS": "1945 E 87TH ST", 
    "YEAR": 2005, 
    "LONGITUDE": -87.576364881, 
    "LATTITUDE": 41.736937029
  }, 
  {
    "BUSINESS_TYPE": "Laboratories", 
    "LEGAL_NAME": "AURORA CONSOLID/LABORATORIES", 
    "STATE": "IL", 
    "DOING_BUSINESS_AS_NAME": "Aurora Consolid/Laboratories", 
    "POP_AT_RISK": 68602, 
    "ZIP": 60618, 
    "ADDRESS": "4025 N WESTERN AVE", 
    "YEAR": 2005, 
    "LONGITUDE": -87.688340996, 
    "LATTITUDE": 41.954772903
  }, 
  {
    "BUSINESS_TYPE": "Laboratories", 
    "LEGAL_NAME": "DOCTORS CLINICAL LABORATORY INC", 
    "STATE": "IL", 
    "DOING_BUSINESS_AS_NAME": "DOCTORS CLINCAL LABORATORY INC", 
    "POP_AT_RISK": 60863, 
    "ZIP": 60640, 
    "ADDRESS": "1824 W WILSON AVE", 
    "YEAR": 2005, 
    "LONGITUDE": -87.675701997, 
    "LATTITUDE": 41.96525232
  }, 
  {
    "BUSINESS_TYPE": "Laboratories", 
    "LEGAL_NAME": "ACCESS COMMUNITY HEALTH NETWORK", 
    "STATE": "IL", 
    "DOING_BUSINESS_AS_NAME": "DOCTORS MEDICAL CENTER", 
    "POP_AT_RISK": 27535, 
    "ZIP": 60638, 
    "ADDRESS": "6240 W 55TH ST", 
    "YEAR": 2005, 
    "LONGITUDE": -87.778492957, 
    "LATTITUDE": 41.792521704
  }, 
  {
    "BUSINESS_TYPE": "Laboratories", 
    "LEGAL_NAME": "THE UNIVERSITY OF CHICAGO MEDICAL CENTER", 
    "STATE": "IL", 
    "DOING_BUSINESS_AS_NAME": "WINDERMERE SENIOR HEALTH CENTER", 
    "POP_AT_RISK": 35015, 
    "ZIP": 60637, 
    "ADDRESS": "5549 S CORNELL AVE # 1", 
    "YEAR": 2005, 
    "LONGITUDE": -87.585229537, 
    "LATTITUDE": 41.793773752
  }, 
  {
    "BUSINESS_TYPE": "Laboratories", 
    "LEGAL_NAME": "NRI LABORATORIES", 
    "STATE": "IL", 
    "DOING_BUSINESS_AS_NAME": "NRI LABORATORIES", 
    "POP_AT_RISK": 49690, 
    "ZIP": 60639, 
    "ADDRESS": "5646 W NORTH AVE", 
    "YEAR": 2005, 
    "LONGITUDE": -87.767432857, 
    "LATTITUDE": 41.909462685
  }, 
  {
    "BUSINESS_TYPE": "Laboratories", 
    "LEGAL_NAME": "ADVOCATE HEALTH AND HOSPITALS CORPORATION", 
    "STATE": "IL", 
    "DOING_BUSINESS_AS_NAME": "LOGAN SQUARE CENTER", 
    "POP_AT_RISK": 75310, 
    "ZIP": 60647, 
    "ADDRESS": "2511 N KEDZIE BLVD", 
    "YEAR": 2005, 
    "LONGITUDE": -87.707135831, 
    "LATTITUDE": 41.926940726
  }, 
  {
    "BUSINESS_TYPE": "Laboratories", 
    "LEGAL_NAME": "NORTHSHORE CLINICAL LABS", 
    "STATE": "IL", 
    "DOING_BUSINESS_AS_NAME": "NORTHHSHORE CLINICAL LABS", 
    "POP_AT_RISK": 31637, 
    "ZIP": 60645, 
    "ADDRESS": "2353 W BIRCHWOOD AVE", 
    "YEAR": 2005, 
    "LONGITUDE": -87.689666005, 
    "LATTITUDE": 42.017324241
  }, 
  {
    "BUSINESS_TYPE": "Laboratories", 
    "LEGAL_NAME": "TILMAN'S COMMUNITY HEALTH CLINIC, INC.", 
    "STATE": "IL", 
    "DOING_BUSINESS_AS_NAME": "TILMAN'S COMMUNITY HEALTH CLIN", 
    "POP_AT_RISK": 51087, 
    "ZIP": 60636, 
    "ADDRESS": "7318 S RACINE AVE  1ST", 
    "YEAR": 2005, 
    "LONGITUDE": -87.654149468, 
    "LATTITUDE": 41.76084389
  }, 
  {
    "BUSINESS_TYPE": "Laboratories", 
    "LEGAL_NAME": "MIDWEST PHYSICIAN GROUP LIMITED.", 
    "STATE": "IL", 
    "DOING_BUSINESS_AS_NAME": "MIDWEST PHY CTR OF BEVERLY", 
    "POP_AT_RISK": 20771, 
    "ZIP": 60643, 
    "ADDRESS": "10242 S VINCENNES AVE  1ST", 
    "YEAR": 2005, 
    "LONGITUDE": -87.655954024, 
    "LATTITUDE": 41.707366572
  }, 
  {
    "BUSINESS_TYPE": "Laboratories", 
    "LEGAL_NAME": "CHICAGO FAMILY HEALTH CENTER, INC.", 
    "STATE": "IL", 
    "DOING_BUSINESS_AS_NAME": "CHICAGO FAMILY MEDICAL CENTER", 
    "POP_AT_RISK": 17702, 
    "ZIP": 60617, 
    "ADDRESS": "9119 S EXCHANGE AVE", 
    "YEAR": 2005, 
    "LONGITUDE": -87.552477818, 
    "LATTITUDE": 41.72945712
  }, 
  {
    "BUSINESS_TYPE": "Laboratories", 
    "LEGAL_NAME": "ACCESS COMMUNITY HEALTH NETWORK", 
    "STATE": "IL", 
    "DOING_BUSINESS_AS_NAME": "PETERSON FAMILY HEALTH CENTER", 
    "POP_AT_RISK": 65869, 
    "ZIP": 60659, 
    "ADDRESS": "2655 W PETERSON AVE", 
    "YEAR": 2005, 
    "LONGITUDE": -87.696820148, 
    "LATTITUDE": 41.990347699
  }, 
  {
    "BUSINESS_TYPE": "Laboratories", 
    "LEGAL_NAME": "INTERSTATE BLOOD BANK INC", 
    "STATE": "IL", 
    "DOING_BUSINESS_AS_NAME": "INTERSTATE BLOOD BANK INC", 
    "POP_AT_RISK": 77938, 
    "ZIP": 60625, 
    "ADDRESS": "3324 W LAWRENCE AVE", 
    "YEAR": 2005, 
    "LONGITUDE": -87.712004202, 
    "LATTITUDE": 41.968527625
  }, 
  {
    "BUSINESS_TYPE": "Laboratories", 
    "LEGAL_NAME": "ACCESS COMMUNITY HEALTH NETWORK", 
    "STATE": "IL", 
    "DOING_BUSINESS_AS_NAME": "SAN RAFAEL FAMILY HEALTH CENTER", 
    "POP_AT_RISK": 61495, 
    "ZIP": 60623, 
    "ADDRESS": "3204 W 26TH ST", 
    "YEAR": 2005, 
    "LONGITUDE": -87.705286555, 
    "LATTITUDE": 41.84462467
  }, 
  {
    "BUSINESS_TYPE": "Laboratories", 
    "LEGAL_NAME": "MIDWEST PHYSICIAN GROUP LIMITED.", 
    "STATE": "IL", 
    "DOING_BUSINESS_AS_NAME": "MIDWEST PHY CTR OF BRIDGEPORT", 
    "POP_AT_RISK": 40828, 
    "ZIP": 60616, 
    "ADDRESS": "3201 S WALLACE ST 1ST", 
    "YEAR": 2005, 
    "LONGITUDE": -87.641218557, 
    "LATTITUDE": 41.836196373
  }, 
  {
    "BUSINESS_TYPE": "Laboratories", 
    "LEGAL_NAME": "LABORATORY CORPORATION OF AMERICA", 
    "STATE": "IL", 
    "DOING_BUSINESS_AS_NAME": "LAB CORP", 
    "POP_AT_RISK": 27040, 
    "ZIP": 60631, 
    "ADDRESS": "6191 N CANFIELD AVE 1ST", 
    "YEAR": 2005, 
    "LONGITUDE": -87.822035725, 
    "LATTITUDE": 41.992967304
  }, 
  {
    "BUSINESS_TYPE": "Laboratories", 
    "LEGAL_NAME": "CHICAGO FAMILY HEALTH CENTER, INC.", 
    "STATE": "IL", 
    "DOING_BUSINESS_AS_NAME": "CHICAGO FAMILY HEALTH CENTER", 
    "POP_AT_RISK": 13745, 
    "ZIP": 60628, 
    "ADDRESS": "556 E 115TH ST 1ST", 
    "YEAR": 2005, 
    "LONGITUDE": -87.609330224, 
    "LATTITUDE": 41.685570884
  }, 
  {
    "BUSINESS_TYPE": "Laboratories", 
    "LEGAL_NAME": "ACCESS COMMUNITY HEALTH NETWORK", 
    "STATE": "IL", 
    "DOING_BUSINESS_AS_NAME": "ARMITAGE FAMILY HEALTH CENTER", 
    "POP_AT_RISK": 73328, 
    "ZIP": 60647, 
    "ADDRESS": "2957 W ARMITAGE AVE", 
    "YEAR": 2005, 
    "LONGITUDE": -87.70151952, 
    "LATTITUDE": 41.91733801
  }, 
  {
    "BUSINESS_TYPE": "Laboratories", 
    "LEGAL_NAME": "LEILANI LABORATORY, INC.", 
    "STATE": "IL", 
    "DOING_BUSINESS_AS_NAME": "LEILANI LABORATORY", 
    "POP_AT_RISK": 49222, 
    "ZIP": 60641, 
    "ADDRESS": "4320 W MONTROSE AVE  E", 
    "YEAR": 2005, 
    "LONGITUDE": -87.736600436, 
    "LATTITUDE": 41.960962235
  }, 
  {
    "BUSINESS_TYPE": "Laboratories", 
    "LEGAL_NAME": "ADVOCATE HEALTH AND HOSPITALS CORPORATION", 
    "STATE": "IL", 
    "DOING_BUSINESS_AS_NAME": "EVERGREEN CENTER", 
    "POP_AT_RISK": 10113, 
    "ZIP": 60620, 
    "ADDRESS": "9435 S WESTERN AVE 1ST", 
    "YEAR": 2005, 
    "LONGITUDE": -87.681943163, 
    "LATTITUDE": 41.721716699
  }, 
  {
    "BUSINESS_TYPE": "Laboratories", 
    "LEGAL_NAME": "MIDWEST PHYSICIAN GROUP LIMITED.", 
    "STATE": "IL", 
    "DOING_BUSINESS_AS_NAME": "MIDWEST PHY CTR OF MED & SUR", 
    "POP_AT_RISK": 14702, 
    "ZIP": 60643, 
    "ADDRESS": "11250 S WESTERN AVE 1ST", 
    "YEAR": 2005, 
    "LONGITUDE": -87.681193393, 
    "LATTITUDE": 41.688339077
  }, 
  {
    "BUSINESS_TYPE": "Laboratories", 
    "LEGAL_NAME": "AMERICAN SCIENTIFIC LABORATORY, INC.", 
    "STATE": "IL", 
    "DOING_BUSINESS_AS_NAME": "AMERICAN SCIENTIFIC LAB. INC.", 
    "POP_AT_RISK": 53862, 
    "ZIP": 60645, 
    "ADDRESS": "7006 N WESTERN AVE  1", 
    "YEAR": 2005, 
    "LONGITUDE": -87.690315573, 
    "LATTITUDE": 42.008856596
  }, 
  {
    "BUSINESS_TYPE": "Laboratories", 
    "LEGAL_NAME": "ACCESS COMMUNITY HEALTH NETWORK", 
    "STATE": "IL", 
    "DOING_BUSINESS_AS_NAME": "PILSEN FAMILY HEALTH CENTER", 
    "POP_AT_RISK": 42100, 
    "ZIP": 60608, 
    "ADDRESS": "1817 S LOOMIS ST", 
    "YEAR": 2005, 
    "LONGITUDE": -87.661154008, 
    "LATTITUDE": 41.857275814
  }, 
  {
    "BUSINESS_TYPE": "Laboratories", 
    "LEGAL_NAME": "GABRIEL LABORATORIES LIMITED", 
    "STATE": "IL", 
    "DOING_BUSINESS_AS_NAME": "GABERIAL LABORATORIES LTD", 
    "POP_AT_RISK": 56259, 
    "ZIP": 60622, 
    "ADDRESS": "1421 N ELSTON AVE", 
    "YEAR": 2005, 
    "LONGITUDE": -87.660182199, 
    "LATTITUDE": 41.907749728
  }, 
  {
    "BUSINESS_TYPE": "Laboratories", 
    "LEGAL_NAME": "OPEN FAITH MEDICAL CENTER LAB, INC.", 
    "STATE": "IL", 
    "DOING_BUSINESS_AS_NAME": "OPEN FAITH MEDICAL LAB,INC", 
    "POP_AT_RISK": 34359, 
    "ZIP": 60637, 
    "ADDRESS": "6259 S COTTAGE GROVE AVE", 
    "YEAR": 2005, 
    "LONGITUDE": -87.605785389, 
    "LATTITUDE": 41.780503081
  }, 
  {
    "BUSINESS_TYPE": "Laboratories", 
    "LEGAL_NAME": "ACCESS COMMUNITY HEALTH NETWORK", 
    "STATE": "IL", 
    "DOING_BUSINESS_AS_NAME": "TAYLOR FAMILY HEALTH CENTER", 
    "POP_AT_RISK": 28214, 
    "ZIP": 60609, 
    "ADDRESS": "4501 S STATE ST 1ST", 
    "YEAR": 2005, 
    "LONGITUDE": -87.626031782, 
    "LATTITUDE": 41.812962854
  }, 
  {
    "BUSINESS_TYPE": "Laboratories", 
    "LEGAL_NAME": "TOTAL RENAL CARE, INC", 
    "STATE": "IL", 
    "DOING_BUSINESS_AS_NAME": "MONTCLARE DIALYSIS", 
    "POP_AT_RISK": 39225, 
    "ZIP": 60634, 
    "ADDRESS": "7009 W BELMONT AVE 1ST", 
    "YEAR": 2005, 
    "LONGITUDE": -87.801617203, 
    "LATTITUDE": 41.937962139
  }, 
  {
    "BUSINESS_TYPE": "Laboratories", 
    "LEGAL_NAME": "ACCESS COMMUNITY HEALTH NETWORK", 
    "STATE": "IL", 
    "DOING_BUSINESS_AS_NAME": "KEDZIE FAMILY HEALTH CENTER", 
    "POP_AT_RISK": 49002, 
    "ZIP": 60632, 
    "ADDRESS": "3213-3221 W 47TH PL", 
    "YEAR": 2005, 
    "LONGITUDE": -87.704464589, 
    "LATTITUDE": 41.806705258
  }, 
  {
    "BUSINESS_TYPE": "Laboratories", 
    "LEGAL_NAME": "26TH ST MEDICAL SERVICE CORP", 
    "STATE": "IL", 
    "DOING_BUSINESS_AS_NAME": "26TH ST MEDICAL SERVICE CORP", 
    "POP_AT_RISK": 65401, 
    "ZIP": 60623, 
    "ADDRESS": "3814 W 26TH ST", 
    "YEAR": 2005, 
    "LONGITUDE": -87.720377795, 
    "LATTITUDE": 41.844417365
  }, 
  {
    "BUSINESS_TYPE": "Laboratories", 
    "LEGAL_NAME": "ACCU-LAB MEDICAL TESTING INC", 
    "STATE": "IL", 
    "DOING_BUSINESS_AS_NAME": "ACCU-LAB MEDICAL TESTING, INC.", 
    "POP_AT_RISK": 39491, 
    "ZIP": 60605, 
    "ADDRESS": "1300 S WABASH AVE  2ND F", 
    "YEAR": 2005, 
    "LONGITUDE": -87.625943531, 
    "LATTITUDE": 41.865675872
  }, 
  {
    "BUSINESS_TYPE": "Laboratories", 
    "LEGAL_NAME": "K K BIOSCIENCE INC", 
    "STATE": "IL", 
    "DOING_BUSINESS_AS_NAME": "K K BIOSCIENCE, INC.", 
    "POP_AT_RISK": 50025, 
    "ZIP": 60604, 
    "ADDRESS": "220 S STATE ST  1701", 
    "YEAR": 2005, 
    "LONGITUDE": -87.627845914, 
    "LATTITUDE": 41.878972044
  }, 
  {
    "BUSINESS_TYPE": "Laboratories", 
    "LEGAL_NAME": "PLANNED PARENTHOOD OF ILLINOIS", 
    "STATE": "IL", 
    "DOING_BUSINESS_AS_NAME": "PLANNED PARENTHOOD ASSOCIATION/CHICAGO AREA", 
    "POP_AT_RISK": 83768, 
    "ZIP": 60610, 
    "ADDRESS": "1200 N LA SALLE DR  1ST", 
    "YEAR": 2005, 
    "LONGITUDE": -87.633070711, 
    "LATTITUDE": 41.903969211
  }, 
  {
    "BUSINESS_TYPE": "Laboratories", 
    "LEGAL_NAME": "UNIVERSAL PORTABLE X-RAY SERVICE, INC.", 
    "STATE": "IL", 
    "DOING_BUSINESS_AS_NAME": "UNIVERSAL PORTABLE X-RAY SERVICES, INC.", 
    "POP_AT_RISK": 33545, 
    "ZIP": 60646, 
    "ADDRESS": "5630 N ELSTON AVE 1ST 101", 
    "YEAR": 2005, 
    "LONGITUDE": -87.765813793, 
    "LATTITUDE": 41.983578268
  }
]