[
  {
    "BUSINESS_TYPE": "Wholesale Food Establishment", 
    "LEGAL_NAME": "BIG APPLE FINER FOODS INC", 
    "STATE": "IL", 
    "DOING_BUSINESS_AS_NAME": "BIG APPLE FINER FOODS INC", 
    "POP_AT_RISK": 58363, 
    "ZIP": 60614, 
    "ADDRESS": "2345 N CLARK ST", 
    "YEAR": 2006, 
    "LONGITUDE": -87.639926019, 
    "LATTITUDE": 41.924966179
  }, 
  {
    "BUSINESS_TYPE": "Wholesale Food Establishment", 
    "LEGAL_NAME": "PAUL SANTOYO", 
    "STATE": "IL", 
    "DOING_BUSINESS_AS_NAME": "ALL RITE SUPPLY", 
    "POP_AT_RISK": 19227, 
    "ZIP": 60655, 
    "ADDRESS": "11202 S WHIPPLE ST 1ST", 
    "YEAR": 2006, 
    "LONGITUDE": -87.697297344, 
    "LATTITUDE": 41.689625402
  }, 
  {
    "BUSINESS_TYPE": "Wholesale Food Establishment", 
    "LEGAL_NAME": "JOHN'S DAIRY PRODUCTS", 
    "STATE": "IL", 
    "DOING_BUSINESS_AS_NAME": "JOHN'S DAIRY PRODUCTS", 
    "POP_AT_RISK": 31925, 
    "ZIP": 60637, 
    "ADDRESS": "6115 S PRAIRIE AVE", 
    "YEAR": 2006, 
    "LONGITUDE": -87.618786553, 
    "LATTITUDE": 41.783374148
  }, 
  {
    "BUSINESS_TYPE": "Wholesale Food Establishment", 
    "LEGAL_NAME": "DANIELSON FOOD PROD INC", 
    "STATE": "IL", 
    "DOING_BUSINESS_AS_NAME": "DANIELSON FOOD PROD INC", 
    "POP_AT_RISK": 20991, 
    "ZIP": 60609, 
    "ADDRESS": "215 W ROOT ST", 
    "YEAR": 2006, 
    "LONGITUDE": -87.631848636, 
    "LATTITUDE": 41.819012643
  }, 
  {
    "BUSINESS_TYPE": "Wholesale Food Establishment", 
    "LEGAL_NAME": "FLYING FOOD FARE MIDWAY, L.L.C.", 
    "STATE": "IL", 
    "DOING_BUSINESS_AS_NAME": "FLYING FOOD FARE MIDWAY L.L.C.", 
    "POP_AT_RISK": 31922, 
    "ZIP": 60638, 
    "ADDRESS": "5370 S CICERO AVE 1ST", 
    "YEAR": 2006, 
    "LONGITUDE": -87.742921085, 
    "LATTITUDE": 41.794681544
  }, 
  {
    "BUSINESS_TYPE": "Wholesale Food Establishment", 
    "LEGAL_NAME": "FELTON CRUMBLEY", 
    "STATE": "IL", 
    "DOING_BUSINESS_AS_NAME": "D.D. & S. BAR-B-QUE", 
    "POP_AT_RISK": 37875, 
    "ZIP": 60617, 
    "ADDRESS": "8114 S STONY ISLAND AVE", 
    "YEAR": 2006, 
    "LONGITUDE": -87.586027906, 
    "LATTITUDE": 41.747353626
  }, 
  {
    "BUSINESS_TYPE": "Wholesale Food Establishment", 
    "LEGAL_NAME": "CHARLES E CHANDLER", 
    "STATE": "IL", 
    "DOING_BUSINESS_AS_NAME": "MAJOR PRODUCTS DIST", 
    "POP_AT_RISK": 24276, 
    "ZIP": 60643, 
    "ADDRESS": "933 W 111TH ST 1ST", 
    "YEAR": 2006, 
    "LONGITUDE": -87.646083421, 
    "LATTITUDE": 41.692202747
  }, 
  {
    "BUSINESS_TYPE": "Wholesale Food Establishment", 
    "LEGAL_NAME": "EL GREG INC", 
    "STATE": "IL", 
    "DOING_BUSINESS_AS_NAME": "EL GREG", 
    "POP_AT_RISK": 17974, 
    "ZIP": 60646, 
    "ADDRESS": "6024 N KEYSTONE AVE 1ST", 
    "YEAR": 2006, 
    "LONGITUDE": -87.730220737, 
    "LATTITUDE": 41.990937631
  }, 
  {
    "BUSINESS_TYPE": "Wholesale Food Establishment", 
    "LEGAL_NAME": "LANG ICE COMPANY", 
    "STATE": "IL", 
    "DOING_BUSINESS_AS_NAME": "LANG ICE COMPANY", 
    "POP_AT_RISK": 69163, 
    "ZIP": 60629, 
    "ADDRESS": "3600 W 59TH ST  1", 
    "YEAR": 2006, 
    "LONGITUDE": -87.713489422, 
    "LATTITUDE": 41.786196545
  }, 
  {
    "BUSINESS_TYPE": "Wholesale Food Establishment", 
    "LEGAL_NAME": "IDEAL PROVISION CO INC", 
    "STATE": "IL", 
    "DOING_BUSINESS_AS_NAME": "IDEAL PROVISION CO INC.", 
    "POP_AT_RISK": 68681, 
    "ZIP": 60610, 
    "ADDRESS": "1240 N SEDGWICK ST  1", 
    "YEAR": 2006, 
    "LONGITUDE": -87.638548974, 
    "LATTITUDE": 41.905085132
  }, 
  {
    "BUSINESS_TYPE": "Wholesale Food Establishment", 
    "LEGAL_NAME": "LASALLE NEWS INC", 
    "STATE": "IL", 
    "DOING_BUSINESS_AS_NAME": "LA SALLE NEWS INC", 
    "POP_AT_RISK": 50511, 
    "ZIP": 60604, 
    "ADDRESS": "141 W JACKSON BLVD  LOBBY", 
    "YEAR": 2006, 
    "LONGITUDE": -87.632062286, 
    "LATTITUDE": 41.878025655
  }, 
  {
    "BUSINESS_TYPE": "Wholesale Food Establishment", 
    "LEGAL_NAME": "ELVIA GODINEZ", 
    "STATE": "IL", 
    "DOING_BUSINESS_AS_NAME": "PRODUCTOS EL PAJARITO", 
    "POP_AT_RISK": 53213, 
    "ZIP": 60636, 
    "ADDRESS": "5828 S WESTERN AVE", 
    "YEAR": 2006, 
    "LONGITUDE": -87.684004784, 
    "LATTITUDE": 41.787469303
  }, 
  {
    "BUSINESS_TYPE": "Wholesale Food Establishment", 
    "LEGAL_NAME": "MIDWAY WHOLESALERS, INC.", 
    "STATE": "IL", 
    "DOING_BUSINESS_AS_NAME": "MIDWAY WHOLESALERS", 
    "POP_AT_RISK": 35159, 
    "ZIP": 60620, 
    "ADDRESS": "41 W 84TH ST  1ST", 
    "YEAR": 2006, 
    "LONGITUDE": -87.625976311, 
    "LATTITUDE": 41.741705076
  }, 
  {
    "BUSINESS_TYPE": "Wholesale Food Establishment", 
    "LEGAL_NAME": "FOOD & PAPER SUPPLY CO.", 
    "STATE": "IL", 
    "DOING_BUSINESS_AS_NAME": "FOOD & PAPER SUPPLY CO.", 
    "POP_AT_RISK": 20546, 
    "ZIP": 60619, 
    "ADDRESS": "945 E 93RD ST", 
    "YEAR": 2006, 
    "LONGITUDE": -87.600791521, 
    "LATTITUDE": 41.725651845
  }, 
  {
    "BUSINESS_TYPE": "Wholesale Food Establishment", 
    "LEGAL_NAME": "SFIROS INC", 
    "STATE": "IL", 
    "DOING_BUSINESS_AS_NAME": "NAT'S GARDEN & TATER-MAN", 
    "POP_AT_RISK": 35254, 
    "ZIP": 60619, 
    "ADDRESS": "7200 S KIMBARK AVE  1ST", 
    "YEAR": 2006, 
    "LONGITUDE": -87.59351898, 
    "LATTITUDE": 41.764129169
  }, 
  {
    "BUSINESS_TYPE": "Wholesale Food Establishment", 
    "LEGAL_NAME": "ALL UNITED IMPORTS, INC.", 
    "STATE": "IL", 
    "DOING_BUSINESS_AS_NAME": "ALL UNITED IMPORTS", 
    "POP_AT_RISK": 18429, 
    "ZIP": 60617, 
    "ADDRESS": "9332 S ANTHONY AVE", 
    "YEAR": 2006, 
    "LONGITUDE": -87.552876069, 
    "LATTITUDE": 41.725522765
  }, 
  {
    "BUSINESS_TYPE": "Wholesale Food Establishment", 
    "LEGAL_NAME": "MICHAEL CIAMPANELLI", 
    "STATE": "IL", 
    "DOING_BUSINESS_AS_NAME": "MICHAELANGELO'S FOODS", 
    "POP_AT_RISK": 22939, 
    "ZIP": 60707, 
    "ADDRESS": "2701 N HARLEM AVE 1ST", 
    "YEAR": 2006, 
    "LONGITUDE": -87.806282804, 
    "LATTITUDE": 41.928962604
  }, 
  {
    "BUSINESS_TYPE": "Wholesale Food Establishment", 
    "LEGAL_NAME": "VITAMINS INC", 
    "STATE": "IL", 
    "DOING_BUSINESS_AS_NAME": "VITAMINS INC", 
    "POP_AT_RISK": 32664, 
    "ZIP": 60621, 
    "ADDRESS": "809 W 58TH ST", 
    "YEAR": 2006, 
    "LONGITUDE": -87.645438556, 
    "LATTITUDE": 41.788730254
  }, 
  {
    "BUSINESS_TYPE": "Wholesale Food Establishment", 
    "LEGAL_NAME": "DEARBORN WHOLESALE GROCERS LP", 
    "STATE": "IL", 
    "DOING_BUSINESS_AS_NAME": "DEARBORN WHOLESALE GROCER LP", 
    "POP_AT_RISK": 29702, 
    "ZIP": 60620, 
    "ADDRESS": "1841 W 79TH ST 1 #", 
    "YEAR": 2006, 
    "LONGITUDE": -87.669889517, 
    "LATTITUDE": 41.750161677
  }, 
  {
    "BUSINESS_TYPE": "Wholesale Food Establishment", 
    "LEGAL_NAME": "ROSEBUD FARM INC", 
    "STATE": "IL", 
    "DOING_BUSINESS_AS_NAME": "ROSEBUD FARM INC", 
    "POP_AT_RISK": 11356, 
    "ZIP": 60628, 
    "ADDRESS": "525 E 130TH ST", 
    "YEAR": 2006, 
    "LONGITUDE": -87.609091398, 
    "LATTITUDE": 41.659024722
  }, 
  {
    "BUSINESS_TYPE": "Wholesale Food Establishment", 
    "LEGAL_NAME": "GONNELLA BAKING CO.", 
    "STATE": "IL", 
    "DOING_BUSINESS_AS_NAME": "GONNELLA BAKING", 
    "POP_AT_RISK": 22104, 
    "ZIP": 60628, 
    "ADDRESS": "304 -328 E KENSINGTON AVE 1ST", 
    "YEAR": 2006, 
    "LONGITUDE": -87.616443805, 
    "LATTITUDE": 41.68407908
  }, 
  {
    "BUSINESS_TYPE": "Wholesale Food Establishment", 
    "LEGAL_NAME": "FARMERS GLORY CORPORATION", 
    "STATE": "IL", 
    "DOING_BUSINESS_AS_NAME": "FARMERS GLORY CORP", 
    "POP_AT_RISK": 32566, 
    "ZIP": 60630, 
    "ADDRESS": "5526 N MULLIGAN AVE  1", 
    "YEAR": 2006, 
    "LONGITUDE": -87.786682909, 
    "LATTITUDE": 41.982023131
  }, 
  {
    "BUSINESS_TYPE": "Wholesale Food Establishment", 
    "LEGAL_NAME": "R & MMM BURRITOS, INC.", 
    "STATE": "IL", 
    "DOING_BUSINESS_AS_NAME": "R & MMM BURRITOS, INC", 
    "POP_AT_RISK": 38341, 
    "ZIP": 60620, 
    "ADDRESS": "7651 S VINCENNES AVE", 
    "YEAR": 2006, 
    "LONGITUDE": -87.632787416, 
    "LATTITUDE": 41.754837071
  }, 
  {
    "BUSINESS_TYPE": "Wholesale Food Establishment", 
    "LEGAL_NAME": "THE MEAT FACTORY INC", 
    "STATE": "IL", 
    "DOING_BUSINESS_AS_NAME": "THE MEAT FACTORY INC", 
    "POP_AT_RISK": 7012, 
    "ZIP": 60628, 
    "ADDRESS": "12847 S HALSTED ST  1ST", 
    "YEAR": 2006, 
    "LONGITUDE": -87.641168832, 
    "LATTITUDE": 41.660086339
  }, 
  {
    "BUSINESS_TYPE": "Wholesale Food Establishment", 
    "LEGAL_NAME": "UNION FISHERIES CORP", 
    "STATE": "IL", 
    "DOING_BUSINESS_AS_NAME": "UNION FISHERIES CORP", 
    "POP_AT_RISK": 23928, 
    "ZIP": 60631, 
    "ADDRESS": "6186 N NORTHWEST HWY 1ST", 
    "YEAR": 2006, 
    "LONGITUDE": -87.802262011, 
    "LATTITUDE": 41.994129359
  }, 
  {
    "BUSINESS_TYPE": "Wholesale Food Establishment", 
    "LEGAL_NAME": "MILLER BUSINESS ASPECTS", 
    "STATE": "IL", 
    "DOING_BUSINESS_AS_NAME": "NOT NUTZ", 
    "POP_AT_RISK": 25228, 
    "ZIP": 60636, 
    "ADDRESS": "2101 W 74TH ST", 
    "YEAR": 2006, 
    "LONGITUDE": -87.675825253, 
    "LATTITUDE": 41.759223738
  }, 
  {
    "BUSINESS_TYPE": "Wholesale Food Establishment", 
    "LEGAL_NAME": "CHICAGO & ILLINOIS  RIVER MARKETING,  LLC", 
    "STATE": "IL", 
    "DOING_BUSINESS_AS_NAME": "CHICAGO & ILLINOIS RIVER MARKETING,  LLC", 
    "POP_AT_RISK": 3233, 
    "ZIP": 60617, 
    "ADDRESS": "11700 S TORRENCE AVE", 
    "YEAR": 2006, 
    "LONGITUDE": -87.559501385, 
    "LATTITUDE": 41.682696265
  }, 
  {
    "BUSINESS_TYPE": "Wholesale Food Establishment", 
    "LEGAL_NAME": "ARAMARK CORRECTIONAL SERVICES, LLC", 
    "STATE": "IL", 
    "DOING_BUSINESS_AS_NAME": "ARAMARK CORRECTIONAL SERVICES INC.", 
    "POP_AT_RISK": 30208, 
    "ZIP": 60628, 
    "ADDRESS": "11444 S HALSTED ST 1", 
    "YEAR": 2006, 
    "LONGITUDE": -87.642313786, 
    "LATTITUDE": 41.68556562
  }, 
  {
    "BUSINESS_TYPE": "Wholesale Food Establishment", 
    "LEGAL_NAME": "DEARBORN WHOLESALE GROCERS LP", 
    "STATE": "IL", 
    "DOING_BUSINESS_AS_NAME": "DEARBORN WHOLESALE GROCERS INC", 
    "POP_AT_RISK": 74302, 
    "ZIP": 60613, 
    "ADDRESS": "918 W MONTROSE AVE 1ST #", 
    "YEAR": 2006, 
    "LONGITUDE": -87.653127379, 
    "LATTITUDE": 41.961909845
  }, 
  {
    "BUSINESS_TYPE": "Wholesale Food Establishment", 
    "LEGAL_NAME": "ARTOS LIMITED", 
    "STATE": "IL", 
    "DOING_BUSINESS_AS_NAME": "ARTOPOLIS BAKERY, CAFE & A GORA", 
    "POP_AT_RISK": 25032, 
    "ZIP": 60609, 
    "ADDRESS": "125 W 46TH PL", 
    "YEAR": 2006, 
    "LONGITUDE": -87.629450321, 
    "LATTITUDE": 41.810644406
  }, 
  {
    "BUSINESS_TYPE": "Wholesale Food Establishment", 
    "LEGAL_NAME": "KRAFT FOODS GLOBAL, INC.", 
    "STATE": "IL", 
    "DOING_BUSINESS_AS_NAME": "KRAFT FOODS", 
    "POP_AT_RISK": 26650, 
    "ZIP": 60629, 
    "ADDRESS": "7300 S KEDZIE AVE", 
    "YEAR": 2006, 
    "LONGITUDE": -87.702854797, 
    "LATTITUDE": 41.760668583
  }, 
  {
    "BUSINESS_TYPE": "Wholesale Food Establishment", 
    "LEGAL_NAME": "PAKET CORPORATION", 
    "STATE": "IL", 
    "DOING_BUSINESS_AS_NAME": "PAKET CORPORATION", 
    "POP_AT_RISK": 15190, 
    "ZIP": 60617, 
    "ADDRESS": "9165 S HARBOR AVE", 
    "YEAR": 2006, 
    "LONGITUDE": -87.542122592, 
    "LATTITUDE": 41.728978368
  }, 
  {
    "BUSINESS_TYPE": "Wholesale Food Establishment", 
    "LEGAL_NAME": "OLYMPIA FOOD INDUSTRIES INC", 
    "STATE": "IL", 
    "DOING_BUSINESS_AS_NAME": "OLYMPIA FOOD INDUSTRIES INC", 
    "POP_AT_RISK": 31097, 
    "ZIP": 60638, 
    "ADDRESS": "5757 W 59TH ST 1ST", 
    "YEAR": 2006, 
    "LONGITUDE": -87.766753432, 
    "LATTITUDE": 41.785192674
  }, 
  {
    "BUSINESS_TYPE": "Wholesale Food Establishment", 
    "LEGAL_NAME": "PENN VALLEY FARMS LIMITED.", 
    "STATE": "IL", 
    "DOING_BUSINESS_AS_NAME": "PENN VALLEY FARMS LTD.", 
    "POP_AT_RISK": 26135, 
    "ZIP": 60634, 
    "ADDRESS": "6851 W IRVING PARK RD 1ST", 
    "YEAR": 2006, 
    "LONGITUDE": -87.798306311, 
    "LATTITUDE": 41.952632794
  }, 
  {
    "BUSINESS_TYPE": "Wholesale Food Establishment", 
    "LEGAL_NAME": "NADER WHOLESALE GROCERS INC", 
    "STATE": "IL", 
    "DOING_BUSINESS_AS_NAME": "NADER WHOLESALE GROCERS INC", 
    "POP_AT_RISK": 27493, 
    "ZIP": 60652, 
    "ADDRESS": "3636 W 83RD PL", 
    "YEAR": 2006, 
    "LONGITUDE": -87.71354242, 
    "LATTITUDE": 41.741506927
  }, 
  {
    "BUSINESS_TYPE": "Wholesale Food Establishment", 
    "LEGAL_NAME": "NUTS ON CLARK INC", 
    "STATE": "IL", 
    "DOING_BUSINESS_AS_NAME": "NUTS ON CLARK INC", 
    "POP_AT_RISK": 88382, 
    "ZIP": 60613, 
    "ADDRESS": "3830 N CLARK ST", 
    "YEAR": 2006, 
    "LONGITUDE": -87.66038146, 
    "LATTITUDE": 41.951806344
  }
]