[
  {
    "BUSINESS_TYPE": "Special Event Food", 
    "LEGAL_NAME": "GABRIEL ALVAREZ", 
    "STATE": "IL", 
    "DOING_BUSINESS_AS_NAME": "EL CABRITO RESTAURANT", 
    "POP_AT_RISK": 20478, 
    "ZIP": 60632, 
    "ADDRESS": "4700 W 47TH ST", 
    "YEAR": 2007, 
    "LONGITUDE": -87.740773908, 
    "LATTITUDE": 41.807761481
  }, 
  {
    "BUSINESS_TYPE": "Special Event Food", 
    "LEGAL_NAME": "CATHOLIC BISHOP OF CHICAGO", 
    "STATE": "IL", 
    "DOING_BUSINESS_AS_NAME": "Our Lady of Guadalupe Church", 
    "POP_AT_RISK": 17702, 
    "ZIP": 60617, 
    "ADDRESS": "3200 E 91ST ST", 
    "YEAR": 2007, 
    "LONGITUDE": -87.546870868, 
    "LATTITUDE": 41.730234727
  }, 
  {
    "BUSINESS_TYPE": "Special Event Food", 
    "LEGAL_NAME": "EVANGEL ASSEMBY OF GOD", 
    "STATE": "IL", 
    "DOING_BUSINESS_AS_NAME": "EVANGEL WORLD OUT REACH  CENTER", 
    "POP_AT_RISK": 67195, 
    "ZIP": 60641, 
    "ADDRESS": "3235 N LECLAIRE AVE", 
    "YEAR": 2007, 
    "LONGITUDE": -87.754130204, 
    "LATTITUDE": 41.939810433
  }, 
  {
    "BUSINESS_TYPE": "Special Event Food", 
    "LEGAL_NAME": "Susan Bacsa", 
    "STATE": "IL", 
    "DOING_BUSINESS_AS_NAME": "Suzie's Fun Foods & Funnel Cakes", 
    "POP_AT_RISK": 42210, 
    "ZIP": 60607, 
    "ADDRESS": "720 N CALIFORNIA AVE", 
    "YEAR": 2007, 
    "LONGITUDE": -87.696817646, 
    "LATTITUDE": 41.894354277
  }, 
  {
    "BUSINESS_TYPE": "Special Event Food", 
    "LEGAL_NAME": "QUEEN OF THE UNIVERSE CHURCH", 
    "STATE": "IL", 
    "DOING_BUSINESS_AS_NAME": "Parish Organizations", 
    "POP_AT_RISK": 38425, 
    "ZIP": 60629, 
    "ADDRESS": "7114 S HAMLIN AVE", 
    "YEAR": 2007, 
    "LONGITUDE": -87.71762669, 
    "LATTITUDE": 41.763675836
  }, 
  {
    "BUSINESS_TYPE": "Special Event Food", 
    "LEGAL_NAME": "THE CATHOLIC BISHOP OF CHICAGO", 
    "STATE": "IL", 
    "DOING_BUSINESS_AS_NAME": "OUR LADY OF TEPEYAC PARISH", 
    "POP_AT_RISK": 59846, 
    "ZIP": 60623, 
    "ADDRESS": "2235 S ALBANY AVE", 
    "YEAR": 2007, 
    "LONGITUDE": -87.70262483, 
    "LATTITUDE": 41.850752923
  }, 
  {
    "BUSINESS_TYPE": "Special Event Food", 
    "LEGAL_NAME": "JESUS GUTERREZ", 
    "STATE": "IL", 
    "DOING_BUSINESS_AS_NAME": "VOLUNTEERS OF ST.ROMAN PARISH", 
    "POP_AT_RISK": 48017, 
    "ZIP": 60608, 
    "ADDRESS": "2311 S WASHTENAW AVE", 
    "YEAR": 2007, 
    "LONGITUDE": -87.692787377, 
    "LATTITUDE": 41.849728518
  }, 
  {
    "BUSINESS_TYPE": "Special Event Food", 
    "LEGAL_NAME": "ORIGINAL RAINBOW CONE, INC.", 
    "STATE": "IL", 
    "DOING_BUSINESS_AS_NAME": "ORIGINAL RAINBOW CONE", 
    "POP_AT_RISK": 19607, 
    "ZIP": 60643, 
    "ADDRESS": "2153 W 111TH ST", 
    "YEAR": 2007, 
    "LONGITUDE": -87.676008619, 
    "LATTITUDE": 41.691747004
  }, 
  {
    "BUSINESS_TYPE": "Special Event Food", 
    "LEGAL_NAME": "MATERNITY B.V.M. CHURCH", 
    "STATE": "IL", 
    "DOING_BUSINESS_AS_NAME": "MATERNITY B.V.M. CHURCH", 
    "POP_AT_RISK": 73007, 
    "ZIP": 60647, 
    "ADDRESS": "3647 W NORTH AVE", 
    "YEAR": 2007, 
    "LONGITUDE": -87.718636249, 
    "LATTITUDE": 41.909860488
  }, 
  {
    "BUSINESS_TYPE": "Special Event Food", 
    "LEGAL_NAME": "PODRUMEDIC RESTAURANTS, INC.", 
    "STATE": "IL", 
    "DOING_BUSINESS_AS_NAME": "CONTINENTAL CAFE", 
    "POP_AT_RISK": 60882, 
    "ZIP": 60618, 
    "ADDRESS": "3600 N CALIFORNIA AVE", 
    "YEAR": 2007, 
    "LONGITUDE": -87.69818089, 
    "LATTITUDE": 41.946771411
  }, 
  {
    "BUSINESS_TYPE": "Special Event Food", 
    "LEGAL_NAME": "ROSEMOOR SNACK SHOP, INC.", 
    "STATE": "IL", 
    "DOING_BUSINESS_AS_NAME": "Rosemoor Snack Shop", 
    "POP_AT_RISK": 26179, 
    "ZIP": 60628, 
    "ADDRESS": "10115 S PRAIRIE AVE", 
    "YEAR": 2007, 
    "LONGITUDE": -87.617353421, 
    "LATTITUDE": 41.710416562
  }, 
  {
    "BUSINESS_TYPE": "Special Event Food", 
    "LEGAL_NAME": "SANTA LUCIA PARISH", 
    "STATE": "IL", 
    "DOING_BUSINESS_AS_NAME": "Santa Lucia Parish", 
    "POP_AT_RISK": 38766, 
    "ZIP": 60616, 
    "ADDRESS": "3000 S WELLS ST", 
    "YEAR": 2007, 
    "LONGITUDE": -87.633068515, 
    "LATTITUDE": 41.839631259
  }, 
  {
    "BUSINESS_TYPE": "Special Event Food", 
    "LEGAL_NAME": "ORIGINAL RAINBOW CONE, INC.", 
    "STATE": "IL", 
    "DOING_BUSINESS_AS_NAME": "ORIGINAL RAINBOW CONE", 
    "POP_AT_RISK": 16844, 
    "ZIP": 60643, 
    "ADDRESS": "10650 S LONGWOOD DR", 
    "YEAR": 2007, 
    "LONGITUDE": -87.671251081, 
    "LATTITUDE": 41.699537213
  }, 
  {
    "BUSINESS_TYPE": "Special Event Food", 
    "LEGAL_NAME": "STEVE AGOU", 
    "STATE": "IL", 
    "DOING_BUSINESS_AS_NAME": "ASSUMPTION GREEK CHURCH", 
    "POP_AT_RISK": 25175, 
    "ZIP": 60644, 
    "ADDRESS": "601 S CENTRAL AVE", 
    "YEAR": 2007, 
    "LONGITUDE": -87.7644383, 
    "LATTITUDE": 41.87277985
  }, 
  {
    "BUSINESS_TYPE": "Special Event Food", 
    "LEGAL_NAME": "Larry Walter", 
    "STATE": "IL", 
    "DOING_BUSINESS_AS_NAME": "Tasty Catering", 
    "POP_AT_RISK": 19511, 
    "ZIP": 60652, 
    "ADDRESS": "2825 W 81ST ST", 
    "YEAR": 2007, 
    "LONGITUDE": -87.693686005, 
    "LATTITUDE": 41.746179525
  }, 
  {
    "BUSINESS_TYPE": "Special Event Food", 
    "LEGAL_NAME": "GENEVIEVE S. ANIEMEKA", 
    "STATE": "IL", 
    "DOING_BUSINESS_AS_NAME": "STELLA'S MARKET & CATERING", 
    "POP_AT_RISK": 66513, 
    "ZIP": 60640, 
    "ADDRESS": "1145 W WILSON AVE", 
    "YEAR": 2007, 
    "LONGITUDE": -87.659237977, 
    "LATTITUDE": 41.965267395
  }, 
  {
    "BUSINESS_TYPE": "Special Event Food", 
    "LEGAL_NAME": "LIVIER SALAZAR", 
    "STATE": "IL", 
    "DOING_BUSINESS_AS_NAME": "ST. AGNES OF BOHEMIA", 
    "POP_AT_RISK": 69037, 
    "ZIP": 60623, 
    "ADDRESS": "2651 S CENTRAL PARK AVE", 
    "YEAR": 2007, 
    "LONGITUDE": -87.71459778, 
    "LATTITUDE": 41.842872349
  }, 
  {
    "BUSINESS_TYPE": "Special Event Food", 
    "LEGAL_NAME": "RG JR INC", 
    "STATE": "IL", 
    "DOING_BUSINESS_AS_NAME": "BOJONO'S", 
    "POP_AT_RISK": 53567, 
    "ZIP": 60630, 
    "ADDRESS": "4350 W SUNNYSIDE AVE", 
    "YEAR": 2007, 
    "LONGITUDE": -87.737697112, 
    "LATTITUDE": 41.962768306
  }, 
  {
    "BUSINESS_TYPE": "Special Event Food", 
    "LEGAL_NAME": "Joseph Glueckert", 
    "STATE": "IL", 
    "DOING_BUSINESS_AS_NAME": "St. Gertrude Church & NCA School Food Booth", 
    "POP_AT_RISK": 65024, 
    "ZIP": 60660, 
    "ADDRESS": "6220 N GLENWOOD AVE", 
    "YEAR": 2007, 
    "LONGITUDE": -87.66545069, 
    "LATTITUDE": 41.995168212
  }
]