[
  {
    "BUSINESS_TYPE": "Body Piercing", 
    "LEGAL_NAME": "UNDERWOOD ART. CO.", 
    "STATE": "IL", 
    "DOING_BUSINESS_AS_NAME": "TAYLOR STREET TATTOO AND BODY PIERCING COMPANY", 
    "POP_AT_RISK": 46694, 
    "ZIP": 60607, 
    "ADDRESS": "1150 W TAYLOR ST 1ST", 
    "YEAR": 2012, 
    "LONGITUDE": -87.656260979, 
    "LATTITUDE": 41.869533544
  }, 
  {
    "BUSINESS_TYPE": "Body Piercing", 
    "LEGAL_NAME": "TINA'S SPA SALON CORP.", 
    "STATE": "IL", 
    "DOING_BUSINESS_AS_NAME": "TINA'S SPA SALON CORP.", 
    "POP_AT_RISK": 29620, 
    "ZIP": 60609, 
    "ADDRESS": "1848 W PERSHING RD 1", 
    "YEAR": 2012, 
    "LONGITUDE": -87.671944485, 
    "LATTITUDE": 41.82339041
  }, 
  {
    "BUSINESS_TYPE": "Body Piercing", 
    "LEGAL_NAME": "JADE DRAGON TATTOO INC", 
    "STATE": "IL", 
    "DOING_BUSINESS_AS_NAME": "JADE DRAGON TATTOO INC", 
    "POP_AT_RISK": 70344, 
    "ZIP": 60641, 
    "ADDRESS": "5331 W BELMONT AVE 1ST", 
    "YEAR": 2012, 
    "LONGITUDE": -87.760401851, 
    "LATTITUDE": 41.938542467
  }, 
  {
    "BUSINESS_TYPE": "Body Piercing", 
    "LEGAL_NAME": "INKHART TATTOOS AND BODY PIERCING", 
    "STATE": "IL", 
    "DOING_BUSINESS_AS_NAME": "INKHART TATTOOS AND BODY PIERCING", 
    "POP_AT_RISK": 29296, 
    "ZIP": 60620, 
    "ADDRESS": "9046 S ASHLAND AVE 1ST", 
    "YEAR": 2012, 
    "LONGITUDE": -87.663009559, 
    "LATTITUDE": 41.728908843
  }, 
  {
    "BUSINESS_TYPE": "Body Piercing", 
    "LEGAL_NAME": "JAYCE THOMAS, JUSTIN WRICE, AARON HOPKINS", 
    "STATE": "IL", 
    "DOING_BUSINESS_AS_NAME": "VIVID INK GALLERY", 
    "POP_AT_RISK": 46396, 
    "ZIP": 60608, 
    "ADDRESS": "2150 S CANALPORT AVE 4TH 4C-16", 
    "YEAR": 2012, 
    "LONGITUDE": -87.649929695, 
    "LATTITUDE": 41.853301464
  }, 
  {
    "BUSINESS_TYPE": "Body Piercing", 
    "LEGAL_NAME": "CLAIRE'S BOUTIQUES, INC.", 
    "STATE": "IL", 
    "DOING_BUSINESS_AS_NAME": "CLAIRE'S BOUTIQUE #6696", 
    "POP_AT_RISK": 63203, 
    "ZIP": 60661, 
    "ADDRESS": "500 W MADISON ST # 6696", 
    "YEAR": 2012, 
    "LONGITUDE": -87.639758685, 
    "LATTITUDE": 41.881994338
  }, 
  {
    "BUSINESS_TYPE": "Body Piercing", 
    "LEGAL_NAME": "THOMAS J. DAVIS", 
    "STATE": "IL", 
    "DOING_BUSINESS_AS_NAME": "MARS HILL", 
    "POP_AT_RISK": 65641, 
    "ZIP": 60626, 
    "ADDRESS": "6956 N CLARK ST 1ST", 
    "YEAR": 2012, 
    "LONGITUDE": -87.67393372, 
    "LATTITUDE": 42.008221268
  }, 
  {
    "BUSINESS_TYPE": "Body Piercing", 
    "LEGAL_NAME": "JOSE F. RODRIGUEZ", 
    "STATE": "IL", 
    "DOING_BUSINESS_AS_NAME": "DIAMOND TATTOOS", 
    "POP_AT_RISK": 89488, 
    "ZIP": 60647, 
    "ADDRESS": "3816 W ARMITAGE AVE 1", 
    "YEAR": 2012, 
    "LONGITUDE": -87.722359077, 
    "LATTITUDE": 41.917323476
  }, 
  {
    "BUSINESS_TYPE": "Body Piercing", 
    "LEGAL_NAME": "INKFUL THOUGHTS ART STUDIO INC.", 
    "STATE": "IL", 
    "DOING_BUSINESS_AS_NAME": "INKFUL THOUGHTS ART STUDIO INC.", 
    "POP_AT_RISK": 35842, 
    "ZIP": 60617, 
    "ADDRESS": "8100 S STONY ISLAND AVE 1ST", 
    "YEAR": 2012, 
    "LONGITUDE": -87.586037416, 
    "LATTITUDE": 41.747749212
  }, 
  {
    "BUSINESS_TYPE": "Body Piercing", 
    "LEGAL_NAME": "THE CHICAGO TATTOOING CO INC", 
    "STATE": "IL", 
    "DOING_BUSINESS_AS_NAME": "THE CHICAGO TATTOOING CO INC", 
    "POP_AT_RISK": 88868, 
    "ZIP": 60657, 
    "ADDRESS": "1017 W BELMONT AVE", 
    "YEAR": 2012, 
    "LONGITUDE": -87.654746687, 
    "LATTITUDE": 41.939791106
  }, 
  {
    "BUSINESS_TYPE": "Body Piercing", 
    "LEGAL_NAME": "WAL-MART STORES, INC.", 
    "STATE": "IL", 
    "DOING_BUSINESS_AS_NAME": "WALMART #5781", 
    "POP_AT_RISK": 27483, 
    "ZIP": 60620, 
    "ADDRESS": "8331 S STEWART AVE", 
    "YEAR": 2012, 
    "LONGITUDE": -87.633936931, 
    "LATTITUDE": 41.742577617
  }, 
  {
    "BUSINESS_TYPE": "Body Piercing", 
    "LEGAL_NAME": "PAUL COLLURAFICI", 
    "STATE": "IL", 
    "DOING_BUSINESS_AS_NAME": "TATTOO FACTORY", 
    "POP_AT_RISK": 65546, 
    "ZIP": 60640, 
    "ADDRESS": "4439-4443 N BROADWAY", 
    "YEAR": 2012, 
    "LONGITUDE": -87.655674569, 
    "LATTITUDE": 41.96284263
  }, 
  {
    "BUSINESS_TYPE": "Body Piercing", 
    "LEGAL_NAME": "CARLOS  L  SOTO", 
    "STATE": "IL", 
    "DOING_BUSINESS_AS_NAME": "PRO CUSTOM TATTOO", 
    "POP_AT_RISK": 53213, 
    "ZIP": 60636, 
    "ADDRESS": "5828 S WESTERN AVE 1ST", 
    "YEAR": 2012, 
    "LONGITUDE": -87.684004784, 
    "LATTITUDE": 41.787469303
  }, 
  {
    "BUSINESS_TYPE": "Body Piercing", 
    "LEGAL_NAME": "LUIS AVITIA", 
    "STATE": "IL", 
    "DOING_BUSINESS_AS_NAME": "ARCHER AVENUE TATTOO  & BODY PIERCING", 
    "POP_AT_RISK": 37995, 
    "ZIP": 60632, 
    "ADDRESS": "4440 S ARCHER AVE 1 1", 
    "YEAR": 2012, 
    "LONGITUDE": -87.706711987, 
    "LATTITUDE": 41.81271832
  }, 
  {
    "BUSINESS_TYPE": "Body Piercing", 
    "LEGAL_NAME": "MICHELLE L RYBKA", 
    "STATE": "IL", 
    "DOING_BUSINESS_AS_NAME": "ETCHED IN SKIN", 
    "POP_AT_RISK": 27493, 
    "ZIP": 60652, 
    "ADDRESS": "8356 S PULASKI RD  STORE", 
    "YEAR": 2012, 
    "LONGITUDE": -87.721769284, 
    "LATTITUDE": 41.740450235
  }, 
  {
    "BUSINESS_TYPE": "Body Piercing", 
    "LEGAL_NAME": "VINTAGE TATTOO  INC.", 
    "STATE": "IL", 
    "DOING_BUSINESS_AS_NAME": "VINTAGE TATTOO", 
    "POP_AT_RISK": 64463, 
    "ZIP": 60618, 
    "ADDRESS": "3962 N ELSTON AVE 1ST", 
    "YEAR": 2012, 
    "LONGITUDE": -87.718622191, 
    "LATTITUDE": 41.953196387
  }, 
  {
    "BUSINESS_TYPE": "Body Piercing", 
    "LEGAL_NAME": "STEVEN CANCINO", 
    "STATE": "IL", 
    "DOING_BUSINESS_AS_NAME": "SOUTH INK", 
    "POP_AT_RISK": 30221, 
    "ZIP": 60632, 
    "ADDRESS": "4897 S ARCHER AVE 1ST", 
    "YEAR": 2012, 
    "LONGITUDE": -87.72011737, 
    "LATTITUDE": 41.804207205
  }, 
  {
    "BUSINESS_TYPE": "Body Piercing", 
    "LEGAL_NAME": "BROKEN HEART STUDIOS, INC.", 
    "STATE": "IL", 
    "DOING_BUSINESS_AS_NAME": "BRIDGEPORT TATTOO CO.", 
    "POP_AT_RISK": 37337, 
    "ZIP": 60609, 
    "ADDRESS": "3527 S HALSTED ST 1ST FLR", 
    "YEAR": 2012, 
    "LONGITUDE": -87.645942267, 
    "LATTITUDE": 41.829939462
  }, 
  {
    "BUSINESS_TYPE": "Body Piercing", 
    "LEGAL_NAME": "EXOTIC BODY CREATIONS INC.", 
    "STATE": "IL", 
    "DOING_BUSINESS_AS_NAME": "AGELESS ARTS", 
    "POP_AT_RISK": 69289, 
    "ZIP": 60623, 
    "ADDRESS": "2410 S KEDZIE AVE", 
    "YEAR": 2012, 
    "LONGITUDE": -87.705284574, 
    "LATTITUDE": 41.847766682
  }, 
  {
    "BUSINESS_TYPE": "Body Piercing", 
    "LEGAL_NAME": "KIDD JOE' S TAT CAVE TATTOO & BODY PIERCING LLC", 
    "STATE": "IL", 
    "DOING_BUSINESS_AS_NAME": "KIDD JOE' S TAT CAVE TATTOO & BODY PIERCING", 
    "POP_AT_RISK": 32608, 
    "ZIP": 60634, 
    "ADDRESS": "3629 N HARLEM AVE 1ST", 
    "YEAR": 2012, 
    "LONGITUDE": -87.806888929, 
    "LATTITUDE": 41.946140677
  }, 
  {
    "BUSINESS_TYPE": "Body Piercing", 
    "LEGAL_NAME": "CLAIRE'S BOUTIQUES, INC.", 
    "STATE": "IL", 
    "DOING_BUSINESS_AS_NAME": "CLAIRE'S", 
    "POP_AT_RISK": 57621, 
    "ZIP": 60614, 
    "ADDRESS": "1730 W FULLERTON AVE  21", 
    "YEAR": 2012, 
    "LONGITUDE": -87.671925425, 
    "LATTITUDE": 41.925212328
  }, 
  {
    "BUSINESS_TYPE": "Body Piercing", 
    "LEGAL_NAME": "BUMBLEBEE INK INC.", 
    "STATE": "IL", 
    "DOING_BUSINESS_AS_NAME": "BUMBLEBEE INK", 
    "POP_AT_RISK": 64377, 
    "ZIP": 60623, 
    "ADDRESS": "3510 W 26TH ST 1ST", 
    "YEAR": 2012, 
    "LONGITUDE": -87.712868451, 
    "LATTITUDE": 41.84451594
  }, 
  {
    "BUSINESS_TYPE": "Body Piercing", 
    "LEGAL_NAME": "CLAIRE'S BOUTIQUES, INC.", 
    "STATE": "IL", 
    "DOING_BUSINESS_AS_NAME": "CLAIRE'S", 
    "POP_AT_RISK": 69642, 
    "ZIP": 60602, 
    "ADDRESS": "5 N STATE ST", 
    "YEAR": 2012, 
    "LONGITUDE": -87.627686883, 
    "LATTITUDE": 41.882191773
  }, 
  {
    "BUSINESS_TYPE": "Body Piercing", 
    "LEGAL_NAME": "MASTERMIND INK, LLC", 
    "STATE": "IL", 
    "DOING_BUSINESS_AS_NAME": "MASTERMIND INK", 
    "POP_AT_RISK": 81136, 
    "ZIP": 60640, 
    "ADDRESS": "4407 N CLARK ST 1ST FLOOR 1", 
    "YEAR": 2012, 
    "LONGITUDE": -87.665872039, 
    "LATTITUDE": 41.961910294
  }, 
  {
    "BUSINESS_TYPE": "Body Piercing", 
    "LEGAL_NAME": "RAJI ROSS", 
    "STATE": "IL", 
    "DOING_BUSINESS_AS_NAME": "SKIN PASSION TATTOOS", 
    "POP_AT_RISK": 47861, 
    "ZIP": 60629, 
    "ADDRESS": "2523 W 63RD ST 1ST", 
    "YEAR": 2012, 
    "LONGITUDE": -87.687150945, 
    "LATTITUDE": 41.779098424
  }, 
  {
    "BUSINESS_TYPE": "Body Piercing", 
    "LEGAL_NAME": "DREAM CITY TATTOOS, LLC", 
    "STATE": "IL", 
    "DOING_BUSINESS_AS_NAME": "DREAM CITY TATTOOS, LLC", 
    "POP_AT_RISK": 26756, 
    "ZIP": 60707, 
    "ADDRESS": "2376 - 2378 N NEVA AVE 1ST", 
    "YEAR": 2012, 
    "LONGITUDE": -87.804545589, 
    "LATTITUDE": 41.923340816
  }, 
  {
    "BUSINESS_TYPE": "Body Piercing", 
    "LEGAL_NAME": "WAL-MART STORES, INC.", 
    "STATE": "IL", 
    "DOING_BUSINESS_AS_NAME": "WALMART #5402", 
    "POP_AT_RISK": 56124, 
    "ZIP": 60639, 
    "ADDRESS": "4650 W NORTH AVE", 
    "YEAR": 2012, 
    "LONGITUDE": -87.743376296, 
    "LATTITUDE": 41.909764527
  }, 
  {
    "BUSINESS_TYPE": "Body Piercing", 
    "LEGAL_NAME": "EPIDERMAL ENGRAVING EMPORIUM INC.", 
    "STATE": "IL", 
    "DOING_BUSINESS_AS_NAME": "GEORGE PAPAS TATTOO", 
    "POP_AT_RISK": 75515, 
    "ZIP": 60660, 
    "ADDRESS": "6305 N CLARK ST 1", 
    "YEAR": 2012, 
    "LONGITUDE": -87.670092117, 
    "LATTITUDE": 41.996566735
  }, 
  {
    "BUSINESS_TYPE": "Body Piercing", 
    "LEGAL_NAME": "RAGS 2 RICHES FASHIONS, LTD.", 
    "STATE": "IL", 
    "DOING_BUSINESS_AS_NAME": "THE ALLEY", 
    "POP_AT_RISK": 93207, 
    "ZIP": 60657, 
    "ADDRESS": "3228 N CLARK ST GROUND", 
    "YEAR": 2012, 
    "LONGITUDE": -87.651409508, 
    "LATTITUDE": 41.940646213
  }, 
  {
    "BUSINESS_TYPE": "Body Piercing", 
    "LEGAL_NAME": "FIFTH SUN GRAPHIX, INC", 
    "STATE": "IL", 
    "DOING_BUSINESS_AS_NAME": "FIFTH SUN GRAPHIX, INC.", 
    "POP_AT_RISK": 54617, 
    "ZIP": 60639, 
    "ADDRESS": "5718 W GRAND AVE 1", 
    "YEAR": 2012, 
    "LONGITUDE": -87.769035848, 
    "LATTITUDE": 41.919463875
  }, 
  {
    "BUSINESS_TYPE": "Body Piercing", 
    "LEGAL_NAME": "EAGLE LEATHERS INCORPORATED", 
    "STATE": "IL", 
    "DOING_BUSINESS_AS_NAME": "EAGLE LEATHERS", 
    "POP_AT_RISK": 50151, 
    "ZIP": 60640, 
    "ADDRESS": "5005-5007 N CLARK ST 1", 
    "YEAR": 2012, 
    "LONGITUDE": -87.667797034, 
    "LATTITUDE": 41.972721039
  }, 
  {
    "BUSINESS_TYPE": "Body Piercing", 
    "LEGAL_NAME": "DA HOT ZONE, INC.", 
    "STATE": "IL", 
    "DOING_BUSINESS_AS_NAME": "DA HOT ZONE", 
    "POP_AT_RISK": 69324, 
    "ZIP": 60647, 
    "ADDRESS": "2500 N MILWAUKEE AVE  614-615", 
    "YEAR": 2012, 
    "LONGITUDE": -87.703827827, 
    "LATTITUDE": 41.926736598
  }, 
  {
    "BUSINESS_TYPE": "Body Piercing", 
    "LEGAL_NAME": "MARIA G. & MARCO A SANDOVAL", 
    "STATE": "IL", 
    "DOING_BUSINESS_AS_NAME": "APOCALIPSIS NOCTURNAL", 
    "POP_AT_RISK": 53653, 
    "ZIP": 60632, 
    "ADDRESS": "4003 S ARCHER AVE 1", 
    "YEAR": 2012, 
    "LONGITUDE": -87.692879877, 
    "LATTITUDE": 41.820919316
  }, 
  {
    "BUSINESS_TYPE": "Body Piercing", 
    "LEGAL_NAME": "SOUTHSIDE TATTOOS & BODY PIERCING LLC", 
    "STATE": "IL", 
    "DOING_BUSINESS_AS_NAME": "SOUTHSIDE TATTOOS & BODY PIERCING LLC", 
    "POP_AT_RISK": 32623, 
    "ZIP": 60617, 
    "ADDRESS": "8548 S STONY ISLAND AVE", 
    "YEAR": 2012, 
    "LONGITUDE": -87.585842055, 
    "LATTITUDE": 41.739090425
  }, 
  {
    "BUSINESS_TYPE": "Body Piercing", 
    "LEGAL_NAME": "HTH INCORPORATED", 
    "STATE": "IL", 
    "DOING_BUSINESS_AS_NAME": "INSIGHT STUDIOS", 
    "POP_AT_RISK": 51346, 
    "ZIP": 60642, 
    "ADDRESS": "1062 N MILWAUKEE AVE 1ST", 
    "YEAR": 2012, 
    "LONGITUDE": -87.663198449, 
    "LATTITUDE": 41.901102965
  }
]