[
  {
    "BUSINESS_TYPE": "Tire Facilty Class I (100 - 1,000 Tires)", 
    "LEGAL_NAME": "CENTRAL AND CALDWELL SERVICE", 
    "STATE": "IL", 
    "DOING_BUSINESS_AS_NAME": "CENTRAL AND CALDWELL SERVICE", 
    "POP_AT_RISK": 17956, 
    "ZIP": 60646, 
    "ADDRESS": "6301 N CENTRAL AVE", 
    "YEAR": 2003, 
    "LONGITUDE": -87.764049237, 
    "LATTITUDE": 41.996166548
  }, 
  {
    "BUSINESS_TYPE": "Tire Facilty Class I (100 - 1,000 Tires)", 
    "LEGAL_NAME": "ARMANDO PRIETO", 
    "STATE": "IL", 
    "DOING_BUSINESS_AS_NAME": "ARMANDO TIRE SHOP", 
    "POP_AT_RISK": 27458, 
    "ZIP": 60617, 
    "ADDRESS": "8472 S COMMERCIAL AVE  1", 
    "YEAR": 2003, 
    "LONGITUDE": -87.551649556, 
    "LATTITUDE": 41.741408722
  }, 
  {
    "BUSINESS_TYPE": "Tire Facilty Class I (100 - 1,000 Tires)", 
    "LEGAL_NAME": "LOUIS A FELICIANO", 
    "STATE": "IL", 
    "DOING_BUSINESS_AS_NAME": "LOUIE'S TIRE & WHEELS", 
    "POP_AT_RISK": 50952, 
    "ZIP": 60622, 
    "ADDRESS": "1011-13 N CALIFORNIA AVE # 1ST", 
    "YEAR": 2003, 
    "LONGITUDE": -87.696651105, 
    "LATTITUDE": 41.899588639
  }, 
  {
    "BUSINESS_TYPE": "Tire Facilty Class I (100 - 1,000 Tires)", 
    "LEGAL_NAME": "HARLEM-ADDISON TIRE & AUTO INC", 
    "STATE": "IL", 
    "DOING_BUSINESS_AS_NAME": "HARLEM-ADDISON TIRE & AUTO INC", 
    "POP_AT_RISK": 32608, 
    "ZIP": 60634, 
    "ADDRESS": "7200 W ADDISON ST", 
    "YEAR": 2003, 
    "LONGITUDE": -87.807070326, 
    "LATTITUDE": 41.945373358
  }, 
  {
    "BUSINESS_TYPE": "Tire Facilty Class I (100 - 1,000 Tires)", 
    "LEGAL_NAME": "CARSON'S TIRE SERVICE, INC.", 
    "STATE": "IL", 
    "DOING_BUSINESS_AS_NAME": "CARSON TIRE SERVICE, INC", 
    "POP_AT_RISK": 47191, 
    "ZIP": 60622, 
    "ADDRESS": "1627 W HUBBARD ST", 
    "YEAR": 2003, 
    "LONGITUDE": -87.668194176, 
    "LATTITUDE": 41.889761066
  }, 
  {
    "BUSINESS_TYPE": "Tire Facilty Class I (100 - 1,000 Tires)", 
    "LEGAL_NAME": "BRIDGESTONE RETAIL OPERATIONS, LLC", 
    "STATE": "IL", 
    "DOING_BUSINESS_AS_NAME": "FIRESTONE", 
    "POP_AT_RISK": 12963, 
    "ZIP": 60643, 
    "ADDRESS": "9549 S WESTERN AVE", 
    "YEAR": 2003, 
    "LONGITUDE": -87.681872575, 
    "LATTITUDE": 41.719488343
  }, 
  {
    "BUSINESS_TYPE": "Tire Facilty Class I (100 - 1,000 Tires)", 
    "LEGAL_NAME": "Antioch Tire, Inc.", 
    "STATE": "IL", 
    "DOING_BUSINESS_AS_NAME": "Antioch Tire, Inc.", 
    "POP_AT_RISK": 10353, 
    "ZIP": 60628, 
    "ADDRESS": "12002 S DOTY AVE", 
    "YEAR": 2003, 
    "LONGITUDE": -87.602079933, 
    "LATTITUDE": 41.676172102
  }, 
  {
    "BUSINESS_TYPE": "Tire Facilty Class I (100 - 1,000 Tires)", 
    "LEGAL_NAME": "JOY INC", 
    "STATE": "IL", 
    "DOING_BUSINESS_AS_NAME": "JOY AUTO CORP", 
    "POP_AT_RISK": 25432, 
    "ZIP": 60628, 
    "ADDRESS": "10001 S HALSTED ST 1ST", 
    "YEAR": 2003, 
    "LONGITUDE": -87.642823313, 
    "LATTITUDE": 41.712284267
  }, 
  {
    "BUSINESS_TYPE": "Tire Facilty Class I (100 - 1,000 Tires)", 
    "LEGAL_NAME": "RELIABLE AUTO REPAIR CENTER, INC.", 
    "STATE": "IL", 
    "DOING_BUSINESS_AS_NAME": "RELIABLE AUTO REPAIR CENTR INC", 
    "POP_AT_RISK": 72297, 
    "ZIP": 60657, 
    "ADDRESS": "3401 N ASHLAND AVE", 
    "YEAR": 2003, 
    "LONGITUDE": -87.668618767, 
    "LATTITUDE": 41.94343674
  }, 
  {
    "BUSINESS_TYPE": "Tire Facilty Class I (100 - 1,000 Tires)", 
    "LEGAL_NAME": "JAMES GORDON", 
    "STATE": "IL", 
    "DOING_BUSINESS_AS_NAME": "4 ACES TIRES", 
    "POP_AT_RISK": 31036, 
    "ZIP": 60628, 
    "ADDRESS": "10952 S MICHIGAN AVE  1", 
    "YEAR": 2003, 
    "LONGITUDE": -87.620929988, 
    "LATTITUDE": 41.694688043
  }, 
  {
    "BUSINESS_TYPE": "Tire Facilty Class I (100 - 1,000 Tires)", 
    "LEGAL_NAME": "WESLEY'S AUTO REPAIR & SERVICE'S INC.", 
    "STATE": "IL", 
    "DOING_BUSINESS_AS_NAME": "WESLEY'S AUTO REPAIR & SERVICES INC", 
    "POP_AT_RISK": 44533, 
    "ZIP": 60639, 
    "ADDRESS": "5841 W NORTH AVE", 
    "YEAR": 2003, 
    "LONGITUDE": -87.772340372, 
    "LATTITUDE": 41.909185079
  }, 
  {
    "BUSINESS_TYPE": "Tire Facilty Class I (100 - 1,000 Tires)", 
    "LEGAL_NAME": "THE BROWN TIRE CORPORATION", 
    "STATE": "IL", 
    "DOING_BUSINESS_AS_NAME": "BROWN TIRE CORPORATION", 
    "POP_AT_RISK": 30285, 
    "ZIP": 60617, 
    "ADDRESS": "1816-1824 E 87TH ST 1ST", 
    "YEAR": 2003, 
    "LONGITUDE": -87.579844098, 
    "LATTITUDE": 41.737107323
  }, 
  {
    "BUSINESS_TYPE": "Tire Facilty Class I (100 - 1,000 Tires)", 
    "LEGAL_NAME": "HARLEM & BELMONT SHELL, INC", 
    "STATE": "IL", 
    "DOING_BUSINESS_AS_NAME": "HARLEM & BELMONT INC", 
    "POP_AT_RISK": 38126, 
    "ZIP": 60634, 
    "ADDRESS": "3200 N HARLEM AVE 1ST", 
    "YEAR": 2003, 
    "LONGITUDE": -87.806896749, 
    "LATTITUDE": 41.938084468
  }, 
  {
    "BUSINESS_TYPE": "Tire Facilty Class I (100 - 1,000 Tires)", 
    "LEGAL_NAME": "WILLIAM JOHNSON", 
    "STATE": "IL", 
    "DOING_BUSINESS_AS_NAME": "TIREWORLD & RIMS", 
    "POP_AT_RISK": 33814, 
    "ZIP": 60628, 
    "ADDRESS": "646 W 95TH ST", 
    "YEAR": 2003, 
    "LONGITUDE": -87.640225287, 
    "LATTITUDE": 41.72160797
  }, 
  {
    "BUSINESS_TYPE": "Tire Facilty Class I (100 - 1,000 Tires)", 
    "LEGAL_NAME": "ANTHONY MADISON", 
    "STATE": "IL", 
    "DOING_BUSINESS_AS_NAME": "PEE WEES TIRE REPAIR", 
    "POP_AT_RISK": 23487, 
    "ZIP": 60643, 
    "ADDRESS": "1448 W 115TH ST  1", 
    "YEAR": 2003, 
    "LONGITUDE": -87.658623827, 
    "LATTITUDE": 41.684971439
  }, 
  {
    "BUSINESS_TYPE": "Tire Facilty Class I (100 - 1,000 Tires)", 
    "LEGAL_NAME": "J & S TIRE SERVICE INC", 
    "STATE": "IL", 
    "DOING_BUSINESS_AS_NAME": "J & S TIRE SERVICE INC", 
    "POP_AT_RISK": 33674, 
    "ZIP": 60624, 
    "ADDRESS": "3404 W LAKE ST", 
    "YEAR": 2003, 
    "LONGITUDE": -87.711381377, 
    "LATTITUDE": 41.88476217
  }, 
  {
    "BUSINESS_TYPE": "Tire Facilty Class I (100 - 1,000 Tires)", 
    "LEGAL_NAME": "ROBBINS AUTO SALVAGE INC.", 
    "STATE": "IL", 
    "DOING_BUSINESS_AS_NAME": "ROBBINS AUTO SALVAGE INC", 
    "POP_AT_RISK": 41389, 
    "ZIP": 60636, 
    "ADDRESS": "5845 S SEELEY AVE 1ST", 
    "YEAR": 2003, 
    "LONGITUDE": -87.675122817, 
    "LATTITUDE": 41.78670876
  }, 
  {
    "BUSINESS_TYPE": "Tire Facilty Class I (100 - 1,000 Tires)", 
    "LEGAL_NAME": "JUAN GARCIA", 
    "STATE": "IL", 
    "DOING_BUSINESS_AS_NAME": "GOMEZ TIRE", 
    "POP_AT_RISK": 41726, 
    "ZIP": 60632, 
    "ADDRESS": "3834 S KEDZIE AVE  1", 
    "YEAR": 2003, 
    "LONGITUDE": -87.704568024, 
    "LATTITUDE": 41.823383865
  }, 
  {
    "BUSINESS_TYPE": "Tire Facilty Class I (100 - 1,000 Tires)", 
    "LEGAL_NAME": "RAFAEL RODRIGUEZ", 
    "STATE": "IL", 
    "DOING_BUSINESS_AS_NAME": "HOWARD'S TIRE SHOP", 
    "POP_AT_RISK": 38369, 
    "ZIP": 60626, 
    "ADDRESS": "1535  -00037 W HOWARD ST 1ST", 
    "YEAR": 2003, 
    "LONGITUDE": -87.6697009, 
    "LATTITUDE": 42.019255534
  }, 
  {
    "BUSINESS_TYPE": "Tire Facilty Class I (100 - 1,000 Tires)", 
    "LEGAL_NAME": "ARMARDO RODRIGUEZ", 
    "STATE": "IL", 
    "DOING_BUSINESS_AS_NAME": "MIKE'S TIRE SHOP", 
    "POP_AT_RISK": 41088, 
    "ZIP": 60608, 
    "ADDRESS": "1802 S CARPENTER ST 1ST", 
    "YEAR": 2003, 
    "LONGITUDE": -87.65335579, 
    "LATTITUDE": 41.857895304
  }, 
  {
    "BUSINESS_TYPE": "Tire Facilty Class I (100 - 1,000 Tires)", 
    "LEGAL_NAME": "FULTON DESPLAINES GARAGE INC", 
    "STATE": "IL", 
    "DOING_BUSINESS_AS_NAME": "FULTON DESPLAINES GARAGE", 
    "POP_AT_RISK": 44233, 
    "ZIP": 60661, 
    "ADDRESS": "225 N DESPLAINES ST 1ST", 
    "YEAR": 2003, 
    "LONGITUDE": -87.644123652, 
    "LATTITUDE": 41.886568389
  }, 
  {
    "BUSINESS_TYPE": "Tire Facilty Class I (100 - 1,000 Tires)", 
    "LEGAL_NAME": "JALPA AUTO REPAIR", 
    "STATE": "IL", 
    "DOING_BUSINESS_AS_NAME": "JALPA AUTO REPAIR", 
    "POP_AT_RISK": 20498, 
    "ZIP": 60617, 
    "ADDRESS": "10336 S INDIANAPOLIS AVE 1ST", 
    "YEAR": 2003, 
    "LONGITUDE": -87.529291411, 
    "LATTITUDE": 41.707076535
  }, 
  {
    "BUSINESS_TYPE": "Tire Facilty Class I (100 - 1,000 Tires)", 
    "LEGAL_NAME": "SEFERINO PACHECO", 
    "STATE": "IL", 
    "DOING_BUSINESS_AS_NAME": "PACHECO TIRE SHOP", 
    "POP_AT_RISK": 31588, 
    "ZIP": 60632, 
    "ADDRESS": "5101 S KOLMAR AVE", 
    "YEAR": 2003, 
    "LONGITUDE": -87.736709154, 
    "LATTITUDE": 41.800358082
  }, 
  {
    "BUSINESS_TYPE": "Tire Facilty Class I (100 - 1,000 Tires)", 
    "LEGAL_NAME": "NETTIE E SMITH", 
    "STATE": "IL", 
    "DOING_BUSINESS_AS_NAME": "ONE STOP TIRE & REPAIR", 
    "POP_AT_RISK": 30978, 
    "ZIP": 60644, 
    "ADDRESS": "5829 W MADISON ST", 
    "YEAR": 2003, 
    "LONGITUDE": -87.770985031, 
    "LATTITUDE": 41.880036666
  }, 
  {
    "BUSINESS_TYPE": "Tire Facilty Class I (100 - 1,000 Tires)", 
    "LEGAL_NAME": "EXPRESS TIRE INC.", 
    "STATE": "IL", 
    "DOING_BUSINESS_AS_NAME": "EXPRESS TIRES", 
    "POP_AT_RISK": 47256, 
    "ZIP": 60624, 
    "ADDRESS": "3824 W ROOSEVELT RD", 
    "YEAR": 2003, 
    "LONGITUDE": -87.721198116, 
    "LATTITUDE": 41.866335539
  }, 
  {
    "BUSINESS_TYPE": "Tire Facilty Class I (100 - 1,000 Tires)", 
    "LEGAL_NAME": "BRIDGESTONE RETAIL OPERATIONS, LLC", 
    "STATE": "IL", 
    "DOING_BUSINESS_AS_NAME": "FIRESTONE", 
    "POP_AT_RISK": 45802, 
    "ZIP": 60622, 
    "ADDRESS": "909 W NORTH AVE", 
    "YEAR": 2003, 
    "LONGITUDE": -87.651502565, 
    "LATTITUDE": 41.910756928
  }, 
  {
    "BUSINESS_TYPE": "Tire Facilty Class I (100 - 1,000 Tires)", 
    "LEGAL_NAME": "THE BROWN TIRE CORPORATION", 
    "STATE": "IL", 
    "DOING_BUSINESS_AS_NAME": "BROWN TIRE CORPORATION", 
    "POP_AT_RISK": 38439, 
    "ZIP": 60619, 
    "ADDRESS": "8517 S COTTAGE GROVE AVE 1ST", 
    "YEAR": 2003, 
    "LONGITUDE": -87.604763265, 
    "LATTITUDE": 41.739733476
  }, 
  {
    "BUSINESS_TYPE": "Tire Facilty Class I (100 - 1,000 Tires)", 
    "LEGAL_NAME": "THE GOODYEAR TIRE & RUBBER COMPANY", 
    "STATE": "IL", 
    "DOING_BUSINESS_AS_NAME": "Just Tires #1262", 
    "POP_AT_RISK": 70926, 
    "ZIP": 60640, 
    "ADDRESS": "4807-4819 N BROADWAY   1", 
    "YEAR": 2003, 
    "LONGITUDE": -87.659530263, 
    "LATTITUDE": 41.969260223
  }, 
  {
    "BUSINESS_TYPE": "Tire Facilty Class I (100 - 1,000 Tires)", 
    "LEGAL_NAME": "JOHNNIE L HAYMORE", 
    "STATE": "IL", 
    "DOING_BUSINESS_AS_NAME": "Custom Wheels", 
    "POP_AT_RISK": 32170, 
    "ZIP": 60624, 
    "ADDRESS": "4422 W MADISON ST", 
    "YEAR": 2003, 
    "LONGITUDE": -87.736437176, 
    "LATTITUDE": 41.880709192
  }, 
  {
    "BUSINESS_TYPE": "Tire Facilty Class I (100 - 1,000 Tires)", 
    "LEGAL_NAME": "ELAR AUTO REBUILDERS ON STATE", 
    "STATE": "IL", 
    "DOING_BUSINESS_AS_NAME": "ELAR AUTO REBUILDERS ON STATE", 
    "POP_AT_RISK": 36442, 
    "ZIP": 60616, 
    "ADDRESS": "1819 S STATE ST 1ST", 
    "YEAR": 2003, 
    "LONGITUDE": -87.627034269, 
    "LATTITUDE": 41.857263723
  }, 
  {
    "BUSINESS_TYPE": "Tire Facilty Class I (100 - 1,000 Tires)", 
    "LEGAL_NAME": "RICHARD GEORGE", 
    "STATE": "IL", 
    "DOING_BUSINESS_AS_NAME": "KING RICHARD'S TRADING POST", 
    "POP_AT_RISK": 37769, 
    "ZIP": 60649, 
    "ADDRESS": "6942 S STONY ISLAND AVE 1ST", 
    "YEAR": 2003, 
    "LONGITUDE": -87.58653313, 
    "LATTITUDE": 41.768422992
  }, 
  {
    "BUSINESS_TYPE": "Tire Facilty Class I (100 - 1,000 Tires)", 
    "LEGAL_NAME": "BRIDGESTONE RETAIL OPERATIONS, LLC", 
    "STATE": "IL", 
    "DOING_BUSINESS_AS_NAME": "FIRESTONE", 
    "POP_AT_RISK": 35339, 
    "ZIP": 60632, 
    "ADDRESS": "5111 S PULASKI RD  GROUN", 
    "YEAR": 2003, 
    "LONGITUDE": -87.723211784, 
    "LATTITUDE": 41.800040165
  }, 
  {
    "BUSINESS_TYPE": "Tire Facilty Class I (100 - 1,000 Tires)", 
    "LEGAL_NAME": "BRIDGESTONE RETAIL OPERATIONS, LLC", 
    "STATE": "IL", 
    "DOING_BUSINESS_AS_NAME": "FIRESTONE", 
    "POP_AT_RISK": 19626, 
    "ZIP": 60638, 
    "ADDRESS": "5945 S ARCHER AVE", 
    "YEAR": 2003, 
    "LONGITUDE": -87.764509289, 
    "LATTITUDE": 41.795273277
  }, 
  {
    "BUSINESS_TYPE": "Tire Facilty Class I (100 - 1,000 Tires)", 
    "LEGAL_NAME": "THE GOODYEAR TIRE & RUBBER COMPANY", 
    "STATE": "IL", 
    "DOING_BUSINESS_AS_NAME": "JUST TIRES #6151", 
    "POP_AT_RISK": 67842, 
    "ZIP": 60629, 
    "ADDRESS": "6154-6160 S KEDZIE AVE  1", 
    "YEAR": 2003, 
    "LONGITUDE": -87.703339438, 
    "LATTITUDE": 41.78096351
  }, 
  {
    "BUSINESS_TYPE": "Tire Facilty Class I (100 - 1,000 Tires)", 
    "LEGAL_NAME": "ANTHONY GRIFFIN", 
    "STATE": "IL", 
    "DOING_BUSINESS_AS_NAME": "GRIFFIN TIRE REPAIR", 
    "POP_AT_RISK": 35253, 
    "ZIP": 60619, 
    "ADDRESS": "7117 S SOUTH CHICAGO AVE 1ST", 
    "YEAR": 2003, 
    "LONGITUDE": -87.60493612, 
    "LATTITUDE": 41.765566488
  }, 
  {
    "BUSINESS_TYPE": "Tire Facilty Class I (100 - 1,000 Tires)", 
    "LEGAL_NAME": "JOHN WARREN", 
    "STATE": "IL", 
    "DOING_BUSINESS_AS_NAME": "E & J TIRE SERVICE", 
    "POP_AT_RISK": 40287, 
    "ZIP": 60620, 
    "ADDRESS": "8501 S RACINE AVE  1ST", 
    "YEAR": 2003, 
    "LONGITUDE": -87.653291051, 
    "LATTITUDE": 41.739488508
  }, 
  {
    "BUSINESS_TYPE": "Tire Facilty Class I (100 - 1,000 Tires)", 
    "LEGAL_NAME": "BRIDGESTONE RETAIL OPERATIONS, LLC", 
    "STATE": "IL", 
    "DOING_BUSINESS_AS_NAME": "FIRESTONE", 
    "POP_AT_RISK": 40787, 
    "ZIP": 60608, 
    "ADDRESS": "1301 S WESTERN AVE", 
    "YEAR": 2003, 
    "LONGITUDE": -87.685840455, 
    "LATTITUDE": 41.864745069
  }, 
  {
    "BUSINESS_TYPE": "Tire Facilty Class I (100 - 1,000 Tires)", 
    "LEGAL_NAME": "V J TIRE CENTER CO", 
    "STATE": "IL", 
    "DOING_BUSINESS_AS_NAME": "V J TIRES CENTER CO", 
    "POP_AT_RISK": 22782, 
    "ZIP": 60615, 
    "ADDRESS": "5100 S MICHIGAN AVE", 
    "YEAR": 2003, 
    "LONGITUDE": -87.62279333, 
    "LATTITUDE": 41.801896652
  }, 
  {
    "BUSINESS_TYPE": "Tire Facilty Class I (100 - 1,000 Tires)", 
    "LEGAL_NAME": "WM. J. CASSIDY TIRE & AUTO SUPPLY CO.", 
    "STATE": "IL", 
    "DOING_BUSINESS_AS_NAME": "WM J CASSIDY TIRE & AUTO", 
    "POP_AT_RISK": 88025, 
    "ZIP": 60614, 
    "ADDRESS": "824 W DIVERSEY PKWY", 
    "YEAR": 2003, 
    "LONGITUDE": -87.650005491, 
    "LATTITUDE": 41.932808497
  }, 
  {
    "BUSINESS_TYPE": "Tire Facilty Class I (100 - 1,000 Tires)", 
    "LEGAL_NAME": "CAROLYN TRUCKING INC", 
    "STATE": "IL", 
    "DOING_BUSINESS_AS_NAME": "CAROLYN TRUCKING INC", 
    "POP_AT_RISK": 39090, 
    "ZIP": 60619, 
    "ADDRESS": "51 E 71ST ST", 
    "YEAR": 2003, 
    "LONGITUDE": -87.622890317, 
    "LATTITUDE": 41.765445271
  }, 
  {
    "BUSINESS_TYPE": "Tire Facilty Class I (100 - 1,000 Tires)", 
    "LEGAL_NAME": "JACOBS AUTO REPAIR INC", 
    "STATE": "IL", 
    "DOING_BUSINESS_AS_NAME": "JACOBS AUTO REPAIR INC", 
    "POP_AT_RISK": 31517, 
    "ZIP": 60629, 
    "ADDRESS": "6301 S KOSTNER AVE", 
    "YEAR": 2003, 
    "LONGITUDE": -87.73237906, 
    "LATTITUDE": 41.778522582
  }, 
  {
    "BUSINESS_TYPE": "Tire Facilty Class I (100 - 1,000 Tires)", 
    "LEGAL_NAME": "LEO WILSON", 
    "STATE": "IL", 
    "DOING_BUSINESS_AS_NAME": "EVE TIRE CENTER", 
    "POP_AT_RISK": 24062, 
    "ZIP": 60628, 
    "ADDRESS": "12143 S HALSTED ST  1", 
    "YEAR": 2003, 
    "LONGITUDE": -87.641595739, 
    "LATTITUDE": 41.672845053
  }, 
  {
    "BUSINESS_TYPE": "Tire Facilty Class I (100 - 1,000 Tires)", 
    "LEGAL_NAME": "WHEEL WRIGHT INC", 
    "STATE": "IL", 
    "DOING_BUSINESS_AS_NAME": "WHEEL WRIGHT INC", 
    "POP_AT_RISK": 25020, 
    "ZIP": 60655, 
    "ADDRESS": "3424 W 111TH ST 1ST", 
    "YEAR": 2003, 
    "LONGITUDE": -87.706801991, 
    "LATTITUDE": 41.691582248
  }, 
  {
    "BUSINESS_TYPE": "Tire Facilty Class I (100 - 1,000 Tires)", 
    "LEGAL_NAME": "UNITED TIRE CENTER CENTER", 
    "STATE": "IL", 
    "DOING_BUSINESS_AS_NAME": "TIRETOWN", 
    "POP_AT_RISK": 22077, 
    "ZIP": 60652, 
    "ADDRESS": "4649 W 79TH ST 1ST", 
    "YEAR": 2003, 
    "LONGITUDE": -87.738349794, 
    "LATTITUDE": 41.749090189
  }, 
  {
    "BUSINESS_TYPE": "Tire Facilty Class I (100 - 1,000 Tires)", 
    "LEGAL_NAME": "JOE TRIBBLE", 
    "STATE": "IL", 
    "DOING_BUSINESS_AS_NAME": "JOE'S TIRE REPAIR", 
    "POP_AT_RISK": 35853, 
    "ZIP": 60653, 
    "ADDRESS": "3904 S DR MARTIN LUTHER KING JR DR 1ST", 
    "YEAR": 2003, 
    "LONGITUDE": -87.617139128, 
    "LATTITUDE": 41.823660495
  }, 
  {
    "BUSINESS_TYPE": "Tire Facilty Class I (100 - 1,000 Tires)", 
    "LEGAL_NAME": "BRIDGESTONE RETAIL OPERATIONS, LLC", 
    "STATE": "IL", 
    "DOING_BUSINESS_AS_NAME": "FIRESTONE", 
    "POP_AT_RISK": 33756, 
    "ZIP": 60630, 
    "ADDRESS": "5215 N MILWAUKEE AVE", 
    "YEAR": 2003, 
    "LONGITUDE": -87.767028843, 
    "LATTITUDE": 41.975071332
  }, 
  {
    "BUSINESS_TYPE": "Tire Facilty Class I (100 - 1,000 Tires)", 
    "LEGAL_NAME": "SARABIA AUTO PARTS, INC.", 
    "STATE": "IL", 
    "DOING_BUSINESS_AS_NAME": "SARABIA AUTO PARTS INC.", 
    "POP_AT_RISK": 48371, 
    "ZIP": 60636, 
    "ADDRESS": "7421-23 S LOOMIS BLVD", 
    "YEAR": 2003, 
    "LONGITUDE": -87.658661641, 
    "LATTITUDE": 41.758894857
  }
]