[
  {
    "BUSINESS_TYPE": "Peddler, food (fruits and vegtables only)", 
    "LEGAL_NAME": "MARY C. QUINN", 
    "STATE": "IL", 
    "DOING_BUSINESS_AS_NAME": "MARY C. QUINN", 
    "POP_AT_RISK": 42283, 
    "ZIP": 60624, 
    "ADDRESS": "3546 W ARTHINGTON ST", 
    "YEAR": 2004, 
    "LONGITUDE": -87.714960555, 
    "LATTITUDE": 41.87006167
  }, 
  {
    "BUSINESS_TYPE": "Peddler, food (fruits and vegtables only)", 
    "LEGAL_NAME": "JESUS CERRATO", 
    "STATE": "IL", 
    "DOING_BUSINESS_AS_NAME": "JESUS CERRATO", 
    "POP_AT_RISK": 22104, 
    "ZIP": 60628, 
    "ADDRESS": "318 E 116TH ST 1ST", 
    "YEAR": 2004, 
    "LONGITUDE": -87.615929074, 
    "LATTITUDE": 41.682701581
  }, 
  {
    "BUSINESS_TYPE": "Peddler, food (fruits and vegtables only)", 
    "LEGAL_NAME": "BEATRIZ DELGADO", 
    "STATE": "IL", 
    "DOING_BUSINESS_AS_NAME": "BEATRIZ DELGADO", 
    "POP_AT_RISK": 28278, 
    "ZIP": 60639, 
    "ADDRESS": "1626 N MOBILE AVE", 
    "YEAR": 2004, 
    "LONGITUDE": -87.783515854, 
    "LATTITUDE": 41.909989
  }, 
  {
    "BUSINESS_TYPE": "Peddler, food (fruits and vegtables only)", 
    "LEGAL_NAME": "EVANGELINA AVILES", 
    "STATE": "IL", 
    "DOING_BUSINESS_AS_NAME": "EVANGELINA AVILES", 
    "POP_AT_RISK": 57211, 
    "ZIP": 60622, 
    "ADDRESS": "1224 N CLEAVER ST", 
    "YEAR": 2004, 
    "LONGITUDE": -87.663999478, 
    "LATTITUDE": 41.904171517
  }, 
  {
    "BUSINESS_TYPE": "Peddler, food (fruits and vegtables only)", 
    "LEGAL_NAME": "ORON BENISRAEL MONTGOMERY", 
    "STATE": "IL", 
    "DOING_BUSINESS_AS_NAME": "ORON BENISRAEL MONTGOMERY", 
    "POP_AT_RISK": 34086, 
    "ZIP": 60619, 
    "ADDRESS": "7505 S CALUMET AVE", 
    "YEAR": 2004, 
    "LONGITUDE": -87.61655363, 
    "LATTITUDE": 41.758176492
  }, 
  {
    "BUSINESS_TYPE": "Peddler, food (fruits and vegtables only)", 
    "LEGAL_NAME": "JUANA MARTINEZ", 
    "STATE": "IL", 
    "DOING_BUSINESS_AS_NAME": "JUANA MARTINEZ", 
    "POP_AT_RISK": 51707, 
    "ZIP": 60639, 
    "ADDRESS": "1645 N CENTRAL AVE", 
    "YEAR": 2004, 
    "LONGITUDE": -87.765405102, 
    "LATTITUDE": 41.910714659
  }, 
  {
    "BUSINESS_TYPE": "Peddler, food (fruits and vegtables only)", 
    "LEGAL_NAME": "YESENIA FRANCO", 
    "STATE": "IL", 
    "DOING_BUSINESS_AS_NAME": "YESENIA FRANCO", 
    "POP_AT_RISK": 46086, 
    "ZIP": 60651, 
    "ADDRESS": "926 N CENTRAL PARK AVE", 
    "YEAR": 2004, 
    "LONGITUDE": -87.71654775, 
    "LATTITUDE": 41.898108574
  }, 
  {
    "BUSINESS_TYPE": "Peddler, food (fruits and vegtables only)", 
    "LEGAL_NAME": "LAWERENCE  RAND", 
    "STATE": "IL", 
    "DOING_BUSINESS_AS_NAME": "LAWERENCE  RAND", 
    "POP_AT_RISK": 20126, 
    "ZIP": 60643, 
    "ADDRESS": "10339 S HALE AVE", 
    "YEAR": 2004, 
    "LONGITUDE": -87.668601129, 
    "LATTITUDE": 41.705420598
  }, 
  {
    "BUSINESS_TYPE": "Peddler, food (fruits and vegtables only)", 
    "LEGAL_NAME": "ANGELICA A  CONTRERAS", 
    "STATE": "IL", 
    "DOING_BUSINESS_AS_NAME": "ANGELICA A CONTRERAS", 
    "POP_AT_RISK": 64123, 
    "ZIP": 60618, 
    "ADDRESS": "2865 N CLYBOURN AVE", 
    "YEAR": 2004, 
    "LONGITUDE": -87.679993469, 
    "LATTITUDE": 41.933783396
  }, 
  {
    "BUSINESS_TYPE": "Peddler, food (fruits and vegtables only)", 
    "LEGAL_NAME": "BENITA ORTIZ", 
    "STATE": "IL", 
    "DOING_BUSINESS_AS_NAME": "BENITA ORTIZ", 
    "POP_AT_RISK": 27493, 
    "ZIP": 60652, 
    "ADDRESS": "4138 W 81ST PL", 
    "YEAR": 2004, 
    "LONGITUDE": -87.724961529, 
    "LATTITUDE": 41.745112255
  }, 
  {
    "BUSINESS_TYPE": "Peddler, food (fruits and vegtables only)", 
    "LEGAL_NAME": "NEIL M MCCOY", 
    "STATE": "IL", 
    "DOING_BUSINESS_AS_NAME": "NIEL M MCCOY", 
    "POP_AT_RISK": 37295, 
    "ZIP": 60653, 
    "ADDRESS": "4218 S COTTAGE GROVE AVE", 
    "YEAR": 2004, 
    "LONGITUDE": -87.606882917, 
    "LATTITUDE": 41.817974777
  }, 
  {
    "BUSINESS_TYPE": "Peddler, food (fruits and vegtables only)", 
    "LEGAL_NAME": "WILLIAM S MARTIN", 
    "STATE": "IL", 
    "DOING_BUSINESS_AS_NAME": "WILLIAM S MARTIN", 
    "POP_AT_RISK": 30696, 
    "ZIP": 60619, 
    "ADDRESS": "8814 S CALUMET AVE 1ST", 
    "YEAR": 2004, 
    "LONGITUDE": -87.616227548, 
    "LATTITUDE": 41.734190697
  }, 
  {
    "BUSINESS_TYPE": "Peddler, food (fruits and vegtables only)", 
    "LEGAL_NAME": "GENTLE P JOHNSON", 
    "STATE": "IL", 
    "DOING_BUSINESS_AS_NAME": "GENTLE P JOHNSON", 
    "POP_AT_RISK": 11356, 
    "ZIP": 60827, 
    "ADDRESS": "236 E 131ST PL", 
    "YEAR": 2004, 
    "LONGITUDE": -87.615576366, 
    "LATTITUDE": 41.656585738
  }, 
  {
    "BUSINESS_TYPE": "Peddler, food (fruits and vegtables only)", 
    "LEGAL_NAME": "LOUIS E. DAVIS", 
    "STATE": "IL", 
    "DOING_BUSINESS_AS_NAME": "LOUIS E. DAVIS", 
    "POP_AT_RISK": 28010, 
    "ZIP": 60612, 
    "ADDRESS": "1943 W LAKE ST  307", 
    "YEAR": 2004, 
    "LONGITUDE": -87.676002559, 
    "LATTITUDE": 41.884898359
  }, 
  {
    "BUSINESS_TYPE": "Peddler, food (fruits and vegtables only)", 
    "LEGAL_NAME": "CARMEN MORALES", 
    "STATE": "IL", 
    "DOING_BUSINESS_AS_NAME": "CARMEN MORALES", 
    "POP_AT_RISK": 46248, 
    "ZIP": 60608, 
    "ADDRESS": "3049 S FARRELL ST", 
    "YEAR": 2004, 
    "LONGITUDE": -87.650887433, 
    "LATTITUDE": 41.838473608
  }, 
  {
    "BUSINESS_TYPE": "Peddler, food (fruits and vegtables only)", 
    "LEGAL_NAME": "GRACIELA SOSA", 
    "STATE": "IL", 
    "DOING_BUSINESS_AS_NAME": "GRACIELA SOSA", 
    "POP_AT_RISK": 60499, 
    "ZIP": 60660, 
    "ADDRESS": "5738 N WINTHROP AVE 2ND FL 211", 
    "YEAR": 2004, 
    "LONGITUDE": -87.658257398, 
    "LATTITUDE": 41.986647427
  }, 
  {
    "BUSINESS_TYPE": "Peddler, food (fruits and vegtables only)", 
    "LEGAL_NAME": "KENNETH DAVIS", 
    "STATE": "IL", 
    "DOING_BUSINESS_AS_NAME": "KENNETH DAVIS", 
    "POP_AT_RISK": 34678, 
    "ZIP": 60620, 
    "ADDRESS": "8746 S LOOMIS ST", 
    "YEAR": 2004, 
    "LONGITUDE": -87.658309685, 
    "LATTITUDE": 41.734467988
  }, 
  {
    "BUSINESS_TYPE": "Peddler, food (fruits and vegtables only)", 
    "LEGAL_NAME": "BERNARDO HERNANDEZ", 
    "STATE": "IL", 
    "DOING_BUSINESS_AS_NAME": "BERNARDO HERNANDEZ", 
    "POP_AT_RISK": 57691, 
    "ZIP": 60647, 
    "ADDRESS": "1921 N CAMPBELL AVE 1ST", 
    "YEAR": 2004, 
    "LONGITUDE": -87.689679238, 
    "LATTITUDE": 41.916417149
  }, 
  {
    "BUSINESS_TYPE": "Peddler, food (fruits and vegtables only)", 
    "LEGAL_NAME": "PILAR PUENTE", 
    "STATE": "IL", 
    "DOING_BUSINESS_AS_NAME": "PILAR PUENTE", 
    "POP_AT_RISK": 15008, 
    "ZIP": 60617, 
    "ADDRESS": "9828 S AVENUE J", 
    "YEAR": 2004, 
    "LONGITUDE": -87.534223592, 
    "LATTITUDE": 41.716888399
  }, 
  {
    "BUSINESS_TYPE": "Peddler, food (fruits and vegtables only)", 
    "LEGAL_NAME": "TIMOTHY NELLON", 
    "STATE": "IL", 
    "DOING_BUSINESS_AS_NAME": "TIMOTHY NELLON", 
    "POP_AT_RISK": 34006, 
    "ZIP": 60612, 
    "ADDRESS": "2819 W MONROE ST", 
    "YEAR": 2004, 
    "LONGITUDE": -87.69706897, 
    "LATTITUDE": 41.880047235
  }, 
  {
    "BUSINESS_TYPE": "Peddler, food (fruits and vegtables only)", 
    "LEGAL_NAME": "JOSE CARRERA", 
    "STATE": "IL", 
    "DOING_BUSINESS_AS_NAME": "CARRERA JOSE", 
    "POP_AT_RISK": 51139, 
    "ZIP": 60629, 
    "ADDRESS": "3503 W 65TH PL 1ST", 
    "YEAR": 2004, 
    "LONGITUDE": -87.71048846, 
    "LATTITUDE": 41.77418882
  }, 
  {
    "BUSINESS_TYPE": "Peddler, food (fruits and vegtables only)", 
    "LEGAL_NAME": "MARIA SANCHEZ", 
    "STATE": "IL", 
    "DOING_BUSINESS_AS_NAME": "MARIA SANCHEZ", 
    "POP_AT_RISK": 48415, 
    "ZIP": 60634, 
    "ADDRESS": "3353 N NARRAGANSETT AVE", 
    "YEAR": 2004, 
    "LONGITUDE": -87.786054109, 
    "LATTITUDE": 41.941772464
  }, 
  {
    "BUSINESS_TYPE": "Peddler, food (fruits and vegtables only)", 
    "LEGAL_NAME": "MARCUS LYONS", 
    "STATE": "IL", 
    "DOING_BUSINESS_AS_NAME": "MARCUS LYONS", 
    "POP_AT_RISK": 37309, 
    "ZIP": 60621, 
    "ADDRESS": "258 W MARQUETTE RD", 
    "YEAR": 2004, 
    "LONGITUDE": -87.63226993, 
    "LATTITUDE": 41.772785904
  }, 
  {
    "BUSINESS_TYPE": "Peddler, food (fruits and vegtables only)", 
    "LEGAL_NAME": "BENJAMIN  TERAN  SR.", 
    "STATE": "IL", 
    "DOING_BUSINESS_AS_NAME": "BENJAMIN TERAN  SR.", 
    "POP_AT_RISK": 50261, 
    "ZIP": 60629, 
    "ADDRESS": "6016 S KOMENSKY AVE", 
    "YEAR": 2004, 
    "LONGITUDE": -87.724264459, 
    "LATTITUDE": 41.783553787
  }, 
  {
    "BUSINESS_TYPE": "Peddler, food (fruits and vegtables only)", 
    "LEGAL_NAME": "ANTONIA RUEDA", 
    "STATE": "IL", 
    "DOING_BUSINESS_AS_NAME": "ANTONIA RUEDA", 
    "POP_AT_RISK": 59717, 
    "ZIP": 60640, 
    "ADDRESS": "5415 N ASHLAND AVE", 
    "YEAR": 2004, 
    "LONGITUDE": -87.669578944, 
    "LATTITUDE": 41.980283582
  }, 
  {
    "BUSINESS_TYPE": "Peddler, food (fruits and vegtables only)", 
    "LEGAL_NAME": "KENNETH C. HARDY", 
    "STATE": "IL", 
    "DOING_BUSINESS_AS_NAME": "KENNETH C. HARDY", 
    "POP_AT_RISK": 24539, 
    "ZIP": 60643, 
    "ADDRESS": "10925 S RACINE AVE", 
    "YEAR": 2004, 
    "LONGITUDE": -87.652044164, 
    "LATTITUDE": 41.695212098
  }, 
  {
    "BUSINESS_TYPE": "Peddler, food (fruits and vegtables only)", 
    "LEGAL_NAME": "CHARLEY CARROLL", 
    "STATE": "IL", 
    "DOING_BUSINESS_AS_NAME": "CHARLEY CARROLL", 
    "POP_AT_RISK": 34051, 
    "ZIP": 60617, 
    "ADDRESS": "8013 S PHILLIPS AVE 1ST", 
    "YEAR": 2004, 
    "LONGITUDE": -87.56483593, 
    "LATTITUDE": 41.749422563
  }, 
  {
    "BUSINESS_TYPE": "Peddler, food (fruits and vegtables only)", 
    "LEGAL_NAME": "GLORIA D. BEVERLY", 
    "STATE": "IL", 
    "DOING_BUSINESS_AS_NAME": "GLORIA D. BEVERLY", 
    "POP_AT_RISK": 36691, 
    "ZIP": 60621, 
    "ADDRESS": "514 W 66TH PL", 
    "YEAR": 2004, 
    "LONGITUDE": -87.637480696, 
    "LATTITUDE": 41.773597932
  }, 
  {
    "BUSINESS_TYPE": "Peddler, food (fruits and vegtables only)", 
    "LEGAL_NAME": "RONALD TYLER", 
    "STATE": "IL", 
    "DOING_BUSINESS_AS_NAME": "RONALD TYLER", 
    "POP_AT_RISK": 28025, 
    "ZIP": 60644, 
    "ADDRESS": "133 N AUSTIN BLVD", 
    "YEAR": 2004, 
    "LONGITUDE": -87.774608333, 
    "LATTITUDE": 41.883140004
  }, 
  {
    "BUSINESS_TYPE": "Peddler, food (fruits and vegtables only)", 
    "LEGAL_NAME": "EMPERATRIZ M. MALDONADO", 
    "STATE": "IL", 
    "DOING_BUSINESS_AS_NAME": "EMPERATRIZ FRUIT", 
    "POP_AT_RISK": 51499, 
    "ZIP": 60634, 
    "ADDRESS": "5632 W PENSACOLA AVE", 
    "YEAR": 2004, 
    "LONGITUDE": -87.768552045, 
    "LATTITUDE": 41.959663478
  }, 
  {
    "BUSINESS_TYPE": "Peddler, food (fruits and vegtables only)", 
    "LEGAL_NAME": "GREGORY CLARK", 
    "STATE": "IL", 
    "DOING_BUSINESS_AS_NAME": "GREGORY CLARK", 
    "POP_AT_RISK": 36777, 
    "ZIP": 60637, 
    "ADDRESS": "1437 E 66TH PL", 
    "YEAR": 2004, 
    "LONGITUDE": -87.58995009, 
    "LATTITUDE": 41.774107701
  }, 
  {
    "BUSINESS_TYPE": "Peddler, food (fruits and vegtables only)", 
    "LEGAL_NAME": "ROBERTA HOGAN", 
    "STATE": "IL", 
    "DOING_BUSINESS_AS_NAME": "HOGAN", 
    "POP_AT_RISK": 41523, 
    "ZIP": 60619, 
    "ADDRESS": "7612 S EBERHART AVE", 
    "YEAR": 2004, 
    "LONGITUDE": -87.612769968, 
    "LATTITUDE": 41.756194578
  }, 
  {
    "BUSINESS_TYPE": "Peddler, food (fruits and vegtables only)", 
    "LEGAL_NAME": "SALVADOR SALAS", 
    "STATE": "IL", 
    "DOING_BUSINESS_AS_NAME": "SALVADOR SALAS", 
    "POP_AT_RISK": 33884, 
    "ZIP": 60609, 
    "ADDRESS": "5040 S ABERDEEN ST", 
    "YEAR": 2004, 
    "LONGITUDE": -87.652794281, 
    "LATTITUDE": 41.802082367
  }, 
  {
    "BUSINESS_TYPE": "Peddler, food (fruits and vegtables only)", 
    "LEGAL_NAME": "JOHN  WELCH JR", 
    "STATE": "IL", 
    "DOING_BUSINESS_AS_NAME": "JOHN WELCH JR", 
    "POP_AT_RISK": 23770, 
    "ZIP": 60609, 
    "ADDRESS": "4444 S SHIELDS AVE 1 1", 
    "YEAR": 2004, 
    "LONGITUDE": -87.634768738, 
    "LATTITUDE": 41.813179979
  }, 
  {
    "BUSINESS_TYPE": "Peddler, food (fruits and vegtables only)", 
    "LEGAL_NAME": "ALBERT DOVAN SPEARMAN", 
    "STATE": "IL", 
    "DOING_BUSINESS_AS_NAME": "ALBERT DOVAN SPEARMAN", 
    "POP_AT_RISK": 25486, 
    "ZIP": 60619, 
    "ADDRESS": "9347 S VERNON AVE", 
    "YEAR": 2004, 
    "LONGITUDE": -87.61284568, 
    "LATTITUDE": 41.724170667
  }, 
  {
    "BUSINESS_TYPE": "Peddler, food (fruits and vegtables only)", 
    "LEGAL_NAME": "RUBEN OROZCO VILCHEZ", 
    "STATE": "IL", 
    "DOING_BUSINESS_AS_NAME": "RUBEN OROZCO", 
    "POP_AT_RISK": 58786, 
    "ZIP": 60645, 
    "ADDRESS": "2637 W ARTHUR AVE  1-W", 
    "YEAR": 2004, 
    "LONGITUDE": -87.696260173, 
    "LATTITUDE": 41.999335358
  }, 
  {
    "BUSINESS_TYPE": "Peddler, food (fruits and vegtables only)", 
    "LEGAL_NAME": "MARCELO APARICIO", 
    "STATE": "IL", 
    "DOING_BUSINESS_AS_NAME": "MARCELO APARICIO", 
    "POP_AT_RISK": 34612, 
    "ZIP": 60644, 
    "ADDRESS": "4647 W HURON ST  1", 
    "YEAR": 2004, 
    "LONGITUDE": -87.743050276, 
    "LATTITUDE": 41.893099017
  }, 
  {
    "BUSINESS_TYPE": "Peddler, food (fruits and vegtables only)", 
    "LEGAL_NAME": "VICTORIA ALICE BOATENG", 
    "STATE": "IL", 
    "DOING_BUSINESS_AS_NAME": "VICTORIA ALICE BOATENG", 
    "POP_AT_RISK": 72818, 
    "ZIP": 60613, 
    "ADDRESS": "810 W GRACE ST  2009", 
    "YEAR": 2004, 
    "LONGITUDE": -87.650111691, 
    "LATTITUDE": 41.951298849
  }, 
  {
    "BUSINESS_TYPE": "Peddler, food (fruits and vegtables only)", 
    "LEGAL_NAME": "AGUILAR ROJAS MAGDALENO", 
    "STATE": "IL", 
    "DOING_BUSINESS_AS_NAME": "AGUILAR ROJAS MAGDALENO", 
    "POP_AT_RISK": 63352, 
    "ZIP": 60640, 
    "ADDRESS": "4608Q N BEACON ST", 
    "YEAR": 2004, 
    "LONGITUDE": -87.664035112, 
    "LATTITUDE": 41.965614225
  }, 
  {
    "BUSINESS_TYPE": "Peddler, food (fruits and vegtables only)", 
    "LEGAL_NAME": "ROBERT L. JOHNSON, JR", 
    "STATE": "IL", 
    "DOING_BUSINESS_AS_NAME": "ROBERT L. JOHNSON JR.", 
    "POP_AT_RISK": 12432, 
    "ZIP": 60643, 
    "ADDRESS": "12056 S JUSTINE ST", 
    "YEAR": 2004, 
    "LONGITUDE": -87.660205703, 
    "LATTITUDE": 41.674052619
  }
]