[
  {
    "BUSINESS_TYPE": "Itinerant Merchant", 
    "LEGAL_NAME": "John Veraghen", 
    "STATE": "IL", 
    "DOING_BUSINESS_AS_NAME": "John's Evergreens", 
    "POP_AT_RISK": 15892, 
    "ZIP": 60634, 
    "ADDRESS": "7950 W BELMONT AVE", 
    "YEAR": 2015, 
    "LONGITUDE": -87.825913449, 
    "LATTITUDE": 41.937860913
  }, 
  {
    "BUSINESS_TYPE": "Itinerant Merchant", 
    "LEGAL_NAME": "AMERICAN SOCIETY OF ARTIST INC", 
    "STATE": "IL", 
    "DOING_BUSINESS_AS_NAME": "9/26/15 - 9/27/15 Hyde Park Arts & Crafts Adventure", 
    "POP_AT_RISK": 40389, 
    "ZIP": 60615, 
    "ADDRESS": "1526 E 55TH ST", 
    "YEAR": 2015, 
    "LONGITUDE": -87.5882259, 
    "LATTITUDE": 41.795301239
  }, 
  {
    "BUSINESS_TYPE": "Itinerant Merchant", 
    "LEGAL_NAME": "Bob Smith", 
    "STATE": "IL", 
    "DOING_BUSINESS_AS_NAME": "Bob's Tree Farm", 
    "POP_AT_RISK": 24680, 
    "ZIP": 60631, 
    "ADDRESS": "5600 N HARLEM AVE", 
    "YEAR": 2015, 
    "LONGITUDE": -87.807089166, 
    "LATTITUDE": 41.982815203
  }, 
  {
    "BUSINESS_TYPE": "Itinerant Merchant", 
    "LEGAL_NAME": "CHICAGO RUNNING & SPECIAL EVENTS MANAGEMENT, INC.", 
    "STATE": "IL", 
    "DOING_BUSINESS_AS_NAME": "8/1/15 - 8/2/15 Taste of Latin America", 
    "POP_AT_RISK": 82515, 
    "ZIP": 60647, 
    "ADDRESS": "3600 W ARMITAGE AVE", 
    "YEAR": 2015, 
    "LONGITUDE": -87.716835593, 
    "LATTITUDE": 41.917391781
  }, 
  {
    "BUSINESS_TYPE": "Itinerant Merchant", 
    "LEGAL_NAME": "JEFFERSON PARK CHAMBER OF COMMERCE", 
    "STATE": "IL", 
    "DOING_BUSINESS_AS_NAME": "7/24/15 -7/26/15 Jeff Park Arts & Music Festival", 
    "POP_AT_RISK": 41965, 
    "ZIP": 60630, 
    "ADDRESS": "4822 N LONG AVE", 
    "YEAR": 2015, 
    "LONGITUDE": -87.762605325, 
    "LATTITUDE": 41.968405337
  }, 
  {
    "BUSINESS_TYPE": "Itinerant Merchant", 
    "LEGAL_NAME": "STAREVENTS, INC.", 
    "STATE": "IL", 
    "DOING_BUSINESS_AS_NAME": "9/26/15 - 9/27/15 Hyde Park Jazz Festival", 
    "POP_AT_RISK": 40417, 
    "ZIP": 60637, 
    "ADDRESS": "5900 S WOODLAWN AVE", 
    "YEAR": 2015, 
    "LONGITUDE": -87.596518197, 
    "LATTITUDE": 41.787773705
  }, 
  {
    "BUSINESS_TYPE": "Itinerant Merchant", 
    "LEGAL_NAME": "National Ovarian Cancer Coalition", 
    "STATE": "IL", 
    "DOING_BUSINESS_AS_NAME": "5/2/15 NOCC Walk to Break the Silence on Ovarian Cancer", 
    "POP_AT_RISK": 37739, 
    "ZIP": 60616, 
    "ADDRESS": "333 W 35TH ST", 
    "YEAR": 2015, 
    "LONGITUDE": -87.635295783, 
    "LATTITUDE": 41.830783662
  }, 
  {
    "BUSINESS_TYPE": "Itinerant Merchant", 
    "LEGAL_NAME": "Carl McKenzie", 
    "STATE": "IL", 
    "DOING_BUSINESS_AS_NAME": "8/15/15 Bronzeville Music Festival", 
    "POP_AT_RISK": 36489, 
    "ZIP": 60615, 
    "ADDRESS": "5100 S DR MARTIN LUTHER KING JR DR", 
    "YEAR": 2015, 
    "LONGITUDE": -87.616271839, 
    "LATTITUDE": 41.802023154
  }, 
  {
    "BUSINESS_TYPE": "Itinerant Merchant", 
    "LEGAL_NAME": "Douglas A. Handel", 
    "STATE": "IL", 
    "DOING_BUSINESS_AS_NAME": "L & M Tree Farm", 
    "POP_AT_RISK": 22070, 
    "ZIP": 60630, 
    "ADDRESS": "4855 W FOSTER AVE", 
    "YEAR": 2015, 
    "LONGITUDE": -87.750074004, 
    "LATTITUDE": 41.975193596
  }, 
  {
    "BUSINESS_TYPE": "Itinerant Merchant", 
    "LEGAL_NAME": "Riot Fest Corporation", 
    "STATE": "IL", 
    "DOING_BUSINESS_AS_NAME": "9/11/15 - 9/13/15 Riot Fest", 
    "POP_AT_RISK": 38199, 
    "ZIP": 60623, 
    "ADDRESS": "1401 S SACRAMENTO DR", 
    "YEAR": 2015, 
    "LONGITUDE": -87.701866545, 
    "LATTITUDE": 41.862904001
  }, 
  {
    "BUSINESS_TYPE": "Itinerant Merchant", 
    "LEGAL_NAME": "SAINTS VOLODYMYR AND OLHA UKRAINIAN CATHOLIC PARISH", 
    "STATE": "IL", 
    "DOING_BUSINESS_AS_NAME": "Saints Volodymyr and Olha", 
    "POP_AT_RISK": 56856, 
    "ZIP": 60612, 
    "ADDRESS": "2245 W SUPERIOR ST", 
    "YEAR": 2015, 
    "LONGITUDE": -87.683713616, 
    "LATTITUDE": 41.894774507
  }, 
  {
    "BUSINESS_TYPE": "Itinerant Merchant", 
    "LEGAL_NAME": "CHICAGO RUNNING & SPECIAL EVENTS MANAGEMENT, INC.", 
    "STATE": "IL", 
    "DOING_BUSINESS_AS_NAME": "8/22/15 - 8/23/15 Albany Park World Festival", 
    "POP_AT_RISK": 70644, 
    "ZIP": 60625, 
    "ADDRESS": "4600 N KIMBALL AVE", 
    "YEAR": 2015, 
    "LONGITUDE": -87.713397962, 
    "LATTITUDE": 41.964725403
  }, 
  {
    "BUSINESS_TYPE": "Itinerant Merchant", 
    "LEGAL_NAME": "CHICAGO RUNNING & SPECIAL EVENTS MANAGEMENT, INC.", 
    "STATE": "IL", 
    "DOING_BUSINESS_AS_NAME": "6/19/15 - 6/21/15  6 Corners BBQ Fest", 
    "POP_AT_RISK": 50298, 
    "ZIP": 60641, 
    "ADDRESS": "4000 N MILWAUKEE AVE", 
    "YEAR": 2015, 
    "LONGITUDE": -87.74749235, 
    "LATTITUDE": 41.953387202
  }, 
  {
    "BUSINESS_TYPE": "Itinerant Merchant", 
    "LEGAL_NAME": "DEVCORP NORTH", 
    "STATE": "IL", 
    "DOING_BUSINESS_AS_NAME": "7/18/15 - 7/19/15 Celebrate Clark Street Festival", 
    "POP_AT_RISK": 65641, 
    "ZIP": 60626, 
    "ADDRESS": "6950 N CLARK ST", 
    "YEAR": 2015, 
    "LONGITUDE": -87.673892938, 
    "LATTITUDE": 42.008048245
  }, 
  {
    "BUSINESS_TYPE": "Itinerant Merchant", 
    "LEGAL_NAME": "Sociedad Civica Cultural Centroamericana", 
    "STATE": "IL", 
    "DOING_BUSINESS_AS_NAME": "Sociedad Civica Cultural Centroamerica", 
    "POP_AT_RISK": 79421, 
    "ZIP": 60639, 
    "ADDRESS": "4047 W DIVERSEY AVE", 
    "YEAR": 2015, 
    "LONGITUDE": -87.728847652, 
    "LATTITUDE": 41.931652069
  }, 
  {
    "BUSINESS_TYPE": "Itinerant Merchant", 
    "LEGAL_NAME": "SOUL CIRCUS, INC.", 
    "STATE": "IL", 
    "DOING_BUSINESS_AS_NAME": "9/22/15 - 10/15/15 UniverSoul Circus", 
    "POP_AT_RISK": 30880, 
    "ZIP": 60637, 
    "ADDRESS": "5531 S DR MARTIN LUTHER KING JR DR", 
    "YEAR": 2015, 
    "LONGITUDE": -87.615803055, 
    "LATTITUDE": 41.793533064
  }, 
  {
    "BUSINESS_TYPE": "Itinerant Merchant", 
    "LEGAL_NAME": "PILSEN NEIGHBORS COMMUNITY COUNCIL", 
    "STATE": "IL", 
    "DOING_BUSINESS_AS_NAME": "7/30/15 - 8/2/15 Fiesta del Sol", 
    "POP_AT_RISK": 48941, 
    "ZIP": 60608, 
    "ADDRESS": "1000 W CERMAK RD", 
    "YEAR": 2015, 
    "LONGITUDE": -87.651492367, 
    "LATTITUDE": 41.852685383
  }, 
  {
    "BUSINESS_TYPE": "Itinerant Merchant", 
    "LEGAL_NAME": "MAPLEWOOD HOUSING FOR THE VISUALLY  IMPAIRED", 
    "STATE": "IL", 
    "DOING_BUSINESS_AS_NAME": "Friedman Place", 
    "POP_AT_RISK": 48870, 
    "ZIP": 60625, 
    "ADDRESS": "5527 N MAPLEWOOD AVE", 
    "YEAR": 2015, 
    "LONGITUDE": -87.692907125, 
    "LATTITUDE": 41.982206219
  }, 
  {
    "BUSINESS_TYPE": "Itinerant Merchant", 
    "LEGAL_NAME": "Jim Maxoski", 
    "STATE": "IL", 
    "DOING_BUSINESS_AS_NAME": "11/24/15 - 12/24/15 Max's Christmas Trees", 
    "POP_AT_RISK": 13444, 
    "ZIP": 60638, 
    "ADDRESS": "6746 W ARCHER AVE", 
    "YEAR": 2015, 
    "LONGITUDE": -87.791010764, 
    "LATTITUDE": 41.792277296
  }, 
  {
    "BUSINESS_TYPE": "Itinerant Merchant", 
    "LEGAL_NAME": "LITTLE BLACK PEARL WORKSHOP", 
    "STATE": "IL", 
    "DOING_BUSINESS_AS_NAME": "8/22/15 Pearl Fest 2015", 
    "POP_AT_RISK": 24729, 
    "ZIP": 60653, 
    "ADDRESS": "1042 E OAKWOOD BLVD", 
    "YEAR": 2015, 
    "LONGITUDE": -87.600514071, 
    "LATTITUDE": 41.825379274
  }, 
  {
    "BUSINESS_TYPE": "Itinerant Merchant", 
    "LEGAL_NAME": "LIVIER SALAZAR", 
    "STATE": "IL", 
    "DOING_BUSINESS_AS_NAME": "St. Agnes of Bohemia", 
    "POP_AT_RISK": 69037, 
    "ZIP": 60623, 
    "ADDRESS": "2651 S CENTRAL PARK AVE", 
    "YEAR": 2015, 
    "LONGITUDE": -87.71459778, 
    "LATTITUDE": 41.842872349
  }, 
  {
    "BUSINESS_TYPE": "Itinerant Merchant", 
    "LEGAL_NAME": "GREENLAWN LANDSCAPING INC", 
    "STATE": "IL", 
    "DOING_BUSINESS_AS_NAME": "Greenlawn Landscaping, Inc.", 
    "POP_AT_RISK": 62926, 
    "ZIP": 60647, 
    "ADDRESS": "2540 W ARMITAGE AVE", 
    "YEAR": 2015, 
    "LONGITUDE": -87.691457874, 
    "LATTITUDE": 41.917649731
  }, 
  {
    "BUSINESS_TYPE": "Itinerant Merchant", 
    "LEGAL_NAME": "Jim Maxoski", 
    "STATE": "IL", 
    "DOING_BUSINESS_AS_NAME": "11/24/15 - 12/24/15 Max's Christmas Trees", 
    "POP_AT_RISK": 21523, 
    "ZIP": 60643, 
    "ADDRESS": "10451 S WESTERN AVE", 
    "YEAR": 2015, 
    "LONGITUDE": -87.681369116, 
    "LATTITUDE": 41.703053025
  }, 
  {
    "BUSINESS_TYPE": "Itinerant Merchant", 
    "LEGAL_NAME": "BACK OF THE YARDS NEIGHBORHOOD COUNCIL", 
    "STATE": "IL", 
    "DOING_BUSINESS_AS_NAME": "6/12/15 - 6/14/15 Fiesta Back of the Yards", 
    "POP_AT_RISK": 39404, 
    "ZIP": 60609, 
    "ADDRESS": "1600 W 47TH ST", 
    "YEAR": 2015, 
    "LONGITUDE": -87.665035903, 
    "LATTITUDE": 41.808713319
  }
]