[
  {
    "BUSINESS_TYPE": "Explosives, Certificate of Fitness", 
    "LEGAL_NAME": "JOHN M YAGER", 
    "STATE": "IL", 
    "DOING_BUSINESS_AS_NAME": "JOHN M YAGER", 
    "POP_AT_RISK": 65386, 
    "ZIP": 60602, 
    "ADDRESS": "17 N STATE ST", 
    "YEAR": 2009, 
    "LONGITUDE": -87.627700047, 
    "LATTITUDE": 41.882456647
  }, 
  {
    "BUSINESS_TYPE": "Explosives, Certificate of Fitness", 
    "LEGAL_NAME": "CHICAGO SHAKESPEARE THEATER", 
    "STATE": "IL", 
    "DOING_BUSINESS_AS_NAME": "CHICAGO SHAKESPEARE THEATER", 
    "POP_AT_RISK": 28483, 
    "ZIP": 60611, 
    "ADDRESS": "800 E GRAND AVE  NAVY", 
    "YEAR": 2009, 
    "LONGITUDE": -87.606782206, 
    "LATTITUDE": 41.892291572
  }, 
  {
    "BUSINESS_TYPE": "Explosives, Certificate of Fitness", 
    "LEGAL_NAME": "SONIC BOOM PYROTECHNICS, INC.", 
    "STATE": "IL", 
    "DOING_BUSINESS_AS_NAME": "BRIAN S. RADNOTI", 
    "POP_AT_RISK": 63642, 
    "ZIP": 60629, 
    "ADDRESS": "3655 W 59TH PL", 
    "YEAR": 2009, 
    "LONGITUDE": -87.715336761, 
    "LATTITUDE": 41.785036055
  }, 
  {
    "BUSINESS_TYPE": "Explosives, Certificate of Fitness", 
    "LEGAL_NAME": "LUMINA INC", 
    "STATE": "IL", 
    "DOING_BUSINESS_AS_NAME": "LUMINA, INC. ROCCO SALIANO", 
    "POP_AT_RISK": 42413, 
    "ZIP": 60642, 
    "ADDRESS": "515 N RACINE AVE", 
    "YEAR": 2009, 
    "LONGITUDE": -87.657251266, 
    "LATTITUDE": 41.891587415
  }, 
  {
    "BUSINESS_TYPE": "Explosives, Certificate of Fitness", 
    "LEGAL_NAME": "CARNEY GROUP", 
    "STATE": "IL", 
    "DOING_BUSINESS_AS_NAME": "CHICAGO EXPLOSIVE SERVICE", 
    "POP_AT_RISK": 50511, 
    "ZIP": 60604, 
    "ADDRESS": "141 W JACKSON BLVD  2007", 
    "YEAR": 2009, 
    "LONGITUDE": -87.632062286, 
    "LATTITUDE": 41.878025655
  }
]