[
  {
    "BUSINESS_TYPE": "Secondhand Dealer", 
    "LEGAL_NAME": "MFK WIRELESS, INC.", 
    "STATE": "IL", 
    "DOING_BUSINESS_AS_NAME": "ABC", 
    "POP_AT_RISK": 41984, 
    "ZIP": 60636, 
    "ADDRESS": "5512 S ASHLAND AVE 1ST", 
    "YEAR": 2018, 
    "LONGITUDE": -87.664709265, 
    "LATTITUDE": 41.793229706
  }, 
  {
    "BUSINESS_TYPE": "Secondhand Dealer", 
    "LEGAL_NAME": "RAFAEL PAUL", 
    "STATE": "IL", 
    "DOING_BUSINESS_AS_NAME": "EASTSIDE CYCLE ELECTRONICS", 
    "POP_AT_RISK": 42572, 
    "ZIP": 60632, 
    "ADDRESS": "4309 S ARCHER AVE 1 1", 
    "YEAR": 2018, 
    "LONGITUDE": -87.702273175, 
    "LATTITUDE": 41.815159065
  }, 
  {
    "BUSINESS_TYPE": "Secondhand Dealer", 
    "LEGAL_NAME": "OLYMPIC STORE FIXTURES INC", 
    "STATE": "IL", 
    "DOING_BUSINESS_AS_NAME": "OLYMPIC STORE FIXTURES INC", 
    "POP_AT_RISK": 23962, 
    "ZIP": 60638, 
    "ADDRESS": "4758 S CICERO AVE 1ST", 
    "YEAR": 2018, 
    "LONGITUDE": -87.743255101, 
    "LATTITUDE": 41.805889645
  }, 
  {
    "BUSINESS_TYPE": "Secondhand Dealer", 
    "LEGAL_NAME": "CHICAGO COMMUNITY COMPUTER SERVICE, INC.", 
    "STATE": "IL", 
    "DOING_BUSINESS_AS_NAME": "CHICAGO COMMUNITY COMPUTER SERVICE, INC.", 
    "POP_AT_RISK": 23425, 
    "ZIP": 60652, 
    "ADDRESS": "8251 S KEDZIE AVE 1ST", 
    "YEAR": 2018, 
    "LONGITUDE": -87.702059614, 
    "LATTITUDE": 41.742816828
  }, 
  {
    "BUSINESS_TYPE": "Secondhand Dealer", 
    "LEGAL_NAME": "7336 STONY ISLAND, INC.", 
    "STATE": "IL", 
    "DOING_BUSINESS_AS_NAME": "ZEE'S SUPERMARKET PLUS", 
    "POP_AT_RISK": 34900, 
    "ZIP": 60649, 
    "ADDRESS": "7336 S STONY ISLAND AVE 1ST", 
    "YEAR": 2018, 
    "LONGITUDE": -87.586350376, 
    "LATTITUDE": 41.761327921
  }, 
  {
    "BUSINESS_TYPE": "Secondhand Dealer", 
    "LEGAL_NAME": "FAST LINK COMMUNICATIONS, INC.", 
    "STATE": "IL", 
    "DOING_BUSINESS_AS_NAME": "Fast Link Communications Inc. dba 1ST COMM", 
    "POP_AT_RISK": 52744, 
    "ZIP": 60660, 
    "ADDRESS": "1956 W PETERSON AVE", 
    "YEAR": 2018, 
    "LONGITUDE": -87.679286159, 
    "LATTITUDE": 41.990793657
  }, 
  {
    "BUSINESS_TYPE": "Secondhand Dealer", 
    "LEGAL_NAME": "BASE TECHNOLOGY INC.", 
    "STATE": "IL", 
    "DOING_BUSINESS_AS_NAME": "CHICAGO COMPUTER CLUB", 
    "POP_AT_RISK": 32623, 
    "ZIP": 60617, 
    "ADDRESS": "1641 E 87TH ST 1", 
    "YEAR": 2018, 
    "LONGITUDE": -87.58355666, 
    "LATTITUDE": 41.736833927
  }, 
  {
    "BUSINESS_TYPE": "Secondhand Dealer", 
    "LEGAL_NAME": "FREE PLUS, INC.", 
    "STATE": "IL", 
    "DOING_BUSINESS_AS_NAME": "GADGETS REPAIR", 
    "POP_AT_RISK": 45806, 
    "ZIP": 60651, 
    "ADDRESS": "5656 W DIVISION ST 1ST", 
    "YEAR": 2018, 
    "LONGITUDE": -87.767939417, 
    "LATTITUDE": 41.902219351
  }, 
  {
    "BUSINESS_TYPE": "Secondhand Dealer", 
    "LEGAL_NAME": "GAMESTOP, INC.", 
    "STATE": "IL", 
    "DOING_BUSINESS_AS_NAME": "GAMESTOP #1570", 
    "POP_AT_RISK": 43909, 
    "ZIP": 60649, 
    "ADDRESS": "7131 S JEFFERY BLVD", 
    "YEAR": 2018, 
    "LONGITUDE": -87.576133104, 
    "LATTITUDE": 41.765189524
  }, 
  {
    "BUSINESS_TYPE": "Secondhand Dealer", 
    "LEGAL_NAME": "GAMESTOP, INC.", 
    "STATE": "IL", 
    "DOING_BUSINESS_AS_NAME": "GAMESTOP #1685", 
    "POP_AT_RISK": 38439, 
    "ZIP": 60619, 
    "ADDRESS": "8546 S COTTAGE GROVE AVE  G3B", 
    "YEAR": 2018, 
    "LONGITUDE": -87.605033266, 
    "LATTITUDE": 41.738930485
  }, 
  {
    "BUSINESS_TYPE": "Secondhand Dealer", 
    "LEGAL_NAME": "ALFONSO DIAZ-AGUILAR", 
    "STATE": "IL", 
    "DOING_BUSINESS_AS_NAME": "JEWELRY REPAIR AND DESIGNS", 
    "POP_AT_RISK": 47218, 
    "ZIP": 60609, 
    "ADDRESS": "2042 W 51ST ST 1", 
    "YEAR": 2018, 
    "LONGITUDE": -87.676204813, 
    "LATTITUDE": 41.801320709
  }, 
  {
    "BUSINESS_TYPE": "Secondhand Dealer", 
    "LEGAL_NAME": "THE CONNECTION INC.", 
    "STATE": "IL", 
    "DOING_BUSINESS_AS_NAME": "THE CONNECTION INC", 
    "POP_AT_RISK": 36218, 
    "ZIP": 60636, 
    "ADDRESS": "6910 S WESTERN AVE 1ST", 
    "YEAR": 2018, 
    "LONGITUDE": -87.683477668, 
    "LATTITUDE": 41.767957439
  }, 
  {
    "BUSINESS_TYPE": "Secondhand Dealer", 
    "LEGAL_NAME": "MATTIE E. BRADFORD", 
    "STATE": "IL", 
    "DOING_BUSINESS_AS_NAME": "CUSHIONS", 
    "POP_AT_RISK": 26588, 
    "ZIP": 60628, 
    "ADDRESS": "11336 S MICHIGAN AVE", 
    "YEAR": 2018, 
    "LONGITUDE": -87.621133229, 
    "LATTITUDE": 41.687891436
  }, 
  {
    "BUSINESS_TYPE": "Secondhand Dealer", 
    "LEGAL_NAME": "GREAT LAKE COMPUTER TECHNOLOGY, INCORPORATED", 
    "STATE": "IL", 
    "DOING_BUSINESS_AS_NAME": "CHICAGO COMPUTER CLUB", 
    "POP_AT_RISK": 40389, 
    "ZIP": 60615, 
    "ADDRESS": "1521 E 55TH ST 1", 
    "YEAR": 2018, 
    "LONGITUDE": -87.588268123, 
    "LATTITUDE": 41.795082097
  }, 
  {
    "BUSINESS_TYPE": "Secondhand Dealer", 
    "LEGAL_NAME": "ALEJANDRO IZQUIERDO", 
    "STATE": "IL", 
    "DOING_BUSINESS_AS_NAME": "PILSEN BIKE SHOP", 
    "POP_AT_RISK": 30396, 
    "ZIP": 60609, 
    "ADDRESS": "3541 S ARCHER AVE", 
    "YEAR": 2018, 
    "LONGITUDE": -87.678768812, 
    "LATTITUDE": 41.82956111
  }, 
  {
    "BUSINESS_TYPE": "Secondhand Dealer", 
    "LEGAL_NAME": "BEVERLY RECORD AND COSTUME, INCORPORATED", 
    "STATE": "IL", 
    "DOING_BUSINESS_AS_NAME": "BEVERLY RECORD AND COSTUME, INCORPORATED", 
    "POP_AT_RISK": 11475, 
    "ZIP": 60643, 
    "ADDRESS": "11612 S WESTERN AVE", 
    "YEAR": 2018, 
    "LONGITUDE": -87.681005722, 
    "LATTITUDE": 41.682279214
  }, 
  {
    "BUSINESS_TYPE": "Secondhand Dealer", 
    "LEGAL_NAME": "Kenny Jabra", 
    "STATE": "IL", 
    "DOING_BUSINESS_AS_NAME": "KENNECTIONS", 
    "POP_AT_RISK": 25573, 
    "ZIP": 60628, 
    "ADDRESS": "410 E 103RD ST 1ST", 
    "YEAR": 2018, 
    "LONGITUDE": -87.61328766, 
    "LATTITUDE": 41.707432812
  }, 
  {
    "BUSINESS_TYPE": "Secondhand Dealer", 
    "LEGAL_NAME": "KOOWAN OH", 
    "STATE": "IL", 
    "DOING_BUSINESS_AS_NAME": "CITY GOLD", 
    "POP_AT_RISK": 66513, 
    "ZIP": 60640, 
    "ADDRESS": "4601 N BROADWAY  1ST", 
    "YEAR": 2018, 
    "LONGITUDE": -87.657390798, 
    "LATTITUDE": 41.965523508
  }, 
  {
    "BUSINESS_TYPE": "Secondhand Dealer", 
    "LEGAL_NAME": "JZ COMPUTER CORP.", 
    "STATE": "IL", 
    "DOING_BUSINESS_AS_NAME": "CHICAGO COMPUTER CLUB", 
    "POP_AT_RISK": 19772, 
    "ZIP": 60643, 
    "ADDRESS": "2039 W 95TH ST 1ST", 
    "YEAR": 2018, 
    "LONGITUDE": -87.673946223, 
    "LATTITUDE": 41.720945958
  }, 
  {
    "BUSINESS_TYPE": "Secondhand Dealer", 
    "LEGAL_NAME": "STEVE QUICK JEWELERS, INC.", 
    "STATE": "IL", 
    "DOING_BUSINESS_AS_NAME": "STEVE QUICK JEWELERS", 
    "POP_AT_RISK": 67032, 
    "ZIP": 60614, 
    "ADDRESS": "2471 N CLARK ST", 
    "YEAR": 2018, 
    "LONGITUDE": -87.641408199, 
    "LATTITUDE": 41.927406739
  }, 
  {
    "BUSINESS_TYPE": "Secondhand Dealer", 
    "LEGAL_NAME": "CELLULAR ETC INC", 
    "STATE": "IL", 
    "DOING_BUSINESS_AS_NAME": "CELLULAR ZONE", 
    "POP_AT_RISK": 56522, 
    "ZIP": 60623, 
    "ADDRESS": "3206 W 16TH ST", 
    "YEAR": 2018, 
    "LONGITUDE": -87.70579397, 
    "LATTITUDE": 41.859189221
  }, 
  {
    "BUSINESS_TYPE": "Secondhand Dealer", 
    "LEGAL_NAME": "GROOVEONLINE, INC.", 
    "STATE": "IL", 
    "DOING_BUSINESS_AS_NAME": "HYDEPARK RECORDS", 
    "POP_AT_RISK": 35630, 
    "ZIP": 60615, 
    "ADDRESS": "1377 E 53RD ST 1", 
    "YEAR": 2018, 
    "LONGITUDE": -87.591999551, 
    "LATTITUDE": 41.799400111
  }, 
  {
    "BUSINESS_TYPE": "Secondhand Dealer", 
    "LEGAL_NAME": "U.S. MOBILE & MORE, INC.", 
    "STATE": "IL", 
    "DOING_BUSINESS_AS_NAME": "BOOST MOBILE", 
    "POP_AT_RISK": 33545, 
    "ZIP": 60624, 
    "ADDRESS": "3206 W WASHINGTON BLVD 1ST", 
    "YEAR": 2018, 
    "LONGITUDE": -87.706516077, 
    "LATTITUDE": 41.882899919
  }, 
  {
    "BUSINESS_TYPE": "Secondhand Dealer", 
    "LEGAL_NAME": "WEST TOWN LIQUIDATORS, INC.", 
    "STATE": "IL", 
    "DOING_BUSINESS_AS_NAME": "WEST TOWN LIQUIDATORS INC", 
    "POP_AT_RISK": 43806, 
    "ZIP": 60624, 
    "ADDRESS": "4150 W MADISON ST 1ST", 
    "YEAR": 2018, 
    "LONGITUDE": -87.73008512, 
    "LATTITUDE": 41.880782422
  }, 
  {
    "BUSINESS_TYPE": "Secondhand Dealer", 
    "LEGAL_NAME": "WILLIE F. SHIPP", 
    "STATE": "IL", 
    "DOING_BUSINESS_AS_NAME": "CRYSTAL THRIFT SHOP", 
    "POP_AT_RISK": 41089, 
    "ZIP": 60620, 
    "ADDRESS": "8018 S HALSTED ST", 
    "YEAR": 2018, 
    "LONGITUDE": -87.644118769, 
    "LATTITUDE": 41.748217089
  }, 
  {
    "BUSINESS_TYPE": "Secondhand Dealer", 
    "LEGAL_NAME": "GAMESTOP, INC.", 
    "STATE": "IL", 
    "DOING_BUSINESS_AS_NAME": "GAMESTOP #6098", 
    "POP_AT_RISK": 41487, 
    "ZIP": 60636, 
    "ADDRESS": "6940 S ASHLAND AVE 1ST", 
    "YEAR": 2018, 
    "LONGITUDE": -87.664002427, 
    "LATTITUDE": 41.767328201
  }, 
  {
    "BUSINESS_TYPE": "Secondhand Dealer", 
    "LEGAL_NAME": "TECH PLANET, INC.", 
    "STATE": "IL", 
    "DOING_BUSINESS_AS_NAME": "TECH PLANET, INC.", 
    "POP_AT_RISK": 48029, 
    "ZIP": 60644, 
    "ADDRESS": "5134 W MADISON ST", 
    "YEAR": 2018, 
    "LONGITUDE": -87.754031383, 
    "LATTITUDE": 41.880495475
  }, 
  {
    "BUSINESS_TYPE": "Secondhand Dealer", 
    "LEGAL_NAME": "ROCHELLE SMITH", 
    "STATE": "IL", 
    "DOING_BUSINESS_AS_NAME": "R & R COMPUTER SERVICES", 
    "POP_AT_RISK": 14637, 
    "ZIP": 60628, 
    "ADDRESS": "12723 S HALSTED ST 1ST", 
    "YEAR": 2018, 
    "LONGITUDE": -87.641249111, 
    "LATTITUDE": 41.662485889
  }, 
  {
    "BUSINESS_TYPE": "Secondhand Dealer", 
    "LEGAL_NAME": "A & A CLOTHING & CELLULAR, INC.", 
    "STATE": "IL", 
    "DOING_BUSINESS_AS_NAME": "THE SOURCE", 
    "POP_AT_RISK": 28547, 
    "ZIP": 60628, 
    "ADDRESS": "9923 S HALSTED ST 1ST", 
    "YEAR": 2018, 
    "LONGITUDE": -87.642833936, 
    "LATTITUDE": 41.713495573
  }, 
  {
    "BUSINESS_TYPE": "Secondhand Dealer", 
    "LEGAL_NAME": "RAFAEL BRISUELA", 
    "STATE": "IL", 
    "DOING_BUSINESS_AS_NAME": "BRISUELA SECOND HAND STORE", 
    "POP_AT_RISK": 48793, 
    "ZIP": 60651, 
    "ADDRESS": "3811 W CHICAGO AVE", 
    "YEAR": 2018, 
    "LONGITUDE": -87.72170828, 
    "LATTITUDE": 41.895298232
  }, 
  {
    "BUSINESS_TYPE": "Secondhand Dealer", 
    "LEGAL_NAME": "7912 EXCHANGE INC.", 
    "STATE": "IL", 
    "DOING_BUSINESS_AS_NAME": "CONNECTION - BOOST MOBILE", 
    "POP_AT_RISK": 33909, 
    "ZIP": 60617, 
    "ADDRESS": "7912 S EXCHANGE AVE 1ST", 
    "YEAR": 2018, 
    "LONGITUDE": -87.553038046, 
    "LATTITUDE": 41.751479822
  }, 
  {
    "BUSINESS_TYPE": "Secondhand Dealer", 
    "LEGAL_NAME": "E Z CASH FOR GOLD INC.,", 
    "STATE": "IL", 
    "DOING_BUSINESS_AS_NAME": "E Z CASH FOR GOLD", 
    "POP_AT_RISK": 31579, 
    "ZIP": 60621, 
    "ADDRESS": "766 W 69TH ST 1ST", 
    "YEAR": 2018, 
    "LONGITUDE": -87.644368183, 
    "LATTITUDE": 41.768949204
  }, 
  {
    "BUSINESS_TYPE": "Secondhand Dealer", 
    "LEGAL_NAME": "GAMESTOP, INC.", 
    "STATE": "IL", 
    "DOING_BUSINESS_AS_NAME": "GAMESTOP #573", 
    "POP_AT_RISK": 17656, 
    "ZIP": 60652, 
    "ADDRESS": "7945 S CICERO AVE", 
    "YEAR": 2018, 
    "LONGITUDE": -87.741158465, 
    "LATTITUDE": 41.748194203
  }, 
  {
    "BUSINESS_TYPE": "Secondhand Dealer", 
    "LEGAL_NAME": "TOWN CELLULAR INC.", 
    "STATE": "IL", 
    "DOING_BUSINESS_AS_NAME": "ABC CELLULAR", 
    "POP_AT_RISK": 38768, 
    "ZIP": 60619, 
    "ADDRESS": "804 E 79TH ST 1ST", 
    "YEAR": 2018, 
    "LONGITUDE": -87.604994234, 
    "LATTITUDE": 41.751398748
  }, 
  {
    "BUSINESS_TYPE": "Secondhand Dealer", 
    "LEGAL_NAME": "ELITE WIRELESS PARTNERS, INC.", 
    "STATE": "IL", 
    "DOING_BUSINESS_AS_NAME": "ELITE WIRELESS PARTNERS, INC.", 
    "POP_AT_RISK": 29384, 
    "ZIP": 60612, 
    "ADDRESS": "22 S WESTERN AVE 1ST 101", 
    "YEAR": 2018, 
    "LONGITUDE": -87.686564363, 
    "LATTITUDE": 41.880489659
  }, 
  {
    "BUSINESS_TYPE": "Secondhand Dealer", 
    "LEGAL_NAME": "GSM SOLUTIONS INC.", 
    "STATE": "IL", 
    "DOING_BUSINESS_AS_NAME": "GSM SOLUTIONS INC.", 
    "POP_AT_RISK": 35146, 
    "ZIP": 60634, 
    "ADDRESS": "7010 W BELMONT AVE 1ST", 
    "YEAR": 2018, 
    "LONGITUDE": -87.801657305, 
    "LATTITUDE": 41.938181114
  }, 
  {
    "BUSINESS_TYPE": "Secondhand Dealer", 
    "LEGAL_NAME": "XTREME MOBILE INC.", 
    "STATE": "IL", 
    "DOING_BUSINESS_AS_NAME": "XTREME MOBILE INC.", 
    "POP_AT_RISK": 28777, 
    "ZIP": 60629, 
    "ADDRESS": "4702 W 63RD ST 1ST", 
    "YEAR": 2018, 
    "LONGITUDE": -87.739982839, 
    "LATTITUDE": 41.778566567
  }, 
  {
    "BUSINESS_TYPE": "Secondhand Dealer", 
    "LEGAL_NAME": "SANCHEZ BIKE SHOP, INC.", 
    "STATE": "IL", 
    "DOING_BUSINESS_AS_NAME": "SANCHEZ BIKE SHOP, INC.", 
    "POP_AT_RISK": 54400, 
    "ZIP": 60623, 
    "ADDRESS": "3056 S MILLARD AVE 1ST", 
    "YEAR": 2018, 
    "LONGITUDE": -87.715959855, 
    "LATTITUDE": 41.837124014
  }, 
  {
    "BUSINESS_TYPE": "Secondhand Dealer", 
    "LEGAL_NAME": "TCC WIRELESS, INC.", 
    "STATE": "IL", 
    "DOING_BUSINESS_AS_NAME": "T-Mobile", 
    "POP_AT_RISK": 14869, 
    "ZIP": 60646, 
    "ADDRESS": "6342 N CICERO AVE 1", 
    "YEAR": 2018, 
    "LONGITUDE": -87.748490225, 
    "LATTITUDE": 41.996914777
  }, 
  {
    "BUSINESS_TYPE": "Secondhand Dealer", 
    "LEGAL_NAME": "GOLD EXPRESS JEWELERS, INC.", 
    "STATE": "IL", 
    "DOING_BUSINESS_AS_NAME": "GOLD EXPRESS JEWELERS", 
    "POP_AT_RISK": 29261, 
    "ZIP": 60620, 
    "ADDRESS": "120 W 87TH ST  C-2", 
    "YEAR": 2018, 
    "LONGITUDE": -87.627699235, 
    "LATTITUDE": 41.736380202
  }, 
  {
    "BUSINESS_TYPE": "Secondhand Dealer", 
    "LEGAL_NAME": "ARMEN MANUKIAN", 
    "STATE": "IL", 
    "DOING_BUSINESS_AS_NAME": "ARMEN JEWELRY", 
    "POP_AT_RISK": 57485, 
    "ZIP": 60660, 
    "ADDRESS": "1142 W THORNDALE AVE 1ST F 1", 
    "YEAR": 2018, 
    "LONGITUDE": -87.660015021, 
    "LATTITUDE": 41.990126081
  }, 
  {
    "BUSINESS_TYPE": "Secondhand Dealer", 
    "LEGAL_NAME": "ROCHELLE ISRAEL", 
    "STATE": "IL", 
    "DOING_BUSINESS_AS_NAME": "B J FURNITURE & ANTIQUES", 
    "POP_AT_RISK": 60825, 
    "ZIP": 60645, 
    "ADDRESS": "6901 N WESTERN AVE  1ST", 
    "YEAR": 2018, 
    "LONGITUDE": -87.68995263, 
    "LATTITUDE": 42.006283814
  }, 
  {
    "BUSINESS_TYPE": "Secondhand Dealer", 
    "LEGAL_NAME": "THE CONNECTION CLOTHING & CELLULAR, INC.", 
    "STATE": "IL", 
    "DOING_BUSINESS_AS_NAME": "THE CONNECTION CLOTHING & CELLULAR, INC.", 
    "POP_AT_RISK": 36966, 
    "ZIP": 60621, 
    "ADDRESS": "1141 W 63RD ST", 
    "YEAR": 2018, 
    "LONGITUDE": -87.653681435, 
    "LATTITUDE": 41.779510546
  }, 
  {
    "BUSINESS_TYPE": "Secondhand Dealer", 
    "LEGAL_NAME": "YOUN ENTERPRISES, INC.", 
    "STATE": "IL", 
    "DOING_BUSINESS_AS_NAME": "RAINBOW JEWELRY", 
    "POP_AT_RISK": 21745, 
    "ZIP": 60609, 
    "ADDRESS": "4666 S HALSTED ST 1ST", 
    "YEAR": 2018, 
    "LONGITUDE": -87.645689641, 
    "LATTITUDE": 41.809000375
  }, 
  {
    "BUSINESS_TYPE": "Secondhand Dealer", 
    "LEGAL_NAME": "DAVID G VACCARO", 
    "STATE": "IL", 
    "DOING_BUSINESS_AS_NAME": "CHICAGO_ADUIO", 
    "POP_AT_RISK": 54952, 
    "ZIP": 60629, 
    "ADDRESS": "3933 W 63RD ST 1ST", 
    "YEAR": 2018, 
    "LONGITUDE": -87.721644654, 
    "LATTITUDE": 41.778563467
  }, 
  {
    "BUSINESS_TYPE": "Secondhand Dealer", 
    "LEGAL_NAME": "SUZANNE LAZER", 
    "STATE": "IL", 
    "DOING_BUSINESS_AS_NAME": "THE ANTIQUE & RESALE SHOPPE", 
    "POP_AT_RISK": 13900, 
    "ZIP": 60631, 
    "ADDRESS": "7214 N HARLEM AVE 1ST", 
    "YEAR": 2018, 
    "LONGITUDE": -87.806779876, 
    "LATTITUDE": 42.012198711
  }, 
  {
    "BUSINESS_TYPE": "Secondhand Dealer", 
    "LEGAL_NAME": "J & M JEWELERS, INC.", 
    "STATE": "IL", 
    "DOING_BUSINESS_AS_NAME": "YASINI JEWELERS ON DEVON", 
    "POP_AT_RISK": 52156, 
    "ZIP": 60659, 
    "ADDRESS": "3110-3112 W DEVON AVE 1", 
    "YEAR": 2018, 
    "LONGITUDE": -87.707428525, 
    "LATTITUDE": 41.997531905
  }, 
  {
    "BUSINESS_TYPE": "Secondhand Dealer", 
    "LEGAL_NAME": "GAMESTOP, INC.", 
    "STATE": "IL", 
    "DOING_BUSINESS_AS_NAME": "GAMESTOP #6161", 
    "POP_AT_RISK": 16113, 
    "ZIP": 60643, 
    "ADDRESS": "1710 W 119TH ST 1ST", 
    "YEAR": 2018, 
    "LONGITUDE": -87.664431884, 
    "LATTITUDE": 41.677591897
  }
]