[
{"STATE":"IL","ZIP":60642,"LATTITUDE":41.890928110339836,"ADDRESS":"464 N HALSTED ST 1ST ","YEAR":2005,"DOING_BUSINESS_AS_NAME":"THYME","POP_AT_RISK":325521,"BUSINESS_TYPE":"Outdoor Patio","LEGAL_NAME":"DANILO'S INC","LONGITUDE":-87.64777421087267},
{"STATE":"IL","ZIP":60657,"LATTITUDE":41.933987492510155,"ADDRESS":"2845 N CLARK ST  ","YEAR":2005,"DOING_BUSINESS_AS_NAME":"LA CREPERIE, INC.","POP_AT_RISK":2348192,"BUSINESS_TYPE":"Outdoor Patio","LEGAL_NAME":"LA CREPERIE, INC.","LONGITUDE":-87.64567385828903},
{"STATE":"IL","ZIP":60606,"LATTITUDE":41.88670922202607,"ADDRESS":"225 W WACKER DR 1ST ","YEAR":2005,"DOING_BUSINESS_AS_NAME":"CAFFE BACI","POP_AT_RISK":429681,"BUSINESS_TYPE":"Outdoor Patio","LEGAL_NAME":"TUTTO MONDO, INC.","LONGITUDE":-87.6347108994595},
{"STATE":"IL","ZIP":60634,"LATTITUDE":41.95302030864294,"ADDRESS":"5737 W IRVING PARK RD  ","YEAR":2005,"DOING_BUSINESS_AS_NAME":"MARTINI CLUB","POP_AT_RISK":661500,"BUSINESS_TYPE":"Outdoor Patio","LEGAL_NAME":"O'CONNOR'S PUB, INC.","LONGITUDE":-87.77096800058055},
{"STATE":"IL","ZIP":60622,"LATTITUDE":41.9091920590843,"ADDRESS":"1531 N DAMEN AVE  ","YEAR":2005,"DOING_BUSINESS_AS_NAME":"BIG STAR","POP_AT_RISK":1693425,"BUSINESS_TYPE":"Outdoor Patio","LEGAL_NAME":"PONTIAC PRODUCE COMPANY","LONGITUDE":-87.67728290727564},
{}]