[
  {
    "BUSINESS_TYPE": "Massage Establishment", 
    "LEGAL_NAME": "MICHELLE MANNING PAPPAS", 
    "STATE": "IL", 
    "DOING_BUSINESS_AS_NAME": "RELAXATION STATION", 
    "POP_AT_RISK": 18825, 
    "ZIP": 60643, 
    "ADDRESS": "10655 S HALE AVE  1", 
    "YEAR": 2010, 
    "LONGITUDE": -87.66933263, 
    "LATTITUDE": 41.6993727
  }, 
  {
    "BUSINESS_TYPE": "Massage Establishment", 
    "LEGAL_NAME": "RENOVACIONES VALLEJO", 
    "STATE": "IL", 
    "DOING_BUSINESS_AS_NAME": "RENOVACIONES VALLEJO", 
    "POP_AT_RISK": 57388, 
    "ZIP": 60629, 
    "ADDRESS": "3809 W 63RD ST", 
    "YEAR": 2010, 
    "LONGITUDE": -87.718278639, 
    "LATTITUDE": 41.778618371
  }, 
  {
    "BUSINESS_TYPE": "Massage Establishment", 
    "LEGAL_NAME": "BARBARA A GODINA", 
    "STATE": "IL", 
    "DOING_BUSINESS_AS_NAME": "CREATIONS TOUCH", 
    "POP_AT_RISK": 17702, 
    "ZIP": 60617, 
    "ADDRESS": "9204 S COMMERCIAL AVE  306", 
    "YEAR": 2010, 
    "LONGITUDE": -87.551357852, 
    "LATTITUDE": 41.728035914
  }, 
  {
    "BUSINESS_TYPE": "Massage Establishment", 
    "LEGAL_NAME": "ALOE PLUS CORP", 
    "STATE": "IL", 
    "DOING_BUSINESS_AS_NAME": "ALOE PLUS CORP", 
    "POP_AT_RISK": 48974, 
    "ZIP": 60632, 
    "ADDRESS": "5215 S KEDZIE AVE 1ST", 
    "YEAR": 2010, 
    "LONGITUDE": -87.703552193, 
    "LATTITUDE": 41.798507679
  }, 
  {
    "BUSINESS_TYPE": "Massage Establishment", 
    "LEGAL_NAME": "TERESA SOJDA", 
    "STATE": "IL", 
    "DOING_BUSINESS_AS_NAME": "SOYDA HOUSE OF BEAUTY", 
    "POP_AT_RISK": 20372, 
    "ZIP": 60631, 
    "ADDRESS": "7622 W HIGGINS AVE 1ST", 
    "YEAR": 2010, 
    "LONGITUDE": -87.817779724, 
    "LATTITUDE": 41.983846922
  }, 
  {
    "BUSINESS_TYPE": "Massage Establishment", 
    "LEGAL_NAME": "VEOLA JAMES", 
    "STATE": "IL", 
    "DOING_BUSINESS_AS_NAME": "VEOLA'S BOUTIQUE & DAY SPA", 
    "POP_AT_RISK": 15755, 
    "ZIP": 60643, 
    "ADDRESS": "2150 W 95TH ST  1", 
    "YEAR": 2010, 
    "LONGITUDE": -87.676850673, 
    "LATTITUDE": 41.721126408
  }, 
  {
    "BUSINESS_TYPE": "Massage Establishment", 
    "LEGAL_NAME": "A & B BEAUTY SALON, INC.", 
    "STATE": "IL", 
    "DOING_BUSINESS_AS_NAME": "A & B BEAUTY SALON, INC.", 
    "POP_AT_RISK": 33000, 
    "ZIP": 60608, 
    "ADDRESS": "3408 S ASHLAND AVE 1", 
    "YEAR": 2010, 
    "LONGITUDE": -87.665742996, 
    "LATTITUDE": 41.832018342
  }, 
  {
    "BUSINESS_TYPE": "Massage Establishment", 
    "LEGAL_NAME": "SHIRELLE MARIE CROSBY", 
    "STATE": "IL", 
    "DOING_BUSINESS_AS_NAME": "EARTH ANGELS SPA", 
    "POP_AT_RISK": 33177, 
    "ZIP": 60649, 
    "ADDRESS": "7144 S EXCHANGE AVE", 
    "YEAR": 2010, 
    "LONGITUDE": -87.565718069, 
    "LATTITUDE": 41.76489356
  }, 
  {
    "BUSINESS_TYPE": "Massage Establishment", 
    "LEGAL_NAME": "BALANCE MASSAGE THERAPY INC.", 
    "STATE": "IL", 
    "DOING_BUSINESS_AS_NAME": "BALANCE MASSAGE THERAPY INC.", 
    "POP_AT_RISK": 15852, 
    "ZIP": 60631, 
    "ADDRESS": "7646 W TOUHY AVE 1", 
    "YEAR": 2010, 
    "LONGITUDE": -87.81818594, 
    "LATTITUDE": 42.011527527
  }, 
  {
    "BUSINESS_TYPE": "Massage Establishment", 
    "LEGAL_NAME": "ALICE ZHANG", 
    "STATE": "IL", 
    "DOING_BUSINESS_AS_NAME": "NAIL ACADEMY", 
    "POP_AT_RISK": 17199, 
    "ZIP": 60632, 
    "ADDRESS": "4324 S PULASKI RD", 
    "YEAR": 2010, 
    "LONGITUDE": -87.723978686, 
    "LATTITUDE": 41.81441946
  }, 
  {
    "BUSINESS_TYPE": "Massage Establishment", 
    "LEGAL_NAME": "DOLORES REYES-MERCADO", 
    "STATE": "IL", 
    "DOING_BUSINESS_AS_NAME": "YIN MASSAGE SPA", 
    "POP_AT_RISK": 29085, 
    "ZIP": 60612, 
    "ADDRESS": "737 S WESTERN AVE 1", 
    "YEAR": 2010, 
    "LONGITUDE": -87.686039448, 
    "LATTITUDE": 41.871974478
  }, 
  {
    "BUSINESS_TYPE": "Massage Establishment", 
    "LEGAL_NAME": "SPLENDOR HAIR SALON & DAY SPA, P.C.", 
    "STATE": "IL", 
    "DOING_BUSINESS_AS_NAME": "SPLENDOR HAIR SALON & DAY SPA", 
    "POP_AT_RISK": 12033, 
    "ZIP": 60656, 
    "ADDRESS": "4738 N CUMBERLAND AVE 1ST", 
    "YEAR": 2010, 
    "LONGITUDE": -87.836830726, 
    "LATTITUDE": 41.966140043
  }, 
  {
    "BUSINESS_TYPE": "Massage Establishment", 
    "LEGAL_NAME": "CANCUN MASSAGE INC.", 
    "STATE": "IL", 
    "DOING_BUSINESS_AS_NAME": "DIVINA SPA", 
    "POP_AT_RISK": 46860, 
    "ZIP": 60639, 
    "ADDRESS": "6011 W GRAND AVE", 
    "YEAR": 2010, 
    "LONGITUDE": -87.776124632, 
    "LATTITUDE": 41.920541202
  }, 
  {
    "BUSINESS_TYPE": "Massage Establishment", 
    "LEGAL_NAME": "PATRICIA A. TONEY", 
    "STATE": "IL", 
    "DOING_BUSINESS_AS_NAME": "KM DAY SPA", 
    "POP_AT_RISK": 67040, 
    "ZIP": 60622, 
    "ADDRESS": "2556 W DIVISION ST", 
    "YEAR": 2010, 
    "LONGITUDE": -87.691722445, 
    "LATTITUDE": 41.903080519
  }, 
  {
    "BUSINESS_TYPE": "Massage Establishment", 
    "LEGAL_NAME": "ESCAPE TO BEAUTY, INC.", 
    "STATE": "IL", 
    "DOING_BUSINESS_AS_NAME": "PAVILION SALON & SPA", 
    "POP_AT_RISK": 13804, 
    "ZIP": 60656, 
    "ADDRESS": "5441 N EAST RIVER RD", 
    "YEAR": 2010, 
    "LONGITUDE": -87.846315578, 
    "LATTITUDE": 41.978307146
  }, 
  {
    "BUSINESS_TYPE": "Massage Establishment", 
    "LEGAL_NAME": "OUR NEIGHBORHOOD DAY SPA CORP.", 
    "STATE": "IL", 
    "DOING_BUSINESS_AS_NAME": "OUR NEIGHBORHOOD DAY SPA, CORP.", 
    "POP_AT_RISK": 57732, 
    "ZIP": 60623, 
    "ADDRESS": "2841 W CERMAK RD 1ST", 
    "YEAR": 2010, 
    "LONGITUDE": -87.697225974, 
    "LATTITUDE": 41.851767626
  }, 
  {
    "BUSINESS_TYPE": "Massage Establishment", 
    "LEGAL_NAME": "SERENITY SPA AND WELLNESS, INC.", 
    "STATE": "IL", 
    "DOING_BUSINESS_AS_NAME": "Serenity Spa and Wellness, Inc.", 
    "POP_AT_RISK": 9128, 
    "ZIP": 60620, 
    "ADDRESS": "9101 S WESTERN AVE  1 & 2", 
    "YEAR": 2010, 
    "LONGITUDE": -87.682139901, 
    "LATTITUDE": 41.728143888
  }, 
  {
    "BUSINESS_TYPE": "Massage Establishment", 
    "LEGAL_NAME": "RELAX CENTER, INC.", 
    "STATE": "IL", 
    "DOING_BUSINESS_AS_NAME": "RELAX CENTER", 
    "POP_AT_RISK": 16758, 
    "ZIP": 60652, 
    "ADDRESS": "7601 S CICERO AVE  5581", 
    "YEAR": 2010, 
    "LONGITUDE": -87.741384759, 
    "LATTITUDE": 41.754660124
  }, 
  {
    "BUSINESS_TYPE": "Massage Establishment", 
    "LEGAL_NAME": "DANUTA CISON", 
    "STATE": "IL", 
    "DOING_BUSINESS_AS_NAME": "MICKIE'S HAIR & NAIL TECH", 
    "POP_AT_RISK": 24329, 
    "ZIP": 60638, 
    "ADDRESS": "5742 S ARCHER AVE 2ND", 
    "YEAR": 2010, 
    "LONGITUDE": -87.756021375, 
    "LATTITUDE": 41.796810444
  }, 
  {
    "BUSINESS_TYPE": "Massage Establishment", 
    "LEGAL_NAME": "ARIANNA QUESADA", 
    "STATE": "IL", 
    "DOING_BUSINESS_AS_NAME": "BLUE ISLAND SPA", 
    "POP_AT_RISK": 54111, 
    "ZIP": 60634, 
    "ADDRESS": "6007 W BELMONT AVE 1", 
    "YEAR": 2010, 
    "LONGITUDE": -87.776559686, 
    "LATTITUDE": 41.93833373
  }, 
  {
    "BUSINESS_TYPE": "Massage Establishment", 
    "LEGAL_NAME": "ONLY BY FAITH, INC.", 
    "STATE": "IL", 
    "DOING_BUSINESS_AS_NAME": "ONLY BY FAITH", 
    "POP_AT_RISK": 47805, 
    "ZIP": 60651, 
    "ADDRESS": "5700 W CHICAGO AVE 2", 
    "YEAR": 2010, 
    "LONGITUDE": -87.768008331, 
    "LATTITUDE": 41.89492663
  }, 
  {
    "BUSINESS_TYPE": "Massage Establishment", 
    "LEGAL_NAME": "ANTONELLA FRANGELLA-QUINN", 
    "STATE": "IL", 
    "DOING_BUSINESS_AS_NAME": "FACE TO FACE", 
    "POP_AT_RISK": 25020, 
    "ZIP": 60655, 
    "ADDRESS": "3502 W 111TH ST", 
    "YEAR": 2010, 
    "LONGITUDE": -87.708299802, 
    "LATTITUDE": 41.691553801
  }, 
  {
    "BUSINESS_TYPE": "Massage Establishment", 
    "LEGAL_NAME": "WATERFALLS HAVEN RETREAT, INC.", 
    "STATE": "IL", 
    "DOING_BUSINESS_AS_NAME": "WATERFALLS HAVEN RETREAT", 
    "POP_AT_RISK": 42149, 
    "ZIP": 60626, 
    "ADDRESS": "7524 N PAULINA ST 1ST 17", 
    "YEAR": 2010, 
    "LONGITUDE": -87.67318962, 
    "LATTITUDE": 42.018606864
  }, 
  {
    "BUSINESS_TYPE": "Massage Establishment", 
    "LEGAL_NAME": "STEP! WOMEN' S FITNESS STUDIO LLC", 
    "STATE": "IL", 
    "DOING_BUSINESS_AS_NAME": "STEP! WOMEN' S FITNESS STUDIO", 
    "POP_AT_RISK": 33383, 
    "ZIP": 60620, 
    "ADDRESS": "9350 S HALSTED ST 1ST", 
    "YEAR": 2010, 
    "LONGITUDE": -87.643414424, 
    "LATTITUDE": 41.72357081
  }, 
  {
    "BUSINESS_TYPE": "Massage Establishment", 
    "LEGAL_NAME": "LILIAN SALON & SPA, INC.", 
    "STATE": "IL", 
    "DOING_BUSINESS_AS_NAME": "LILIAN SALON & SPA, INC.", 
    "POP_AT_RISK": 48917, 
    "ZIP": 60622, 
    "ADDRESS": "2623 W CHICAGO AVE  1", 
    "YEAR": 2010, 
    "LONGITUDE": -87.692735161, 
    "LATTITUDE": 41.895574135
  }, 
  {
    "BUSINESS_TYPE": "Massage Establishment", 
    "LEGAL_NAME": "SOUTH CENTRAL COMMUNITY SERVICES, INC.", 
    "STATE": "IL", 
    "DOING_BUSINESS_AS_NAME": "SOUTH CENTRAL COMMUNITY SERVICES", 
    "POP_AT_RISK": 38439, 
    "ZIP": 60619, 
    "ADDRESS": "8545 S COTTAGE GROVE AVE", 
    "YEAR": 2010, 
    "LONGITUDE": -87.604740541, 
    "LATTITUDE": 41.738947757
  }, 
  {
    "BUSINESS_TYPE": "Massage Establishment", 
    "LEGAL_NAME": "SUE S. SHIN", 
    "STATE": "IL", 
    "DOING_BUSINESS_AS_NAME": "GUNNISON SPA", 
    "POP_AT_RISK": 33569, 
    "ZIP": 60630, 
    "ADDRESS": "6338 W GUNNISON ST 1", 
    "YEAR": 2010, 
    "LONGITUDE": -87.787096099, 
    "LATTITUDE": 41.968531628
  }, 
  {
    "BUSINESS_TYPE": "Massage Establishment", 
    "LEGAL_NAME": "CITY MASSAGE & SAUNA CENTER, INC.", 
    "STATE": "IL", 
    "DOING_BUSINESS_AS_NAME": "CITY MASSAGE & SAUNA CENTER", 
    "POP_AT_RISK": 43770, 
    "ZIP": 60608, 
    "ADDRESS": "2205 W CERMAK RD 1ST", 
    "YEAR": 2010, 
    "LONGITUDE": -87.680986014, 
    "LATTITUDE": 41.851985516
  }, 
  {
    "BUSINESS_TYPE": "Massage Establishment", 
    "LEGAL_NAME": "D & H ALTERNATIVE HEALTH, INC", 
    "STATE": "IL", 
    "DOING_BUSINESS_AS_NAME": "ORIENTAL MASSAGE", 
    "POP_AT_RISK": 62644, 
    "ZIP": 60629, 
    "ADDRESS": "6237 S KEDZIE AVE 1ST FL", 
    "YEAR": 2010, 
    "LONGITUDE": -87.703010495, 
    "LATTITUDE": 41.779675073
  }, 
  {
    "BUSINESS_TYPE": "Massage Establishment", 
    "LEGAL_NAME": "BAHDY, INC.", 
    "STATE": "IL", 
    "DOING_BUSINESS_AS_NAME": "BAHDY, INC.", 
    "POP_AT_RISK": 41534, 
    "ZIP": 60653, 
    "ADDRESS": "635 E 47TH ST 1ST 1", 
    "YEAR": 2010, 
    "LONGITUDE": -87.610145899, 
    "LATTITUDE": 41.809372191
  }, 
  {
    "BUSINESS_TYPE": "Massage Establishment", 
    "LEGAL_NAME": "ALICE K. SZETO", 
    "STATE": "IL", 
    "DOING_BUSINESS_AS_NAME": "ALICE BEAUTY SALON", 
    "POP_AT_RISK": 36167, 
    "ZIP": 60616, 
    "ADDRESS": "2810 S WENTWORTH AVE 1", 
    "YEAR": 2010, 
    "LONGITUDE": -87.631932227, 
    "LATTITUDE": 41.842256797
  }, 
  {
    "BUSINESS_TYPE": "Massage Establishment", 
    "LEGAL_NAME": "DAYDREAM SPAS, INC", 
    "STATE": "IL", 
    "DOING_BUSINESS_AS_NAME": "DAYDREAM  SPAS, INC", 
    "POP_AT_RISK": 42731, 
    "ZIP": 60620, 
    "ADDRESS": "8214 S ASHLAND AVE", 
    "YEAR": 2010, 
    "LONGITUDE": -87.663436356, 
    "LATTITUDE": 41.744406057
  }, 
  {
    "BUSINESS_TYPE": "Massage Establishment", 
    "LEGAL_NAME": "CARIBBEAN DAY SPA CORP.", 
    "STATE": "IL", 
    "DOING_BUSINESS_AS_NAME": "CARIBBEAN DAY SPA CORP.", 
    "POP_AT_RISK": 71563, 
    "ZIP": 60639, 
    "ADDRESS": "2250 N CICERO AVE 1ST", 
    "YEAR": 2010, 
    "LONGITUDE": -87.746394451, 
    "LATTITUDE": 41.922094961
  }, 
  {
    "BUSINESS_TYPE": "Massage Establishment", 
    "LEGAL_NAME": "BK ELLE LLC", 
    "STATE": "IL", 
    "DOING_BUSINESS_AS_NAME": "SEA BREEZE HEALTH & FITNESS SPA", 
    "POP_AT_RISK": 60025, 
    "ZIP": 60659, 
    "ADDRESS": "5816 N LINCOLN AVE 2ND 2F", 
    "YEAR": 2010, 
    "LONGITUDE": -87.702042844, 
    "LATTITUDE": 41.987072831
  }
]