[
{"STATE":"IL","ZIP":60647,"LATTITUDE":41.91023000926717,"ADDRESS":"2325 W NORTH AVE 1ST ","YEAR":2011,"DOING_BUSINESS_AS_NAME":"NAVEEN' S CUISINE","POP_AT_RISK":1968820,"BUSINESS_TYPE":"Food - Shared Kitchen - Supplemental","LEGAL_NAME":"SACHAR INC.","LONGITUDE":-87.6858503668328},
{"STATE":"IL","ZIP":60642,"LATTITUDE":41.89099763912711,"ADDRESS":"1103 W GRAND AVE 1ST ","YEAR":2011,"DOING_BUSINESS_AS_NAME":"ZULLO'S INC.","POP_AT_RISK":541560,"BUSINESS_TYPE":"Food - Shared Kitchen - Supplemental","LEGAL_NAME":"ZULLO'S INC.","LONGITUDE":-87.6547725026918},
{"STATE":"IL","ZIP":60601,"LATTITUDE":41.886027277677655,"ADDRESS":"211 N STETSON AVE GROUND GROUND","YEAR":2011,"DOING_BUSINESS_AS_NAME":"ORGANICLIFE","POP_AT_RISK":630322,"BUSINESS_TYPE":"Food - Shared Kitchen - Supplemental","LEGAL_NAME":"ORGANICLIFE, LLC","LONGITUDE":-87.62216627091873},
{"STATE":"IL","ZIP":60608,"LATTITUDE":41.85923166317091,"ADDRESS":"2443 W 16TH ST 1ST ","YEAR":2011,"DOING_BUSINESS_AS_NAME":"CATERING OUT THE BOX","POP_AT_RISK":294064,"BUSINESS_TYPE":"Food - Shared Kitchen - Supplemental","LEGAL_NAME":"CATERING OUT THE BOX","LONGITUDE":-87.68748555402212},
{"STATE":"IL","ZIP":60646,"LATTITUDE":41.985762969681936,"ADDRESS":"5740 N MILWAUKEE AVE 1 1","YEAR":2011,"DOING_BUSINESS_AS_NAME":"A MIDWEST KITCHEN","POP_AT_RISK":165282,"BUSINESS_TYPE":"Food - Shared Kitchen - Supplemental","LEGAL_NAME":"A MIDWEST KITCHEN, INC.","LONGITUDE":-87.77712906969982},
{"STATE":"IL","ZIP":60608,"LATTITUDE":41.84994008002549,"ADDRESS":"2332 S BLUE ISLAND AVE 1ST ","YEAR":2011,"DOING_BUSINESS_AS_NAME":"MARGARITA DISTRIBUTORS","POP_AT_RISK":241812,"BUSINESS_TYPE":"Food - Shared Kitchen - Supplemental","LEGAL_NAME":"THE QUAY CORPORATION INC","LONGITUDE":-87.67242100722251},
{"STATE":"IL","ZIP":60621,"LATTITUDE":41.7798631678725,"ADDRESS":"740 W 63RD ST 1ST REAR","YEAR":2011,"DOING_BUSINESS_AS_NAME":"WASHBURNE CULINARY INSITUTE INCUBATOR KITCHENS","POP_AT_RISK":455056,"BUSINESS_TYPE":"Food - Shared Kitchen - Supplemental","LEGAL_NAME":"COMMUNITY COLLEGE DISTRICT 508, INC.","LONGITUDE":-87.6445278756232},
{}]