[
  {
    "BUSINESS_TYPE": "Indoor Special Event", 
    "LEGAL_NAME": "DELTA INSTITUTE BUILDING MATERIAL REUSE CENTER, NFP", 
    "STATE": "IL", 
    "DOING_BUSINESS_AS_NAME": "CASA INDIO", 
    "POP_AT_RISK": 58248, 
    "ZIP": 60622, 
    "ADDRESS": "1448 N MILWAUKEE AVE", 
    "YEAR": 2013, 
    "LONGITUDE": -87.674172042, 
    "LATTITUDE": 41.90812542
  }, 
  {
    "BUSINESS_TYPE": "Indoor Special Event", 
    "LEGAL_NAME": "FRIENDS OF 45", 
    "STATE": "IL", 
    "DOING_BUSINESS_AS_NAME": "FRIENDS OF 45", 
    "POP_AT_RISK": 50298, 
    "ZIP": 60641, 
    "ADDRESS": "4041 N MILWAUKEE AVE 1", 
    "YEAR": 2013, 
    "LONGITUDE": -87.748505485, 
    "LATTITUDE": 41.954276923
  }, 
  {
    "BUSINESS_TYPE": "Indoor Special Event", 
    "LEGAL_NAME": "ANOINTED IN MOVEMENT COMPANY", 
    "STATE": "IL", 
    "DOING_BUSINESS_AS_NAME": "HARLEM RENAISSANCE EXTRAVAGANZA - 12/31/13 7pm to 2am", 
    "POP_AT_RISK": 44690, 
    "ZIP": 60624, 
    "ADDRESS": "931 S HOMAN AVE 1ST", 
    "YEAR": 2013, 
    "LONGITUDE": -87.710489961, 
    "LATTITUDE": 41.869314965
  }, 
  {
    "BUSINESS_TYPE": "Indoor Special Event", 
    "LEGAL_NAME": "VINTAGE THEATER COLLECTIVE", 
    "STATE": "IL", 
    "DOING_BUSINESS_AS_NAME": "VINTAGE THEATER COLLECTIVE", 
    "POP_AT_RISK": 64122, 
    "ZIP": 60640, 
    "ADDRESS": "1050 W WILSON AVE", 
    "YEAR": 2013, 
    "LONGITUDE": -87.656835304, 
    "LATTITUDE": 41.9655187
  }, 
  {
    "BUSINESS_TYPE": "Indoor Special Event", 
    "LEGAL_NAME": "DRIEHAUS DESIGN INITIATIVE", 
    "STATE": "IL", 
    "DOING_BUSINESS_AS_NAME": "DRIEHAUS DESIGN INITIATIVE", 
    "POP_AT_RISK": 42979, 
    "ZIP": 60607, 
    "ADDRESS": "700 S DESPLAINES ST", 
    "YEAR": 2013, 
    "LONGITUDE": -87.644007346, 
    "LATTITUDE": 41.873450653
  }, 
  {
    "BUSINESS_TYPE": "Indoor Special Event", 
    "LEGAL_NAME": "ILLINOIS CRAFT BREWERS GUILD, LTD.", 
    "STATE": "IL", 
    "DOING_BUSINESS_AS_NAME": "ILLINOIS CRAFT BREWERS GUILD, LTD.", 
    "POP_AT_RISK": 36998, 
    "ZIP": 60609, 
    "ADDRESS": "1200 W 35TH ST 5", 
    "YEAR": 2013, 
    "LONGITUDE": -87.655813252, 
    "LATTITUDE": 41.830728826
  }, 
  {
    "BUSINESS_TYPE": "Indoor Special Event", 
    "LEGAL_NAME": "PERSONAL PAC INC", 
    "STATE": "IL", 
    "DOING_BUSINESS_AS_NAME": "POWER OF CHOICE", 
    "POP_AT_RISK": 61614, 
    "ZIP": 60642, 
    "ADDRESS": "1028 N HOOKER ST 1", 
    "YEAR": 2013, 
    "LONGITUDE": -87.64887679, 
    "LATTITUDE": 41.900848609
  }, 
  {
    "BUSINESS_TYPE": "Indoor Special Event", 
    "LEGAL_NAME": "TATISA C. JOINER FOUNDATION, INC.", 
    "STATE": "IL", 
    "DOING_BUSINESS_AS_NAME": "CHRISTMAS FUNDRAISER 12/21/13; KRIMSON NYE BASH 12/31/13", 
    "POP_AT_RISK": 32822, 
    "ZIP": 60653, 
    "ADDRESS": "3521 S DR MARTIN LUTHER KING JR DR", 
    "YEAR": 2013, 
    "LONGITUDE": -87.616857061, 
    "LATTITUDE": 41.830385066
  }, 
  {
    "BUSINESS_TYPE": "Indoor Special Event", 
    "LEGAL_NAME": "STEPPENWOLF THEATRE COMPANY", 
    "STATE": "IL", 
    "DOING_BUSINESS_AS_NAME": "STEPPENWOLF THEATER COMPANY", 
    "POP_AT_RISK": 51779, 
    "ZIP": 60642, 
    "ADDRESS": "1460 N HALSTED ST 1", 
    "YEAR": 2013, 
    "LONGITUDE": -87.64834802, 
    "LATTITUDE": 41.90816932
  }, 
  {
    "BUSINESS_TYPE": "Indoor Special Event", 
    "LEGAL_NAME": "GATEWAY TO LEARNING", 
    "STATE": "IL", 
    "DOING_BUSINESS_AS_NAME": "GATEWAY TO LEARNING", 
    "POP_AT_RISK": 59153, 
    "ZIP": 60625, 
    "ADDRESS": "4925 N LINCOLN AVE", 
    "YEAR": 2013, 
    "LONGITUDE": -87.690214627, 
    "LATTITUDE": 41.971466217
  }, 
  {
    "BUSINESS_TYPE": "Indoor Special Event", 
    "LEGAL_NAME": "LARRY'S PLACE OF HOPE", 
    "STATE": "IL", 
    "DOING_BUSINESS_AS_NAME": "PROJECT THRILL 2013", 
    "POP_AT_RISK": 46396, 
    "ZIP": 60608, 
    "ADDRESS": "2150 S CANALPORT AVE", 
    "YEAR": 2013, 
    "LONGITUDE": -87.649929695, 
    "LATTITUDE": 41.853301464
  }
]