[
  {
    "BUSINESS_TYPE": "Package Goods", 
    "LEGAL_NAME": "DELRAY FARMS, L.L.C.", 
    "STATE": "IL", 
    "DOING_BUSINESS_AS_NAME": "DELRAY FARMS", 
    "POP_AT_RISK": 55679, 
    "ZIP": 60707, 
    "ADDRESS": "6500 W FULLERTON AVE", 
    "YEAR": 2001, 
    "LONGITUDE": -87.787919731, 
    "LATTITUDE": 41.923766951
  }, 
  {
    "BUSINESS_TYPE": "Package Goods", 
    "LEGAL_NAME": "MINI-MART EXPRESS, INC.", 
    "STATE": "IL", 
    "DOING_BUSINESS_AS_NAME": "MINI-MART EXPRESS", 
    "POP_AT_RISK": 35887, 
    "ZIP": 60607, 
    "ADDRESS": "1031 W MONROE ST 1ST", 
    "YEAR": 2001, 
    "LONGITUDE": -87.653212304, 
    "LATTITUDE": 41.880280474
  }, 
  {
    "BUSINESS_TYPE": "Package Goods", 
    "LEGAL_NAME": "HYDE PARK COOPERATIVE SOCIETY, INC.", 
    "STATE": "IL", 
    "DOING_BUSINESS_AS_NAME": "HYDE PARK COOPERATIVE SOCIETY, INC.", 
    "POP_AT_RISK": 40389, 
    "ZIP": 60615, 
    "ADDRESS": "1526 E 55TH ST", 
    "YEAR": 2001, 
    "LONGITUDE": -87.5882259, 
    "LATTITUDE": 41.795301239
  }, 
  {
    "BUSINESS_TYPE": "Package Goods", 
    "LEGAL_NAME": "JDNK, INC.", 
    "STATE": "IL", 
    "DOING_BUSINESS_AS_NAME": "WHITE HEN PANTRY", 
    "POP_AT_RISK": 45563, 
    "ZIP": 60605, 
    "ADDRESS": "1 E 14TH PL 1 #", 
    "YEAR": 2001, 
    "LONGITUDE": -87.627223582, 
    "LATTITUDE": 41.862301912
  }, 
  {
    "BUSINESS_TYPE": "Package Goods", 
    "LEGAL_NAME": "SOUTH EAST PRODUCE & MEATS INC", 
    "STATE": "IL", 
    "DOING_BUSINESS_AS_NAME": "SOUTH EAST PRODUCE & MEATS", 
    "POP_AT_RISK": 11876, 
    "ZIP": 60617, 
    "ADDRESS": "10325 S TORRENCE AVE", 
    "YEAR": 2001, 
    "LONGITUDE": -87.55950283, 
    "LATTITUDE": 41.707421538
  }, 
  {
    "BUSINESS_TYPE": "Package Goods", 
    "LEGAL_NAME": "J K & S FOOD & LIQUOR, INC.", 
    "STATE": "IL", 
    "DOING_BUSINESS_AS_NAME": "J K & S FOOD & LIQUOR", 
    "POP_AT_RISK": 26142, 
    "ZIP": 60621, 
    "ADDRESS": "503 W 59TH ST", 
    "YEAR": 2001, 
    "LONGITUDE": -87.637812728, 
    "LATTITUDE": 41.787039075
  }, 
  {
    "BUSINESS_TYPE": "Package Goods", 
    "LEGAL_NAME": "LIME LIQUORS INC", 
    "STATE": "IL", 
    "DOING_BUSINESS_AS_NAME": "LIME LIQUORS INC", 
    "POP_AT_RISK": 39054, 
    "ZIP": 60644, 
    "ADDRESS": "5615 W MADISON ST", 
    "YEAR": 2001, 
    "LONGITUDE": -87.765513817, 
    "LATTITUDE": 41.880126744
  }, 
  {
    "BUSINESS_TYPE": "Package Goods", 
    "LEGAL_NAME": "GHANAYEM INC", 
    "STATE": "IL", 
    "DOING_BUSINESS_AS_NAME": "ARAGON SUPER MARKET", 
    "POP_AT_RISK": 65137, 
    "ZIP": 60640, 
    "ADDRESS": "1107 W LAWRENCE AVE 1ST", 
    "YEAR": 2001, 
    "LONGITUDE": -87.657931648, 
    "LATTITUDE": 41.968938389
  }, 
  {
    "BUSINESS_TYPE": "Package Goods", 
    "LEGAL_NAME": "FERRANDINO ENTERPRISES, INC.", 
    "STATE": "IL", 
    "DOING_BUSINESS_AS_NAME": "ADDISON SUPERETTE", 
    "POP_AT_RISK": 56337, 
    "ZIP": 60634, 
    "ADDRESS": "6122 W ADDISON ST", 
    "YEAR": 2001, 
    "LONGITUDE": -87.779893705, 
    "LATTITUDE": 41.945846699
  }, 
  {
    "BUSINESS_TYPE": "Package Goods", 
    "LEGAL_NAME": "WILLIE P WILLIAMS", 
    "STATE": "IL", 
    "DOING_BUSINESS_AS_NAME": "BUDDIES LIQUORS", 
    "POP_AT_RISK": 34069, 
    "ZIP": 60649, 
    "ADDRESS": "1758 E 79TH ST", 
    "YEAR": 2001, 
    "LONGITUDE": -87.580990956, 
    "LATTITUDE": 41.75165317
  }, 
  {
    "BUSINESS_TYPE": "Package Goods", 
    "LEGAL_NAME": "R C L ENTERPRISES,INC", 
    "STATE": "IL", 
    "DOING_BUSINESS_AS_NAME": "7-ELEVEN #20187", 
    "POP_AT_RISK": 87147, 
    "ZIP": 60657, 
    "ADDRESS": "3554 N SHEFFIELD AVE 1ST", 
    "YEAR": 2001, 
    "LONGITUDE": -87.654470493, 
    "LATTITUDE": 41.947034695
  }, 
  {
    "BUSINESS_TYPE": "Package Goods", 
    "LEGAL_NAME": "U N P, INC.", 
    "STATE": "IL", 
    "DOING_BUSINESS_AS_NAME": "ALLWIN FOOD & LIQUOR", 
    "POP_AT_RISK": 38079, 
    "ZIP": 60630, 
    "ADDRESS": "4958 N MILWAUKEE AVE 1ST", 
    "YEAR": 2001, 
    "LONGITUDE": -87.763657843, 
    "LATTITUDE": 41.970932709
  }, 
  {
    "BUSINESS_TYPE": "Package Goods", 
    "LEGAL_NAME": "OGIES FOOD INC.", 
    "STATE": "IL", 
    "DOING_BUSINESS_AS_NAME": "OGIES FOOD, INC", 
    "POP_AT_RISK": 40810, 
    "ZIP": 60629, 
    "ADDRESS": "2600-2604 W LITHUANIAN PLAZA CT", 
    "YEAR": 2001, 
    "LONGITUDE": -87.688300908, 
    "LATTITUDE": 41.768365836
  }, 
  {
    "BUSINESS_TYPE": "Package Goods", 
    "LEGAL_NAME": "MULICA'S DELI & LIQUORS INC", 
    "STATE": "IL", 
    "DOING_BUSINESS_AS_NAME": "MULICA'S DELI & LIQUORS INC", 
    "POP_AT_RISK": 71385, 
    "ZIP": 60618, 
    "ADDRESS": "3118-3128 N MILWAUKEE AVE", 
    "YEAR": 2001, 
    "LONGITUDE": -87.72158946, 
    "LATTITUDE": 41.937577378
  }, 
  {
    "BUSINESS_TYPE": "Package Goods", 
    "LEGAL_NAME": "J.I.L. ENTERPRISES, INC.", 
    "STATE": "IL", 
    "DOING_BUSINESS_AS_NAME": "LIQUOR PLUS", 
    "POP_AT_RISK": 30226, 
    "ZIP": 60707, 
    "ADDRESS": "2745 N HARLEM AVE", 
    "YEAR": 2001, 
    "LONGITUDE": -87.806330097, 
    "LATTITUDE": 41.930357135
  }, 
  {
    "BUSINESS_TYPE": "Package Goods", 
    "LEGAL_NAME": "KUPBOARD INC", 
    "STATE": "IL", 
    "DOING_BUSINESS_AS_NAME": "KUPBOARD FOOD & LIQUORS", 
    "POP_AT_RISK": 22894, 
    "ZIP": 60632, 
    "ADDRESS": "4101 W 47TH ST  1", 
    "YEAR": 2001, 
    "LONGITUDE": -87.726090494, 
    "LATTITUDE": 41.807730408
  }, 
  {
    "BUSINESS_TYPE": "Package Goods", 
    "LEGAL_NAME": "B & O INC", 
    "STATE": "IL", 
    "DOING_BUSINESS_AS_NAME": "FOX LIQUORS", 
    "POP_AT_RISK": 66512, 
    "ZIP": 60625, 
    "ADDRESS": "4707 N DAMEN AVE", 
    "YEAR": 2001, 
    "LONGITUDE": -87.678993326, 
    "LATTITUDE": 41.967143736
  }, 
  {
    "BUSINESS_TYPE": "Package Goods", 
    "LEGAL_NAME": "ESMAEL FOOD MARKET INC", 
    "STATE": "IL", 
    "DOING_BUSINESS_AS_NAME": "ESMAEL FOOD MARKET INC", 
    "POP_AT_RISK": 58033, 
    "ZIP": 60622, 
    "ADDRESS": "935 N ASHLAND AVE", 
    "YEAR": 2001, 
    "LONGITUDE": -87.667224808, 
    "LATTITUDE": 41.898962816
  }, 
  {
    "BUSINESS_TYPE": "Package Goods", 
    "LEGAL_NAME": "DIGET CORPORATION", 
    "STATE": "IL", 
    "DOING_BUSINESS_AS_NAME": "DELTA FOOD & LIQUORS", 
    "POP_AT_RISK": 31150, 
    "ZIP": 60636, 
    "ADDRESS": "1607 W 59TH ST  WEST", 
    "YEAR": 2001, 
    "LONGITUDE": -87.664702352, 
    "LATTITUDE": 41.786631685
  }, 
  {
    "BUSINESS_TYPE": "Package Goods", 
    "LEGAL_NAME": "CHARLIE'S II LIMITED", 
    "STATE": "IL", 
    "DOING_BUSINESS_AS_NAME": "CHARLIE'S II LTD", 
    "POP_AT_RISK": 52124, 
    "ZIP": 60651, 
    "ADDRESS": "5501 W DIVISION ST  1", 
    "YEAR": 2001, 
    "LONGITUDE": -87.763914842, 
    "LATTITUDE": 41.902053641
  }, 
  {
    "BUSINESS_TYPE": "Package Goods", 
    "LEGAL_NAME": "GRAND PALACE SUPERMARKET, INC", 
    "STATE": "IL", 
    "DOING_BUSINESS_AS_NAME": "GRAND PALACE SUPERMARKET, INC", 
    "POP_AT_RISK": 32218, 
    "ZIP": 60619, 
    "ADDRESS": "7131-7133 S STATE ST", 
    "YEAR": 2001, 
    "LONGITUDE": -87.624739965, 
    "LATTITUDE": 41.764573633
  }, 
  {
    "BUSINESS_TYPE": "Package Goods", 
    "LEGAL_NAME": "5338 CORPORATION", 
    "STATE": "IL", 
    "DOING_BUSINESS_AS_NAME": "MARIO'S LIQUORS", 
    "POP_AT_RISK": 24933, 
    "ZIP": 60656, 
    "ADDRESS": "5338-5340 N CUMBERLAND AVE", 
    "YEAR": 2001, 
    "LONGITUDE": -87.836761931, 
    "LATTITUDE": 41.976714383
  }, 
  {
    "BUSINESS_TYPE": "Package Goods", 
    "LEGAL_NAME": "ONE STOP FOOD & LIQUOR STORE, INC.", 
    "STATE": "IL", 
    "DOING_BUSINESS_AS_NAME": "ONE STOP FOOD & LIQUOR STORE", 
    "POP_AT_RISK": 28922, 
    "ZIP": 60653, 
    "ADDRESS": "4301-4323 S LAKE PARK AVE", 
    "YEAR": 2001, 
    "LONGITUDE": -87.598688844, 
    "LATTITUDE": 41.816865148
  }, 
  {
    "BUSINESS_TYPE": "Package Goods", 
    "LEGAL_NAME": "C & K LIQUORS, INC.", 
    "STATE": "IL", 
    "DOING_BUSINESS_AS_NAME": "C AND K LIQUOR INC", 
    "POP_AT_RISK": 23839, 
    "ZIP": 60628, 
    "ADDRESS": "12034 S MICHIGAN AVE 1ST #", 
    "YEAR": 2001, 
    "LONGITUDE": -87.620575279, 
    "LATTITUDE": 41.675273745
  }, 
  {
    "BUSINESS_TYPE": "Package Goods", 
    "LEGAL_NAME": "ATURIA ENTERPRISES, INC.", 
    "STATE": "IL", 
    "DOING_BUSINESS_AS_NAME": "MAYFAIR FOOD & LIQUOR", 
    "POP_AT_RISK": 51207, 
    "ZIP": 60630, 
    "ADDRESS": "5014 N PULASKI RD  FIRST", 
    "YEAR": 2001, 
    "LONGITUDE": -87.728290079, 
    "LATTITUDE": 41.97235227
  }, 
  {
    "BUSINESS_TYPE": "Package Goods", 
    "LEGAL_NAME": "CASTILLO INC", 
    "STATE": "IL", 
    "DOING_BUSINESS_AS_NAME": "LA CARIDAD FOOD & LIQUOR", 
    "POP_AT_RISK": 74865, 
    "ZIP": 60647, 
    "ADDRESS": "3575 W FULLERTON AVE # 1ST", 
    "YEAR": 2001, 
    "LONGITUDE": -87.716693828, 
    "LATTITUDE": 41.92449721
  }, 
  {
    "BUSINESS_TYPE": "Package Goods", 
    "LEGAL_NAME": "Rich's Delicatessen & Liquors, Inc", 
    "STATE": "IL", 
    "DOING_BUSINESS_AS_NAME": "RICH'S DELI & LIQUOR, INC", 
    "POP_AT_RISK": 54514, 
    "ZIP": 60622, 
    "ADDRESS": "857 N WESTERN AVE 1ST", 
    "YEAR": 2001, 
    "LONGITUDE": -87.686738558, 
    "LATTITUDE": 41.897460984
  }, 
  {
    "BUSINESS_TYPE": "Package Goods", 
    "LEGAL_NAME": "DELRAY FARMS, L.L.C.", 
    "STATE": "IL", 
    "DOING_BUSINESS_AS_NAME": "DELRAY FARMS", 
    "POP_AT_RISK": 61495, 
    "ZIP": 60623, 
    "ADDRESS": "3311 W 26TH ST", 
    "YEAR": 2001, 
    "LONGITUDE": -87.707898054, 
    "LATTITUDE": 41.844366729
  }, 
  {
    "BUSINESS_TYPE": "Package Goods", 
    "LEGAL_NAME": "DIVERSEY PANTRY INC", 
    "STATE": "IL", 
    "DOING_BUSINESS_AS_NAME": "DIVERSEY PANTRY", 
    "POP_AT_RISK": 84762, 
    "ZIP": 60614, 
    "ADDRESS": "702 W DIVERSEY PKWY", 
    "YEAR": 2001, 
    "LONGITUDE": -87.646797697, 
    "LATTITUDE": 41.932872886
  }, 
  {
    "BUSINESS_TYPE": "Package Goods", 
    "LEGAL_NAME": "THIRTY TWO FIFTY ONE WEST DIVISION INCORPORATED", 
    "STATE": "IL", 
    "DOING_BUSINESS_AS_NAME": "PAGAN WESTSIDE LIQUORS", 
    "POP_AT_RISK": 58356, 
    "ZIP": 60651, 
    "ADDRESS": "3251 W DIVISION ST 1ST", 
    "YEAR": 2001, 
    "LONGITUDE": -87.708805476, 
    "LATTITUDE": 41.90270229
  }, 
  {
    "BUSINESS_TYPE": "Package Goods", 
    "LEGAL_NAME": "THOMAS C BALICH", 
    "STATE": "IL", 
    "DOING_BUSINESS_AS_NAME": "BALICH PHARMACY PLUS", 
    "POP_AT_RISK": 38766, 
    "ZIP": 60616, 
    "ADDRESS": "216 W 31ST ST  EAST", 
    "YEAR": 2001, 
    "LONGITUDE": -87.632409184, 
    "LATTITUDE": 41.838335004
  }, 
  {
    "BUSINESS_TYPE": "Package Goods", 
    "LEGAL_NAME": "Z & S FOOD & LIQUOR INC", 
    "STATE": "IL", 
    "DOING_BUSINESS_AS_NAME": "Z & S FOOD & LIQUOR", 
    "POP_AT_RISK": 36716, 
    "ZIP": 60620, 
    "ADDRESS": "1351 W 87TH ST", 
    "YEAR": 2001, 
    "LONGITUDE": -87.657828235, 
    "LATTITUDE": 41.735756977
  }, 
  {
    "BUSINESS_TYPE": "Package Goods", 
    "LEGAL_NAME": "FAZAL INC", 
    "STATE": "IL", 
    "DOING_BUSINESS_AS_NAME": "7-ELEVEN #22200", 
    "POP_AT_RISK": 72269, 
    "ZIP": 60660, 
    "ADDRESS": "5623 N CLARK ST", 
    "YEAR": 2001, 
    "LONGITUDE": -87.668769074, 
    "LATTITUDE": 41.984234097
  }, 
  {
    "BUSINESS_TYPE": "Package Goods", 
    "LEGAL_NAME": "ALMUFLIHI FOOD & LIQUOR, INC.", 
    "STATE": "IL", 
    "DOING_BUSINESS_AS_NAME": "ALMUFLIHI FOOD & LIQUOR", 
    "POP_AT_RISK": 27380, 
    "ZIP": 60609, 
    "ADDRESS": "5400-5404 S HALSTED ST 1ST", 
    "YEAR": 2001, 
    "LONGITUDE": -87.645347674, 
    "LATTITUDE": 41.795997271
  }, 
  {
    "BUSINESS_TYPE": "Package Goods", 
    "LEGAL_NAME": "2351 WEST DEVON INCORPORATED", 
    "STATE": "IL", 
    "DOING_BUSINESS_AS_NAME": "ADELPHI LIQUORS", 
    "POP_AT_RISK": 68043, 
    "ZIP": 60659, 
    "ADDRESS": "2351 W DEVON AVE", 
    "YEAR": 2001, 
    "LONGITUDE": -87.689481214, 
    "LATTITUDE": 41.997628255
  }, 
  {
    "BUSINESS_TYPE": "Package Goods", 
    "LEGAL_NAME": "4211 CORPORATION", 
    "STATE": "IL", 
    "DOING_BUSINESS_AS_NAME": "4211 CORPORATION", 
    "POP_AT_RISK": 41410, 
    "ZIP": 60651, 
    "ADDRESS": "4211 W DIVISION ST  1", 
    "YEAR": 2001, 
    "LONGITUDE": -87.73172626, 
    "LATTITUDE": 41.902473159
  }, 
  {
    "BUSINESS_TYPE": "Package Goods", 
    "LEGAL_NAME": "BROTHER'S 5, INC.", 
    "STATE": "IL", 
    "DOING_BUSINESS_AS_NAME": "BROTHERS 5 FOOD & LIQUOR", 
    "POP_AT_RISK": 39909, 
    "ZIP": 60612, 
    "ADDRESS": "3034 W ROOSEVELT RD 1ST", 
    "YEAR": 2001, 
    "LONGITUDE": -87.702076782, 
    "LATTITUDE": 41.866551696
  }, 
  {
    "BUSINESS_TYPE": "Package Goods", 
    "LEGAL_NAME": "A-ONE FOOD & LIQUOR INC", 
    "STATE": "IL", 
    "DOING_BUSINESS_AS_NAME": "A-ONE FOOD & LIQUOR", 
    "POP_AT_RISK": 58321, 
    "ZIP": 60623, 
    "ADDRESS": "3714 W 16TH ST 1ST", 
    "YEAR": 2001, 
    "LONGITUDE": -87.718205506, 
    "LATTITUDE": 41.859049691
  }, 
  {
    "BUSINESS_TYPE": "Package Goods", 
    "LEGAL_NAME": "LLOYD'S FOOD LIQUOR INC", 
    "STATE": "IL", 
    "DOING_BUSINESS_AS_NAME": "LLOYD'S FOOD LIQUORS INC", 
    "POP_AT_RISK": 17938, 
    "ZIP": 60609, 
    "ADDRESS": "4845 S PRINCETON AVE", 
    "YEAR": 2001, 
    "LONGITUDE": -87.633136784, 
    "LATTITUDE": 41.80600952
  }, 
  {
    "BUSINESS_TYPE": "Package Goods", 
    "LEGAL_NAME": "N.W.N. CORP.,", 
    "STATE": "IL", 
    "DOING_BUSINESS_AS_NAME": "DAVEED LIQUOR & FOOD", 
    "POP_AT_RISK": 79582, 
    "ZIP": 60618, 
    "ADDRESS": "3158 W MONTROSE AVE 1ST #", 
    "YEAR": 2001, 
    "LONGITUDE": -87.708188233, 
    "LATTITUDE": 41.961296921
  }, 
  {
    "BUSINESS_TYPE": "Package Goods", 
    "LEGAL_NAME": "S F INC", 
    "STATE": "IL", 
    "DOING_BUSINESS_AS_NAME": "JACKSON LIQUORS", 
    "POP_AT_RISK": 29459, 
    "ZIP": 60612, 
    "ADDRESS": "2456 W JACKSON BLVD # 1ST", 
    "YEAR": 2001, 
    "LONGITUDE": -87.688556665, 
    "LATTITUDE": 41.87763441
  }, 
  {
    "BUSINESS_TYPE": "Package Goods", 
    "LEGAL_NAME": "SAVE WAY FOOD & LIQUOR", 
    "STATE": "IL", 
    "DOING_BUSINESS_AS_NAME": "SAVE WAY FOOD & LIQUOR", 
    "POP_AT_RISK": 31617, 
    "ZIP": 60619, 
    "ADDRESS": "1018 E 83RD ST 1ST", 
    "YEAR": 2001, 
    "LONGITUDE": -87.599374067, 
    "LATTITUDE": 41.744152114
  }, 
  {
    "BUSINESS_TYPE": "Package Goods", 
    "LEGAL_NAME": "AIRPORT FOOD, INC.", 
    "STATE": "IL", 
    "DOING_BUSINESS_AS_NAME": "AIRPORT FOOD", 
    "POP_AT_RISK": 28777, 
    "ZIP": 60629, 
    "ADDRESS": "4735 W 63RD ST 1ST", 
    "YEAR": 2001, 
    "LONGITUDE": -87.741213039, 
    "LATTITUDE": 41.778332308
  }, 
  {
    "BUSINESS_TYPE": "Package Goods", 
    "LEGAL_NAME": "SARAH L DRAPER", 
    "STATE": "IL", 
    "DOING_BUSINESS_AS_NAME": "DAVID'S FOOD & LIQUOR", 
    "POP_AT_RISK": 32997, 
    "ZIP": 60624, 
    "ADDRESS": "4259 W VAN BUREN ST # 1ST", 
    "YEAR": 2001, 
    "LONGITUDE": -87.732711513, 
    "LATTITUDE": 41.875065846
  }, 
  {
    "BUSINESS_TYPE": "Package Goods", 
    "LEGAL_NAME": "SUPERVALU  HOLDINGS,  INC.", 
    "STATE": "IL", 
    "DOING_BUSINESS_AS_NAME": "CUB FOODS", 
    "POP_AT_RISK": 29261, 
    "ZIP": 60620, 
    "ADDRESS": "112 W 87TH ST", 
    "YEAR": 2001, 
    "LONGITUDE": -87.627509219, 
    "LATTITUDE": 41.736380046
  }, 
  {
    "BUSINESS_TYPE": "Package Goods", 
    "LEGAL_NAME": "M & M GROCERIES & LIQUORS INC", 
    "STATE": "IL", 
    "DOING_BUSINESS_AS_NAME": "M & M GROCERIES & LIQUORS INC", 
    "POP_AT_RISK": 24705, 
    "ZIP": 60619, 
    "ADDRESS": "1401 E 73RD ST # 1ST", 
    "YEAR": 2001, 
    "LONGITUDE": -87.59083338, 
    "LATTITUDE": 41.762263379
  }, 
  {
    "BUSINESS_TYPE": "Package Goods", 
    "LEGAL_NAME": "FAHMI SALEH", 
    "STATE": "IL", 
    "DOING_BUSINESS_AS_NAME": "FRANK'S FOOD & LIQUOR", 
    "POP_AT_RISK": 62064, 
    "ZIP": 60629, 
    "ADDRESS": "3458 W 63RD ST 1ST", 
    "YEAR": 2001, 
    "LONGITUDE": -87.710292054, 
    "LATTITUDE": 41.778965189
  }, 
  {
    "BUSINESS_TYPE": "Package Goods", 
    "LEGAL_NAME": "BUTERA FINER FOODS, INC", 
    "STATE": "IL", 
    "DOING_BUSINESS_AS_NAME": "BUTERA FINER FOODS", 
    "POP_AT_RISK": 62181, 
    "ZIP": 60618, 
    "ADDRESS": "4137 N ELSTON AVE 1ST", 
    "YEAR": 2001, 
    "LONGITUDE": -87.722482826, 
    "LATTITUDE": 41.956126201
  }, 
  {
    "BUSINESS_TYPE": "Package Goods", 
    "LEGAL_NAME": "SEVEN TO ONE INC", 
    "STATE": "IL", 
    "DOING_BUSINESS_AS_NAME": "SEVEN TO ONE INC.", 
    "POP_AT_RISK": 40278, 
    "ZIP": 60629, 
    "ADDRESS": "2610 W 71ST ST  1", 
    "YEAR": 2001, 
    "LONGITUDE": -87.688659232, 
    "LATTITUDE": 41.764718527
  }, 
  {
    "BUSINESS_TYPE": "Package Goods", 
    "LEGAL_NAME": "COSTCO WHOLESALE CORPORATION", 
    "STATE": "IL", 
    "DOING_BUSINESS_AS_NAME": "Costco Wholesale # 380", 
    "POP_AT_RISK": 62702, 
    "ZIP": 60614, 
    "ADDRESS": "2746 N CLYBOURN AVE", 
    "YEAR": 2001, 
    "LONGITUDE": -87.676864018, 
    "LATTITUDE": 41.931021006
  }, 
  {
    "BUSINESS_TYPE": "Package Goods", 
    "LEGAL_NAME": "COMMUNITY SUPER SAVER INC", 
    "STATE": "IL", 
    "DOING_BUSINESS_AS_NAME": "COMMUNITY SUPER SAVER INC", 
    "POP_AT_RISK": 33492, 
    "ZIP": 60620, 
    "ADDRESS": "8103-8107 S HALSTED ST", 
    "YEAR": 2001, 
    "LONGITUDE": -87.643782096, 
    "LATTITUDE": 41.746853348
  }
]