[
  {
    "BUSINESS_TYPE": "Night Care Privilege", 
    "LEGAL_NAME": "ACADEMY OF LEARNING INC", 
    "STATE": "IL", 
    "DOING_BUSINESS_AS_NAME": "ACADEMY OF LEARNING INC", 
    "POP_AT_RISK": 14075, 
    "ZIP": 60652, 
    "ADDRESS": "2914 W 87TH ST", 
    "YEAR": 2004, 
    "LONGITUDE": -87.695296673, 
    "LATTITUDE": 41.735418011
  }, 
  {
    "BUSINESS_TYPE": "Night Care Privilege", 
    "LEGAL_NAME": "ADA S. MCKINLEY COMMUNITY SERVICES, INC.", 
    "STATE": "IL", 
    "DOING_BUSINESS_AS_NAME": "WRIGHT RENAISSANCE CHILD CARE", 
    "POP_AT_RISK": 34213, 
    "ZIP": 60620, 
    "ADDRESS": "7939 S WESTERN AVE # 1ST", 
    "YEAR": 2004, 
    "LONGITUDE": -87.682674217, 
    "LATTITUDE": 41.748966718
  }, 
  {
    "BUSINESS_TYPE": "Night Care Privilege", 
    "LEGAL_NAME": "D & D 'S TINY TOTS", 
    "STATE": "IL", 
    "DOING_BUSINESS_AS_NAME": "D & D 'S TINY TOTS", 
    "POP_AT_RISK": 35449, 
    "ZIP": 60620, 
    "ADDRESS": "8000 S DAMEN AVE 1ST", 
    "YEAR": 2004, 
    "LONGITUDE": -87.673231374, 
    "LATTITUDE": 41.748366395
  }, 
  {
    "BUSINESS_TYPE": "Night Care Privilege", 
    "LEGAL_NAME": "JAMES DORSEY AND CATHY DORSEY", 
    "STATE": "IL", 
    "DOING_BUSINESS_AS_NAME": "DORSEY'S DEVELOPMENTAL INST.", 
    "POP_AT_RISK": 19126, 
    "ZIP": 60617, 
    "ADDRESS": "2050 E 93RD ST  1", 
    "YEAR": 2004, 
    "LONGITUDE": -87.573413619, 
    "LATTITUDE": 41.726252118
  }, 
  {
    "BUSINESS_TYPE": "Night Care Privilege", 
    "LEGAL_NAME": "ABRAHAM LINCOLN CENTRE", 
    "STATE": "IL", 
    "DOING_BUSINESS_AS_NAME": "LINCOLN GROVE FULL & HALF DAY", 
    "POP_AT_RISK": 26685, 
    "ZIP": 60653, 
    "ADDRESS": "3555 S COTTAGE GROVE AVE 1ST", 
    "YEAR": 2004, 
    "LONGITUDE": -87.609707291, 
    "LATTITUDE": 41.829736192
  }, 
  {
    "BUSINESS_TYPE": "Night Care Privilege", 
    "LEGAL_NAME": "KENYATTA DAYCARE CENTER", 
    "STATE": "IL", 
    "DOING_BUSINESS_AS_NAME": "KENYATTA'S DAYCARE", 
    "POP_AT_RISK": 43033, 
    "ZIP": 60649, 
    "ADDRESS": "2334 E 75TH ST", 
    "YEAR": 2004, 
    "LONGITUDE": -87.567447849, 
    "LATTITUDE": 41.759085476
  }, 
  {
    "BUSINESS_TYPE": "Night Care Privilege", 
    "LEGAL_NAME": "CAROLE ROBERTSON CENTER FOR LEARNING", 
    "STATE": "IL", 
    "DOING_BUSINESS_AS_NAME": "Carole Robertson Center for Learning", 
    "POP_AT_RISK": 50982, 
    "ZIP": 60623, 
    "ADDRESS": "2929 W 19TH ST", 
    "YEAR": 2004, 
    "LONGITUDE": -87.70040522, 
    "LATTITUDE": 41.855378986
  }, 
  {
    "BUSINESS_TYPE": "Night Care Privilege", 
    "LEGAL_NAME": "BEN FRANKLIN SELF IMPROVEMENT", 
    "STATE": "IL", 
    "DOING_BUSINESS_AS_NAME": "BEN FRANKLIN SELF IMPROVEMENT", 
    "POP_AT_RISK": 50025, 
    "ZIP": 60604, 
    "ADDRESS": "220 S STATE ST # 2ND", 
    "YEAR": 2004, 
    "LONGITUDE": -87.627845914, 
    "LATTITUDE": 41.878972044
  }, 
  {
    "BUSINESS_TYPE": "Night Care Privilege", 
    "LEGAL_NAME": "CARING HANDS HEALTH MAINTAINANCE SERVICES, INC.", 
    "STATE": "IL", 
    "DOING_BUSINESS_AS_NAME": "A STEP AHEAD LEARNING CENTER", 
    "POP_AT_RISK": 68959, 
    "ZIP": 60613, 
    "ADDRESS": "4214  -4220 N BROADWAY  1ST", 
    "YEAR": 2004, 
    "LONGITUDE": -87.65342019, 
    "LATTITUDE": 41.958804082
  }, 
  {
    "BUSINESS_TYPE": "Night Care Privilege", 
    "LEGAL_NAME": "JACK & JILL DAYCARE II INC", 
    "STATE": "IL", 
    "DOING_BUSINESS_AS_NAME": "JACK & JILL DAYCARE II INC", 
    "POP_AT_RISK": 40800, 
    "ZIP": 60619, 
    "ADDRESS": "207 - 209 E 79TH ST  1", 
    "YEAR": 2004, 
    "LONGITUDE": -87.619428097, 
    "LATTITUDE": 41.750930698
  }, 
  {
    "BUSINESS_TYPE": "Night Care Privilege", 
    "LEGAL_NAME": "PEYTYN D. WILLBORN", 
    "STATE": "IL", 
    "DOING_BUSINESS_AS_NAME": "KIDS R FIRST DAYCARE", 
    "POP_AT_RISK": 33493, 
    "ZIP": 60620, 
    "ADDRESS": "9040 S VINCENNES AVE", 
    "YEAR": 2004, 
    "LONGITUDE": -87.64786962, 
    "LATTITUDE": 41.729336633
  }, 
  {
    "BUSINESS_TYPE": "Night Care Privilege", 
    "LEGAL_NAME": "LONDON BRIDGES PRE-SCHOOL", 
    "STATE": "IL", 
    "DOING_BUSINESS_AS_NAME": "LONDON BRIDGES PRE-SCHOOL", 
    "POP_AT_RISK": 18053, 
    "ZIP": 60628, 
    "ADDRESS": "708 E 100TH PL 1ST", 
    "YEAR": 2004, 
    "LONGITUDE": -87.604763533, 
    "LATTITUDE": 41.712357345
  }, 
  {
    "BUSINESS_TYPE": "Night Care Privilege", 
    "LEGAL_NAME": "ST. AUGUSTINE COLLEGE", 
    "STATE": "IL", 
    "DOING_BUSINESS_AS_NAME": "ST AUGUSTINE COLLEGE CANILLITA", 
    "POP_AT_RISK": 65757, 
    "ZIP": 60640, 
    "ADDRESS": "1333 W ARGYLE ST GROUND", 
    "YEAR": 2004, 
    "LONGITUDE": -87.663536636, 
    "LATTITUDE": 41.972505056
  }
]