[
  {
    "BUSINESS_TYPE": "Peddler,food - (fruits and vegetables only) - special", 
    "LEGAL_NAME": "BARTOLO ANTUNEZ", 
    "STATE": "IL", 
    "DOING_BUSINESS_AS_NAME": "BARTOLO ANTUNEZ", 
    "POP_AT_RISK": 57440, 
    "ZIP": 60623, 
    "ADDRESS": "2707 S KOMENSKY AVE", 
    "YEAR": 2009, 
    "LONGITUDE": -87.725561719, 
    "LATTITUDE": 41.842132714
  }, 
  {
    "BUSINESS_TYPE": "Peddler,food - (fruits and vegetables only) - special", 
    "LEGAL_NAME": "TOMMIE H. COSBY", 
    "STATE": "IL", 
    "DOING_BUSINESS_AS_NAME": "TOMMIE H. COSBY", 
    "POP_AT_RISK": 32521, 
    "ZIP": 60617, 
    "ADDRESS": "1633 E 84TH ST 1", 
    "YEAR": 2009, 
    "LONGITUDE": -87.583980262, 
    "LATTITUDE": 41.742294016
  }, 
  {
    "BUSINESS_TYPE": "Peddler,food - (fruits and vegetables only) - special", 
    "LEGAL_NAME": "CIRILO GANTES", 
    "STATE": "IL", 
    "DOING_BUSINESS_AS_NAME": "CIRILO GANTES", 
    "POP_AT_RISK": 64199, 
    "ZIP": 60639, 
    "ADDRESS": "4305 W PALMER ST", 
    "YEAR": 2009, 
    "LONGITUDE": -87.73421758, 
    "LATTITUDE": 41.920623309
  }, 
  {
    "BUSINESS_TYPE": "Peddler,food - (fruits and vegetables only) - special", 
    "LEGAL_NAME": "FRANCISCA SALGADO", 
    "STATE": "IL", 
    "DOING_BUSINESS_AS_NAME": "FRANCISCA SALGADO", 
    "POP_AT_RISK": 47712, 
    "ZIP": 60639, 
    "ADDRESS": "2605 N MULLIGAN AVE 2ND", 
    "YEAR": 2009, 
    "LONGITUDE": -87.784209913, 
    "LATTITUDE": 41.927564929
  }, 
  {
    "BUSINESS_TYPE": "Peddler,food - (fruits and vegetables only) - special", 
    "LEGAL_NAME": "DARRIN ROBINSON", 
    "STATE": "IL", 
    "DOING_BUSINESS_AS_NAME": "DARRIN ROBINSON", 
    "POP_AT_RISK": 41695, 
    "ZIP": 60644, 
    "ADDRESS": "4909 W HURON ST 1 1", 
    "YEAR": 2009, 
    "LONGITUDE": -87.748617794, 
    "LATTITUDE": 41.893025793
  }, 
  {
    "BUSINESS_TYPE": "Peddler,food - (fruits and vegetables only) - special", 
    "LEGAL_NAME": "MARIA EVA RAMIREZ", 
    "STATE": "IL", 
    "DOING_BUSINESS_AS_NAME": "MARIA EVA RAMIREZ", 
    "POP_AT_RISK": 26804, 
    "ZIP": 60609, 
    "ADDRESS": "1851 W 35TH ST 2ND FL", 
    "YEAR": 2009, 
    "LONGITUDE": -87.672440754, 
    "LATTITUDE": 41.830312233
  }, 
  {
    "BUSINESS_TYPE": "Peddler,food - (fruits and vegetables only) - special", 
    "LEGAL_NAME": "JAMES K. NELSEN", 
    "STATE": "IL", 
    "DOING_BUSINESS_AS_NAME": "JAMES K. NELSEN", 
    "POP_AT_RISK": 79339, 
    "ZIP": 60610, 
    "ADDRESS": "150 W MAPLE ST  2010", 
    "YEAR": 2009, 
    "LONGITUDE": -87.633410015, 
    "LATTITUDE": 41.901935878
  }, 
  {
    "BUSINESS_TYPE": "Peddler,food - (fruits and vegetables only) - special", 
    "LEGAL_NAME": "NELLIE M. LOVE", 
    "STATE": "IL", 
    "DOING_BUSINESS_AS_NAME": "NELLIE M. LOVE", 
    "POP_AT_RISK": 38834, 
    "ZIP": 60624, 
    "ADDRESS": "3328 W CONGRESS PKWY", 
    "YEAR": 2009, 
    "LONGITUDE": -87.709525337, 
    "LATTITUDE": 41.874691362
  }, 
  {
    "BUSINESS_TYPE": "Peddler,food - (fruits and vegetables only) - special", 
    "LEGAL_NAME": "MARIA CONTRERAS", 
    "STATE": "IL", 
    "DOING_BUSINESS_AS_NAME": "MARIA CONTRERAS", 
    "POP_AT_RISK": 44713, 
    "ZIP": 60632, 
    "ADDRESS": "4644 S TROY ST", 
    "YEAR": 2009, 
    "LONGITUDE": -87.702924454, 
    "LATTITUDE": 41.808625875
  }, 
  {
    "BUSINESS_TYPE": "Peddler,food - (fruits and vegetables only) - special", 
    "LEGAL_NAME": "LUIS SOTO - DURAN", 
    "STATE": "IL", 
    "DOING_BUSINESS_AS_NAME": "LUIS SOTO-DURAN", 
    "POP_AT_RISK": 59249, 
    "ZIP": 60629, 
    "ADDRESS": "6319 S WASHTENAW AVE 1", 
    "YEAR": 2009, 
    "LONGITUDE": -87.690793258, 
    "LATTITUDE": 41.778513348
  }, 
  {
    "BUSINESS_TYPE": "Peddler,food - (fruits and vegetables only) - special", 
    "LEGAL_NAME": "DOMINGO HERNANDEZ", 
    "STATE": "IL", 
    "DOING_BUSINESS_AS_NAME": "DOMINGO HERNANDEZ", 
    "POP_AT_RISK": 63516, 
    "ZIP": 60639, 
    "ADDRESS": "5108 W BELDEN AVE 1ST 1", 
    "YEAR": 2009, 
    "LONGITUDE": -87.75401288, 
    "LATTITUDE": 41.922417859
  }, 
  {
    "BUSINESS_TYPE": "Peddler,food - (fruits and vegetables only) - special", 
    "LEGAL_NAME": "THOMAS E TAYLOR", 
    "STATE": "IL", 
    "DOING_BUSINESS_AS_NAME": "THOMAS E TAYLOR", 
    "POP_AT_RISK": 32079, 
    "ZIP": 60620, 
    "ADDRESS": "8820 S THROOP ST", 
    "YEAR": 2009, 
    "LONGITUDE": -87.655845069, 
    "LATTITUDE": 41.733437511
  }, 
  {
    "BUSINESS_TYPE": "Peddler,food - (fruits and vegetables only) - special", 
    "LEGAL_NAME": "SANTOS GUERRA", 
    "STATE": "IL", 
    "DOING_BUSINESS_AS_NAME": "SANTOS GUERRA", 
    "POP_AT_RISK": 73170, 
    "ZIP": 60625, 
    "ADDRESS": "4842 N SPAULDING AVE", 
    "YEAR": 2009, 
    "LONGITUDE": -87.711101728, 
    "LATTITUDE": 41.969701994
  }, 
  {
    "BUSINESS_TYPE": "Peddler,food - (fruits and vegetables only) - special", 
    "LEGAL_NAME": "PAUL WHITE", 
    "STATE": "IL", 
    "DOING_BUSINESS_AS_NAME": "PAUL WHITE", 
    "POP_AT_RISK": 46997, 
    "ZIP": 60609, 
    "ADDRESS": "2027 W 52ND ST 2ND", 
    "YEAR": 2009, 
    "LONGITUDE": -87.675544941, 
    "LATTITUDE": 41.798821744
  }, 
  {
    "BUSINESS_TYPE": "Peddler,food - (fruits and vegetables only) - special", 
    "LEGAL_NAME": "LOUISE THOMAS", 
    "STATE": "IL", 
    "DOING_BUSINESS_AS_NAME": "LOUISE THOMAS", 
    "POP_AT_RISK": 20773, 
    "ZIP": 60628, 
    "ADDRESS": "12456 S EGGLESTON AVE 1", 
    "YEAR": 2009, 
    "LONGITUDE": -87.633268304, 
    "LATTITUDE": 41.66714538
  }, 
  {
    "BUSINESS_TYPE": "Peddler,food - (fruits and vegetables only) - special", 
    "LEGAL_NAME": "MEI B. FONG", 
    "STATE": "IL", 
    "DOING_BUSINESS_AS_NAME": "MEI B FONG", 
    "POP_AT_RISK": 29877, 
    "ZIP": 60616, 
    "ADDRESS": "238 W 22ND PL", 
    "YEAR": 2009, 
    "LONGITUDE": -87.633541826, 
    "LATTITUDE": 41.852261393
  }, 
  {
    "BUSINESS_TYPE": "Peddler,food - (fruits and vegetables only) - special", 
    "LEGAL_NAME": "ERNESTINE MARTIN", 
    "STATE": "IL", 
    "DOING_BUSINESS_AS_NAME": "ERNESTINE MARTIN", 
    "POP_AT_RISK": 22916, 
    "ZIP": 60619, 
    "ADDRESS": "536 E 92ND ST", 
    "YEAR": 2009, 
    "LONGITUDE": -87.610393828, 
    "LATTITUDE": 41.727545463
  }, 
  {
    "BUSINESS_TYPE": "Peddler,food - (fruits and vegetables only) - special", 
    "LEGAL_NAME": "GWENDOLYN MONROE", 
    "STATE": "IL", 
    "DOING_BUSINESS_AS_NAME": "GWENDOLYN MONROE", 
    "POP_AT_RISK": 45566, 
    "ZIP": 60624, 
    "ADDRESS": "3836 W CONGRESS PKWY", 
    "YEAR": 2009, 
    "LONGITUDE": -87.722158153, 
    "LATTITUDE": 41.874527742
  }, 
  {
    "BUSINESS_TYPE": "Peddler,food - (fruits and vegetables only) - special", 
    "LEGAL_NAME": "JOSE RODRIGUEZ", 
    "STATE": "IL", 
    "DOING_BUSINESS_AS_NAME": "JOSE RODRIGUEZ", 
    "POP_AT_RISK": 69263, 
    "ZIP": 60647, 
    "ADDRESS": "2343 N SACRAMENTO AVE", 
    "YEAR": 2009, 
    "LONGITUDE": -87.702166824, 
    "LATTITUDE": 41.924601376
  }, 
  {
    "BUSINESS_TYPE": "Peddler,food - (fruits and vegetables only) - special", 
    "LEGAL_NAME": "REMBERTO FLORES", 
    "STATE": "IL", 
    "DOING_BUSINESS_AS_NAME": "REMBERTO FLORES", 
    "POP_AT_RISK": 39198, 
    "ZIP": 60632, 
    "ADDRESS": "5355 S TRIPP AVE", 
    "YEAR": 2009, 
    "LONGITUDE": -87.729197291, 
    "LATTITUDE": 41.795195519
  }, 
  {
    "BUSINESS_TYPE": "Peddler,food - (fruits and vegetables only) - special", 
    "LEGAL_NAME": "FRANCISCO ROMAN", 
    "STATE": "IL", 
    "DOING_BUSINESS_AS_NAME": "FRANCISCO ROMAN", 
    "POP_AT_RISK": 42561, 
    "ZIP": 60639, 
    "ADDRESS": "5008 W ST PAUL AVE", 
    "YEAR": 2009, 
    "LONGITUDE": -87.751591679, 
    "LATTITUDE": 41.912409206
  }, 
  {
    "BUSINESS_TYPE": "Peddler,food - (fruits and vegetables only) - special", 
    "LEGAL_NAME": "WALTER L. WELCH", 
    "STATE": "IL", 
    "DOING_BUSINESS_AS_NAME": "WALTER L. WELCH", 
    "POP_AT_RISK": 64347, 
    "ZIP": 60626, 
    "ADDRESS": "6930 N GREENVIEW AVE 4TH 401", 
    "YEAR": 2009, 
    "LONGITUDE": -87.667998732, 
    "LATTITUDE": 42.007578791
  }, 
  {
    "BUSINESS_TYPE": "Peddler,food - (fruits and vegetables only) - special", 
    "LEGAL_NAME": "JORGE NOVOA", 
    "STATE": "IL", 
    "DOING_BUSINESS_AS_NAME": "JORGE NOVOA", 
    "POP_AT_RISK": 55028, 
    "ZIP": 60629, 
    "ADDRESS": "5754 S CAMPBELL AVE", 
    "YEAR": 2009, 
    "LONGITUDE": -87.686481731, 
    "LATTITUDE": 41.788555195
  }, 
  {
    "BUSINESS_TYPE": "Peddler,food - (fruits and vegetables only) - special", 
    "LEGAL_NAME": "VIBENCIO D. CONSUEGRA", 
    "STATE": "IL", 
    "DOING_BUSINESS_AS_NAME": "VIBENCIO CONSUEGRA", 
    "POP_AT_RISK": 69427, 
    "ZIP": 60618, 
    "ADDRESS": "3837 N KEDZIE AVE", 
    "YEAR": 2009, 
    "LONGITUDE": -87.707799818, 
    "LATTITUDE": 41.951395074
  }, 
  {
    "BUSINESS_TYPE": "Peddler,food - (fruits and vegetables only) - special", 
    "LEGAL_NAME": "HERIBERTO SANCHEZ", 
    "STATE": "IL", 
    "DOING_BUSINESS_AS_NAME": "HERIBERTO SANCHEZ", 
    "POP_AT_RISK": 57681, 
    "ZIP": 60629, 
    "ADDRESS": "3439 W 66TH ST", 
    "YEAR": 2009, 
    "LONGITUDE": -87.709402573, 
    "LATTITUDE": 41.773298662
  }, 
  {
    "BUSINESS_TYPE": "Peddler,food - (fruits and vegetables only) - special", 
    "LEGAL_NAME": "LEONARD D. PALMER JR.", 
    "STATE": "IL", 
    "DOING_BUSINESS_AS_NAME": "LEONARD D. PALMER JR.", 
    "POP_AT_RISK": 33756, 
    "ZIP": 60644, 
    "ADDRESS": "5955 W ERIE ST 1ST", 
    "YEAR": 2009, 
    "LONGITUDE": -87.774364518, 
    "LATTITUDE": 41.89177832
  }, 
  {
    "BUSINESS_TYPE": "Peddler,food - (fruits and vegetables only) - special", 
    "LEGAL_NAME": "ANTOINETTE JOHNSON", 
    "STATE": "IL", 
    "DOING_BUSINESS_AS_NAME": "ANTOINETTE JOHNSON", 
    "POP_AT_RISK": 17428, 
    "ZIP": 60617, 
    "ADDRESS": "9816 S MERRION AVE # 1ST", 
    "YEAR": 2009, 
    "LONGITUDE": -87.569692743, 
    "LATTITUDE": 41.71590186
  }, 
  {
    "BUSINESS_TYPE": "Peddler,food - (fruits and vegetables only) - special", 
    "LEGAL_NAME": "SANTOS PERALTA", 
    "STATE": "IL", 
    "DOING_BUSINESS_AS_NAME": "SANTOS PERALTA", 
    "POP_AT_RISK": 64377, 
    "ZIP": 60623, 
    "ADDRESS": "2532 S TRUMBULL AVE", 
    "YEAR": 2009, 
    "LONGITUDE": -87.711299079, 
    "LATTITUDE": 41.845255622
  }, 
  {
    "BUSINESS_TYPE": "Peddler,food - (fruits and vegetables only) - special", 
    "LEGAL_NAME": "ELIAS VILLAGOMEZ ORDAZ", 
    "STATE": "IL", 
    "DOING_BUSINESS_AS_NAME": "ELIAS VILLAGOMEZ ORDAZ", 
    "POP_AT_RISK": 77265, 
    "ZIP": 60647, 
    "ADDRESS": "2416 N SPRINGFIELD AVE 2ND FL", 
    "YEAR": 2009, 
    "LONGITUDE": -87.724489995, 
    "LATTITUDE": 41.925060747
  }, 
  {
    "BUSINESS_TYPE": "Peddler,food - (fruits and vegetables only) - special", 
    "LEGAL_NAME": "EPIFANIO LOZANO", 
    "STATE": "IL", 
    "DOING_BUSINESS_AS_NAME": "EPIFANIO LOZANO", 
    "POP_AT_RISK": 44378, 
    "ZIP": 60608, 
    "ADDRESS": "1412 W 17TH ST", 
    "YEAR": 2009, 
    "LONGITUDE": -87.661922362, 
    "LATTITUDE": 41.858881126
  }, 
  {
    "BUSINESS_TYPE": "Peddler,food - (fruits and vegetables only) - special", 
    "LEGAL_NAME": "RICHARD D COOPER SR.", 
    "STATE": "IL", 
    "DOING_BUSINESS_AS_NAME": "RICHARD D COOPER SR.", 
    "POP_AT_RISK": 39803, 
    "ZIP": 60619, 
    "ADDRESS": "7747 S AVALON AVE 1ST", 
    "YEAR": 2009, 
    "LONGITUDE": -87.594180311, 
    "LATTITUDE": 41.753654614
  }, 
  {
    "BUSINESS_TYPE": "Peddler,food - (fruits and vegetables only) - special", 
    "LEGAL_NAME": "STONEWALL JACKSON", 
    "STATE": "IL", 
    "DOING_BUSINESS_AS_NAME": "STONEWALL JACKSON", 
    "POP_AT_RISK": 37887, 
    "ZIP": 60649, 
    "ADDRESS": "2150 E 79TH ST  1W", 
    "YEAR": 2009, 
    "LONGITUDE": -87.571507035, 
    "LATTITUDE": 41.751773203
  }, 
  {
    "BUSINESS_TYPE": "Peddler,food - (fruits and vegetables only) - special", 
    "LEGAL_NAME": "BYRON YABLON", 
    "STATE": "IL", 
    "DOING_BUSINESS_AS_NAME": "BYRON YABLON", 
    "POP_AT_RISK": 67312, 
    "ZIP": 60618, 
    "ADDRESS": "3812 N ST LOUIS AVE", 
    "YEAR": 2009, 
    "LONGITUDE": -87.715419755, 
    "LATTITUDE": 41.950579235
  }, 
  {
    "BUSINESS_TYPE": "Peddler,food - (fruits and vegetables only) - special", 
    "LEGAL_NAME": "THOMAS AUGUST HILLARD", 
    "STATE": "IL", 
    "DOING_BUSINESS_AS_NAME": "THOMAS AGUST HILLARD", 
    "POP_AT_RISK": 33482, 
    "ZIP": 60637, 
    "ADDRESS": "803 E 62ND ST  2W", 
    "YEAR": 2009, 
    "LONGITUDE": -87.605803461, 
    "LATTITUDE": 41.782125059
  }, 
  {
    "BUSINESS_TYPE": "Peddler,food - (fruits and vegetables only) - special", 
    "LEGAL_NAME": "EARNEST HOGAN", 
    "STATE": "IL", 
    "DOING_BUSINESS_AS_NAME": "HOGAN", 
    "POP_AT_RISK": 41523, 
    "ZIP": 60619, 
    "ADDRESS": "7612 S EBERHART AVE", 
    "YEAR": 2009, 
    "LONGITUDE": -87.612769968, 
    "LATTITUDE": 41.756194578
  }, 
  {
    "BUSINESS_TYPE": "Peddler,food - (fruits and vegetables only) - special", 
    "LEGAL_NAME": "JOSE GONZALEZ", 
    "STATE": "IL", 
    "DOING_BUSINESS_AS_NAME": "JOSE GONZALEZ", 
    "POP_AT_RISK": 61364, 
    "ZIP": 60630, 
    "ADDRESS": "4600 N KEYSTONE AVE", 
    "YEAR": 2009, 
    "LONGITUDE": -87.729272221, 
    "LATTITUDE": 41.964157782
  }, 
  {
    "BUSINESS_TYPE": "Peddler,food - (fruits and vegetables only) - special", 
    "LEGAL_NAME": "JOSEPH T. VALLIER JR.III", 
    "STATE": "IL", 
    "DOING_BUSINESS_AS_NAME": "JOSEPH T. VALLIER JR.III", 
    "POP_AT_RISK": 28128, 
    "ZIP": 60616, 
    "ADDRESS": "400 E 33RD ST  2214", 
    "YEAR": 2009, 
    "LONGITUDE": -87.617009653, 
    "LATTITUDE": 41.834757134
  }, 
  {
    "BUSINESS_TYPE": "Peddler,food - (fruits and vegetables only) - special", 
    "LEGAL_NAME": "MODESTO FUENTES", 
    "STATE": "IL", 
    "DOING_BUSINESS_AS_NAME": "MODESTO FUENTES", 
    "POP_AT_RISK": 54343, 
    "ZIP": 60632, 
    "ADDRESS": "5242 S TROY ST  B", 
    "YEAR": 2009, 
    "LONGITUDE": -87.702604589, 
    "LATTITUDE": 41.797791828
  }, 
  {
    "BUSINESS_TYPE": "Peddler,food - (fruits and vegetables only) - special", 
    "LEGAL_NAME": "JOSE P. HERNANDEZ", 
    "STATE": "IL", 
    "DOING_BUSINESS_AS_NAME": "JOSE P. HERNANDEZ", 
    "POP_AT_RISK": 64485, 
    "ZIP": 60647, 
    "ADDRESS": "2730 W FRANCIS PL", 
    "YEAR": 2009, 
    "LONGITUDE": -87.695209891, 
    "LATTITUDE": 41.918677172
  }, 
  {
    "BUSINESS_TYPE": "Peddler,food - (fruits and vegetables only) - special", 
    "LEGAL_NAME": "CAROLYN JEAN HARDWICK", 
    "STATE": "IL", 
    "DOING_BUSINESS_AS_NAME": "CAROLYN JEAN HARDWICK", 
    "POP_AT_RISK": 37915, 
    "ZIP": 60653, 
    "ADDRESS": "4351 S DR MARTIN LUTHER KING JR DR", 
    "YEAR": 2009, 
    "LONGITUDE": -87.616604, 
    "LATTITUDE": 41.815140371
  }, 
  {
    "BUSINESS_TYPE": "Peddler,food - (fruits and vegetables only) - special", 
    "LEGAL_NAME": "XING PING TAN", 
    "STATE": "IL", 
    "DOING_BUSINESS_AS_NAME": "XING PING TAN", 
    "POP_AT_RISK": 42804, 
    "ZIP": 60608, 
    "ADDRESS": "2931 S THROOP ST", 
    "YEAR": 2009, 
    "LONGITUDE": -87.651598216, 
    "LATTITUDE": 41.840753556
  }, 
  {
    "BUSINESS_TYPE": "Peddler,food - (fruits and vegetables only) - special", 
    "LEGAL_NAME": "ELIZABETH TIMS", 
    "STATE": "IL", 
    "DOING_BUSINESS_AS_NAME": "ELIZABETH TIMS", 
    "POP_AT_RISK": 28497, 
    "ZIP": 60649, 
    "ADDRESS": "7244 S COLES AVE 1ST", 
    "YEAR": 2009, 
    "LONGITUDE": -87.562865796, 
    "LATTITUDE": 41.764172794
  }
]