[
  {
    "BUSINESS_TYPE": "Hazardous Materials", 
    "LEGAL_NAME": "SIGNATURE FLIGHT SUPPORT", 
    "STATE": "IL", 
    "DOING_BUSINESS_AS_NAME": "SIGNATURE FLIGHT SUPPORT-MIDWA", 
    "POP_AT_RISK": 31097, 
    "ZIP": 60638, 
    "ADDRESS": "5821 S CENTRAL AVE  ALL", 
    "YEAR": 2001, 
    "LONGITUDE": -87.761926477, 
    "LATTITUDE": 41.786821643
  }, 
  {
    "BUSINESS_TYPE": "Hazardous Materials", 
    "LEGAL_NAME": "ARCHDIOCESE OF CHICAGO - THE CATHOLIC BISHOP OF CHICAGO", 
    "STATE": "IL", 
    "DOING_BUSINESS_AS_NAME": "ARCHDIOCESE OF CHICAGO", 
    "POP_AT_RISK": 44758, 
    "ZIP": 60620, 
    "ADDRESS": "7721 S ASHLAND AVE", 
    "YEAR": 2001, 
    "LONGITUDE": -87.663363506, 
    "LATTITUDE": 41.753340679
  }, 
  {
    "BUSINESS_TYPE": "Hazardous Materials", 
    "LEGAL_NAME": "FRANKLIN R LOGAN", 
    "STATE": "IL", 
    "DOING_BUSINESS_AS_NAME": "FRANK'S AUTO REPAIR", 
    "POP_AT_RISK": 21920, 
    "ZIP": 60643, 
    "ADDRESS": "1119 W 115TH ST 1ST", 
    "YEAR": 2001, 
    "LONGITUDE": -87.650323297, 
    "LATTITUDE": 41.684862249
  }, 
  {
    "BUSINESS_TYPE": "Hazardous Materials", 
    "LEGAL_NAME": "THE PEOPLES GAS LIGHT AND COKE COMPANY", 
    "STATE": "IL", 
    "DOING_BUSINESS_AS_NAME": "PEOPLES GAS LIGHT & COKE CO", 
    "POP_AT_RISK": 31163, 
    "ZIP": 60621, 
    "ADDRESS": "38 W 64TH ST  1", 
    "YEAR": 2001, 
    "LONGITUDE": -87.626791376, 
    "LATTITUDE": 41.777754031
  }, 
  {
    "BUSINESS_TYPE": "Hazardous Materials", 
    "LEGAL_NAME": "SPACE ORGANIZATION LIMITED", 
    "STATE": "IL", 
    "DOING_BUSINESS_AS_NAME": "SPACE ORGANIZATION LTD", 
    "POP_AT_RISK": 70069, 
    "ZIP": 60610, 
    "ADDRESS": "1155 N HOWE ST", 
    "YEAR": 2001, 
    "LONGITUDE": -87.644308264, 
    "LATTITUDE": 41.903005401
  }, 
  {
    "BUSINESS_TYPE": "Hazardous Materials", 
    "LEGAL_NAME": "ILLINOIS BELL TELEPHONE COMPANY", 
    "STATE": "IL", 
    "DOING_BUSINESS_AS_NAME": "AMERITECH", 
    "POP_AT_RISK": 46791, 
    "ZIP": 60616, 
    "ADDRESS": "301-323 W 31ST ST", 
    "YEAR": 2001, 
    "LONGITUDE": -87.634162309, 
    "LATTITUDE": 41.838094778
  }, 
  {
    "BUSINESS_TYPE": "Hazardous Materials", 
    "LEGAL_NAME": "ILLINOIS BELL TELEPHONE COMPANY", 
    "STATE": "IL", 
    "DOING_BUSINESS_AS_NAME": "AT&T ILLINOIS", 
    "POP_AT_RISK": 87147, 
    "ZIP": 60657, 
    "ADDRESS": "3532 N SHEFFIELD AVE 1", 
    "YEAR": 2001, 
    "LONGITUDE": -87.654449777, 
    "LATTITUDE": 41.946403771
  }, 
  {
    "BUSINESS_TYPE": "Hazardous Materials", 
    "LEGAL_NAME": "DUDEK & BOCK SPRING MANUFACTURING CO", 
    "STATE": "IL", 
    "DOING_BUSINESS_AS_NAME": "DUDEK & BOCK SPRING MFG CO", 
    "POP_AT_RISK": 16964, 
    "ZIP": 60644, 
    "ADDRESS": "5100 W ROOSEVELT RD", 
    "YEAR": 2001, 
    "LONGITUDE": -87.752146215, 
    "LATTITUDE": 41.865896185
  }, 
  {
    "BUSINESS_TYPE": "Hazardous Materials", 
    "LEGAL_NAME": "LOUKAS PERGANTAS", 
    "STATE": "IL", 
    "DOING_BUSINESS_AS_NAME": "FOUR STAR BODY SHOP", 
    "POP_AT_RISK": 52887, 
    "ZIP": 60641, 
    "ADDRESS": "5424 W MONTROSE AVE", 
    "YEAR": 2001, 
    "LONGITUDE": -87.763358288, 
    "LATTITUDE": 41.960639241
  }, 
  {
    "BUSINESS_TYPE": "Hazardous Materials", 
    "LEGAL_NAME": "W G M AUTO REBUILDERS INC", 
    "STATE": "IL", 
    "DOING_BUSINESS_AS_NAME": "W G M AUTO REBUILDERS INC", 
    "POP_AT_RISK": 26753, 
    "ZIP": 60629, 
    "ADDRESS": "6906 S PULASKI RD 1ST", 
    "YEAR": 2001, 
    "LONGITUDE": -87.722626405, 
    "LATTITUDE": 41.767511955
  }, 
  {
    "BUSINESS_TYPE": "Hazardous Materials", 
    "LEGAL_NAME": "BRINK'S, INCORPORATED", 
    "STATE": "IL", 
    "DOING_BUSINESS_AS_NAME": "BRINKS INC", 
    "POP_AT_RISK": 37408, 
    "ZIP": 60616, 
    "ADDRESS": "234 E 24TH ST", 
    "YEAR": 2001, 
    "LONGITUDE": -87.620810001, 
    "LATTITUDE": 41.84943952
  }, 
  {
    "BUSINESS_TYPE": "Hazardous Materials", 
    "LEGAL_NAME": "ALERT SPRAY SERVICE CORP", 
    "STATE": "IL", 
    "DOING_BUSINESS_AS_NAME": "ALERT SPRAY SERVICE CORP", 
    "POP_AT_RISK": 36314, 
    "ZIP": 60646, 
    "ADDRESS": "5688 N NORTHWEST HWY 1ST", 
    "YEAR": 2001, 
    "LONGITUDE": -87.786050649, 
    "LATTITUDE": 41.984897736
  }, 
  {
    "BUSINESS_TYPE": "Hazardous Materials", 
    "LEGAL_NAME": "TRIANGLE PACKAGE MACHINERY COMPANY", 
    "STATE": "IL", 
    "DOING_BUSINESS_AS_NAME": "TRIANGLE PACKAGE MACHINERY CO", 
    "POP_AT_RISK": 43101, 
    "ZIP": 60707, 
    "ADDRESS": "6655 W DIVERSEY AVE", 
    "YEAR": 2001, 
    "LONGITUDE": -87.792805745, 
    "LATTITUDE": 41.930806166
  }, 
  {
    "BUSINESS_TYPE": "Hazardous Materials", 
    "LEGAL_NAME": "ILLINOIS BELL TELEPHONE COMPANY", 
    "STATE": "IL", 
    "DOING_BUSINESS_AS_NAME": "AT&T Illinois", 
    "POP_AT_RISK": 68568, 
    "ZIP": 60640, 
    "ADDRESS": "5555 N WOLCOTT AVE", 
    "YEAR": 2001, 
    "LONGITUDE": -87.67647673, 
    "LATTITUDE": 41.983091637
  }, 
  {
    "BUSINESS_TYPE": "Hazardous Materials", 
    "LEGAL_NAME": "ILLINOIS BELL TELEPHONE COMPANY", 
    "STATE": "IL", 
    "DOING_BUSINESS_AS_NAME": "AT&T Illinois", 
    "POP_AT_RISK": 28265, 
    "ZIP": 60628, 
    "ADDRESS": "411-413 W 105TH ST", 
    "YEAR": 2001, 
    "LONGITUDE": -87.633797419, 
    "LATTITUDE": 41.703277511
  }, 
  {
    "BUSINESS_TYPE": "Hazardous Materials", 
    "LEGAL_NAME": "CSX INTERMODAL INC", 
    "STATE": "IL", 
    "DOING_BUSINESS_AS_NAME": "CSX INTERMODAL", 
    "POP_AT_RISK": 43627, 
    "ZIP": 60636, 
    "ADDRESS": "2101 W 59TH ST 1ST", 
    "YEAR": 2001, 
    "LONGITUDE": -87.676665443, 
    "LATTITUDE": 41.786485236
  }, 
  {
    "BUSINESS_TYPE": "Hazardous Materials", 
    "LEGAL_NAME": "ILLINOIS BELL TELEPHONE COMPANY", 
    "STATE": "IL", 
    "DOING_BUSINESS_AS_NAME": "AT&T Illinois", 
    "POP_AT_RISK": 9426, 
    "ZIP": 60633, 
    "ADDRESS": "3032 E 130TH ST", 
    "YEAR": 2001, 
    "LONGITUDE": -87.549483492, 
    "LATTITUDE": 41.659279232
  }, 
  {
    "BUSINESS_TYPE": "Hazardous Materials", 
    "LEGAL_NAME": "SMITH WOOD SPECIALTIES INC", 
    "STATE": "IL", 
    "DOING_BUSINESS_AS_NAME": "SMITH WOOD SPECIALTIES INC", 
    "POP_AT_RISK": 27509, 
    "ZIP": 60631, 
    "ADDRESS": "6150 N NORTHWEST HWY", 
    "YEAR": 2001, 
    "LONGITUDE": -87.800975574, 
    "LATTITUDE": 41.993365016
  }, 
  {
    "BUSINESS_TYPE": "Hazardous Materials", 
    "LEGAL_NAME": "ILLINOIS BELL TELEPHONE COMPANY", 
    "STATE": "IL", 
    "DOING_BUSINESS_AS_NAME": "AT&T Illinois", 
    "POP_AT_RISK": 37937, 
    "ZIP": 60629, 
    "ADDRESS": "6249 S KILBOURN AVE", 
    "YEAR": 2001, 
    "LONGITUDE": -87.734830226, 
    "LATTITUDE": 41.778892371
  }, 
  {
    "BUSINESS_TYPE": "Hazardous Materials", 
    "LEGAL_NAME": "CHICAGO TUBE & IRON CO", 
    "STATE": "IL", 
    "DOING_BUSINESS_AS_NAME": "CHICAGO TUBE & IRON CO", 
    "POP_AT_RISK": 51782, 
    "ZIP": 60632, 
    "ADDRESS": "4925 S CALIFORNIA AVE", 
    "YEAR": 2001, 
    "LONGITUDE": -87.693932393, 
    "LATTITUDE": 41.803773646
  }, 
  {
    "BUSINESS_TYPE": "Hazardous Materials", 
    "LEGAL_NAME": "MARRIOTT HOTELS INC", 
    "STATE": "IL", 
    "DOING_BUSINESS_AS_NAME": "CHICAGO MARRIOTT O'HARE", 
    "POP_AT_RISK": 15633, 
    "ZIP": 60631, 
    "ADDRESS": "8535 W HIGGINS RD  OFFIC", 
    "YEAR": 2001, 
    "LONGITUDE": -87.840124173, 
    "LATTITUDE": 41.986788586
  }, 
  {
    "BUSINESS_TYPE": "Hazardous Materials", 
    "LEGAL_NAME": "RUKIN INDUSTRIES", 
    "STATE": "IL", 
    "DOING_BUSINESS_AS_NAME": "RUKIN INDUSTRIES INC", 
    "POP_AT_RISK": 56126, 
    "ZIP": 60639, 
    "ADDRESS": "4545 W ARMITAGE AVE", 
    "YEAR": 2001, 
    "LONGITUDE": -87.740547911, 
    "LATTITUDE": 41.916885062
  }, 
  {
    "BUSINESS_TYPE": "Hazardous Materials", 
    "LEGAL_NAME": "ILLINOIS BELL TELEPHONE COMPANY", 
    "STATE": "IL", 
    "DOING_BUSINESS_AS_NAME": "AT&T Illinois", 
    "POP_AT_RISK": 68079, 
    "ZIP": 60639, 
    "ADDRESS": "5604 W BELDEN AVE", 
    "YEAR": 2001, 
    "LONGITUDE": -87.766169745, 
    "LATTITUDE": 41.922264169
  }, 
  {
    "BUSINESS_TYPE": "Hazardous Materials", 
    "LEGAL_NAME": "PYRAMID MOULDINGS INC.", 
    "STATE": "IL", 
    "DOING_BUSINESS_AS_NAME": "PYRAMID MOULDINGS INC", 
    "POP_AT_RISK": 28232, 
    "ZIP": 60646, 
    "ADDRESS": "5353 W ARMSTRONG AVE", 
    "YEAR": 2001, 
    "LONGITUDE": -87.763407887, 
    "LATTITUDE": 41.984326513
  }, 
  {
    "BUSINESS_TYPE": "Hazardous Materials", 
    "LEGAL_NAME": "ILLINOIS BELL TELEPHONE COMPANY", 
    "STATE": "IL", 
    "DOING_BUSINESS_AS_NAME": "AT&T Illinois", 
    "POP_AT_RISK": 35253, 
    "ZIP": 60637, 
    "ADDRESS": "6962 S COTTAGE GROVE AVE", 
    "YEAR": 2001, 
    "LONGITUDE": -87.605789751, 
    "LATTITUDE": 41.767677859
  }, 
  {
    "BUSINESS_TYPE": "Hazardous Materials", 
    "LEGAL_NAME": "ALLWASTE TANK CLEANING, INC", 
    "STATE": "IL", 
    "DOING_BUSINESS_AS_NAME": "PHILIP SERVICES - ALLWASTE CONTAINER SERVICES, INC", 
    "POP_AT_RISK": 10353, 
    "ZIP": 60628, 
    "ADDRESS": "803 E 120TH ST", 
    "YEAR": 2001, 
    "LONGITUDE": -87.6032132, 
    "LATTITUDE": 41.676218563
  }, 
  {
    "BUSINESS_TYPE": "Hazardous Materials", 
    "LEGAL_NAME": "BUDGET RENT A CAR SYSTEMS, INC", 
    "STATE": "IL", 
    "DOING_BUSINESS_AS_NAME": "BUDGET RENT A CAR", 
    "POP_AT_RISK": 29811, 
    "ZIP": 60638, 
    "ADDRESS": "5829 S CICERO AVE 1ST", 
    "YEAR": 2001, 
    "LONGITUDE": -87.741221176, 
    "LATTITUDE": 41.786898614
  }, 
  {
    "BUSINESS_TYPE": "Hazardous Materials", 
    "LEGAL_NAME": "ILLINOIS BELL TELEPHONE COMPANY", 
    "STATE": "IL", 
    "DOING_BUSINESS_AS_NAME": "AMERITECH", 
    "POP_AT_RISK": 30732, 
    "ZIP": 60619, 
    "ADDRESS": "8901 S STATE ST", 
    "YEAR": 2001, 
    "LONGITUDE": -87.623887553, 
    "LATTITUDE": 41.732645413
  }, 
  {
    "BUSINESS_TYPE": "Hazardous Materials", 
    "LEGAL_NAME": "DANIEL R. BRADY", 
    "STATE": "IL", 
    "DOING_BUSINESS_AS_NAME": "ODDLIE LTD", 
    "POP_AT_RISK": 20938, 
    "ZIP": 60643, 
    "ADDRESS": "1743 W 99TH ST", 
    "YEAR": 2001, 
    "LONGITUDE": -87.667067733, 
    "LATTITUDE": 41.713780462
  }, 
  {
    "BUSINESS_TYPE": "Hazardous Materials", 
    "LEGAL_NAME": "ALDEN NURSING CENTER", 
    "STATE": "IL", 
    "DOING_BUSINESS_AS_NAME": "LAKELAND INC", 
    "POP_AT_RISK": 57594, 
    "ZIP": 60640, 
    "ADDRESS": "820 W LAWRENCE AVE", 
    "YEAR": 2001, 
    "LONGITUDE": -87.651101613, 
    "LATTITUDE": 41.969249364
  }, 
  {
    "BUSINESS_TYPE": "Hazardous Materials", 
    "LEGAL_NAME": "MASTERCRAFT FURN REFIN CO", 
    "STATE": "IL", 
    "DOING_BUSINESS_AS_NAME": "MASTERCRAFT FURN REFIN CO", 
    "POP_AT_RISK": 45315, 
    "ZIP": 60622, 
    "ADDRESS": "3140 W CHICAGO AVE", 
    "YEAR": 2001, 
    "LONGITUDE": -87.705730087, 
    "LATTITUDE": 41.895670835
  }, 
  {
    "BUSINESS_TYPE": "Hazardous Materials", 
    "LEGAL_NAME": "MICHAEL'S COOPERAGE CO", 
    "STATE": "IL", 
    "DOING_BUSINESS_AS_NAME": "MICHAEL'S COOPERAGE CO", 
    "POP_AT_RISK": 32684, 
    "ZIP": 60609, 
    "ADDRESS": "363 W PERSHING RD # 1ST", 
    "YEAR": 2001, 
    "LONGITUDE": -87.635703756, 
    "LATTITUDE": 41.823484858
  }, 
  {
    "BUSINESS_TYPE": "Hazardous Materials", 
    "LEGAL_NAME": "CHARLES DUNN", 
    "STATE": "IL", 
    "DOING_BUSINESS_AS_NAME": "CONCORD", 
    "POP_AT_RISK": 31928, 
    "ZIP": 60620, 
    "ADDRESS": "440 W 87TH ST 1ST", 
    "YEAR": 2001, 
    "LONGITUDE": -87.63548772, 
    "LATTITUDE": 41.736290346
  }, 
  {
    "BUSINESS_TYPE": "Hazardous Materials", 
    "LEGAL_NAME": "BUDGET RENT A CAR SYSTEMS, INC", 
    "STATE": "IL", 
    "DOING_BUSINESS_AS_NAME": "BUDGET RENT A CAR INC", 
    "POP_AT_RISK": 64452, 
    "ZIP": 60614, 
    "ADDRESS": "1135 W ARMITAGE AVE", 
    "YEAR": 2001, 
    "LONGITUDE": -87.656742372, 
    "LATTITUDE": 41.917947209
  }, 
  {
    "BUSINESS_TYPE": "Hazardous Materials", 
    "LEGAL_NAME": "D. B. C. CORPORATION", 
    "STATE": "IL", 
    "DOING_BUSINESS_AS_NAME": "CARRS HONDA", 
    "POP_AT_RISK": 63493, 
    "ZIP": 60645, 
    "ADDRESS": "6600 N WESTERN AVE", 
    "YEAR": 2001, 
    "LONGITUDE": -87.690126179, 
    "LATTITUDE": 42.001456972
  }, 
  {
    "BUSINESS_TYPE": "Hazardous Materials", 
    "LEGAL_NAME": "ROBINSON BUS SERVICE INC", 
    "STATE": "IL", 
    "DOING_BUSINESS_AS_NAME": "DURHAM SCHOOL SERVICES, L.P.", 
    "POP_AT_RISK": 43668, 
    "ZIP": 60651, 
    "ADDRESS": "4617 W DIVISION ST", 
    "YEAR": 2001, 
    "LONGITUDE": -87.742242846, 
    "LATTITUDE": 41.902305686
  }, 
  {
    "BUSINESS_TYPE": "Hazardous Materials", 
    "LEGAL_NAME": "THE PEOPLES GAS LIGHT AND COKE COMPANY", 
    "STATE": "IL", 
    "DOING_BUSINESS_AS_NAME": "PEOPLES GAS LIGHT & COKE CO", 
    "POP_AT_RISK": 28547, 
    "ZIP": 60629, 
    "ADDRESS": "3625 W 73RD ST  1", 
    "YEAR": 2001, 
    "LONGITUDE": -87.713657665, 
    "LATTITUDE": 41.760417423
  }, 
  {
    "BUSINESS_TYPE": "Hazardous Materials", 
    "LEGAL_NAME": "COMMONWEALTH EDISON CO", 
    "STATE": "IL", 
    "DOING_BUSINESS_AS_NAME": "COMMONWEALTH EDISON CO", 
    "POP_AT_RISK": 29244, 
    "ZIP": 60652, 
    "ADDRESS": "7601 S LAWNDALE AVE 1ST", 
    "YEAR": 2001, 
    "LONGITUDE": -87.714120425, 
    "LATTITUDE": 41.755030985
  }, 
  {
    "BUSINESS_TYPE": "Hazardous Materials", 
    "LEGAL_NAME": "RESERVE F.T.L. INC", 
    "STATE": "IL", 
    "DOING_BUSINESS_AS_NAME": "RESERVE MARINE TERMINALS", 
    "POP_AT_RISK": 13060, 
    "ZIP": 60617, 
    "ADDRESS": "11401 S GREEN BAY AVE 1ST", 
    "YEAR": 2001, 
    "LONGITUDE": -87.541166451, 
    "LATTITUDE": 41.688135732
  }, 
  {
    "BUSINESS_TYPE": "Hazardous Materials", 
    "LEGAL_NAME": "NICKELSON INDUSTRIAL SERVICE, INC.", 
    "STATE": "IL", 
    "DOING_BUSINESS_AS_NAME": "NICKELSON INDSTL SERVC,INC", 
    "POP_AT_RISK": 28954, 
    "ZIP": 60617, 
    "ADDRESS": "8501 S BALTIMORE AVE 1ST", 
    "YEAR": 2001, 
    "LONGITUDE": -87.550338602, 
    "LATTITUDE": 41.741084403
  }, 
  {
    "BUSINESS_TYPE": "Hazardous Materials", 
    "LEGAL_NAME": "COLLINS INTERNATIONAL INC", 
    "STATE": "IL", 
    "DOING_BUSINESS_AS_NAME": "COLLINS INTERNATIONAL INC", 
    "POP_AT_RISK": 30788, 
    "ZIP": 60609, 
    "ADDRESS": "4633 S RACINE AVE", 
    "YEAR": 2001, 
    "LONGITUDE": -87.655115035, 
    "LATTITUDE": 41.809592874
  }, 
  {
    "BUSINESS_TYPE": "Hazardous Materials", 
    "LEGAL_NAME": "BEST FOAM FABRICATORS INC", 
    "STATE": "IL", 
    "DOING_BUSINESS_AS_NAME": "BEST FOAM FABRICATORS INC", 
    "POP_AT_RISK": 20311, 
    "ZIP": 60628, 
    "ADDRESS": "9633 S COTTAGE GROVE AVE", 
    "YEAR": 2001, 
    "LONGITUDE": -87.603684254, 
    "LATTITUDE": 41.719241497
  }, 
  {
    "BUSINESS_TYPE": "Hazardous Materials", 
    "LEGAL_NAME": "S H BELL COMPANY", 
    "STATE": "IL", 
    "DOING_BUSINESS_AS_NAME": "S H BELL COMPANY", 
    "POP_AT_RISK": 19727, 
    "ZIP": 60617, 
    "ADDRESS": "10218 S AVENUE O", 
    "YEAR": 2001, 
    "LONGITUDE": -87.540363725, 
    "LATTITUDE": 41.709426626
  }, 
  {
    "BUSINESS_TYPE": "Hazardous Materials", 
    "LEGAL_NAME": "UNIQUE AUTO REPAIR & BODY SHOP INC.", 
    "STATE": "IL", 
    "DOING_BUSINESS_AS_NAME": "UNIQUE AUTO REPAIR & BODY SHOP INC.", 
    "POP_AT_RISK": 94063, 
    "ZIP": 60625, 
    "ADDRESS": "4535 - 4537 N KEDZIE AVE", 
    "YEAR": 2001, 
    "LONGITUDE": -87.708189322, 
    "LATTITUDE": 41.964054833
  }, 
  {
    "BUSINESS_TYPE": "Hazardous Materials", 
    "LEGAL_NAME": "THE PEOPLES GAS LIGHT AND COKE COMPANY", 
    "STATE": "IL", 
    "DOING_BUSINESS_AS_NAME": "PEOPLES GAS LIGHT & COKE CO", 
    "POP_AT_RISK": 24663, 
    "ZIP": 60643, 
    "ADDRESS": "1215 W 107TH ST  1", 
    "YEAR": 2001, 
    "LONGITUDE": -87.65292637, 
    "LATTITUDE": 41.699415187
  }, 
  {
    "BUSINESS_TYPE": "Hazardous Materials", 
    "LEGAL_NAME": "ILLINOIS BELL TELEPHONE COMPANY", 
    "STATE": "IL", 
    "DOING_BUSINESS_AS_NAME": "AMERITECH", 
    "POP_AT_RISK": 48674, 
    "ZIP": 60636, 
    "ADDRESS": "2300 W 63RD ST", 
    "YEAR": 2001, 
    "LONGITUDE": -87.68115454, 
    "LATTITUDE": 41.779322196
  }, 
  {
    "BUSINESS_TYPE": "Hazardous Materials", 
    "LEGAL_NAME": "DELTA PLASTICS CORP OF ILLINOIS", 
    "STATE": "IL", 
    "DOING_BUSINESS_AS_NAME": "DELTA PLASTICS CORP OF ILLINOIS", 
    "POP_AT_RISK": 22526, 
    "ZIP": 60617, 
    "ADDRESS": "1650 E 95TH ST", 
    "YEAR": 2001, 
    "LONGITUDE": -87.583076201, 
    "LATTITUDE": 41.722481032
  }, 
  {
    "BUSINESS_TYPE": "Hazardous Materials", 
    "LEGAL_NAME": "M-K SIGNS INC", 
    "STATE": "IL", 
    "DOING_BUSINESS_AS_NAME": "M-K SIGNS", 
    "POP_AT_RISK": 39224, 
    "ZIP": 60630, 
    "ADDRESS": "4900 N ELSTON AVE", 
    "YEAR": 2001, 
    "LONGITUDE": -87.742719439, 
    "LATTITUDE": 41.969541997
  }
]