[
  {
    "BUSINESS_TYPE": "Body Piercing", 
    "LEGAL_NAME": "THE GALLERY OF INK LLC", 
    "STATE": "IL", 
    "DOING_BUSINESS_AS_NAME": "THE GALLERY OF INK", 
    "POP_AT_RISK": 42115, 
    "ZIP": 60630, 
    "ADDRESS": "4901 N ELSTON AVE 1", 
    "YEAR": 2009, 
    "LONGITUDE": -87.742533227, 
    "LATTITUDE": 41.969711947
  }, 
  {
    "BUSINESS_TYPE": "Body Piercing", 
    "LEGAL_NAME": "UNDERWOOD ART. CO.", 
    "STATE": "IL", 
    "DOING_BUSINESS_AS_NAME": "TAYLOR STREET TATTOO AND BODY PIERCING COMPANY", 
    "POP_AT_RISK": 46694, 
    "ZIP": 60607, 
    "ADDRESS": "1150 W TAYLOR ST 1ST", 
    "YEAR": 2009, 
    "LONGITUDE": -87.656260979, 
    "LATTITUDE": 41.869533544
  }, 
  {
    "BUSINESS_TYPE": "Body Piercing", 
    "LEGAL_NAME": "TINA'S SPA SALON CORP.", 
    "STATE": "IL", 
    "DOING_BUSINESS_AS_NAME": "TINA'S SPA SALON CORP.", 
    "POP_AT_RISK": 29620, 
    "ZIP": 60609, 
    "ADDRESS": "1848 W PERSHING RD 1", 
    "YEAR": 2009, 
    "LONGITUDE": -87.671944485, 
    "LATTITUDE": 41.82339041
  }, 
  {
    "BUSINESS_TYPE": "Body Piercing", 
    "LEGAL_NAME": "JADE DRAGON TATTOO INC", 
    "STATE": "IL", 
    "DOING_BUSINESS_AS_NAME": "JADE DRAGON TATTOO INC", 
    "POP_AT_RISK": 70344, 
    "ZIP": 60641, 
    "ADDRESS": "5331 W BELMONT AVE 1ST", 
    "YEAR": 2009, 
    "LONGITUDE": -87.760401851, 
    "LATTITUDE": 41.938542467
  }, 
  {
    "BUSINESS_TYPE": "Body Piercing", 
    "LEGAL_NAME": "INFINITE INK CORP.", 
    "STATE": "IL", 
    "DOING_BUSINESS_AS_NAME": "INFINITE TATTOO", 
    "POP_AT_RISK": 52834, 
    "ZIP": 60629, 
    "ADDRESS": "5928 S PULASKI RD 1", 
    "YEAR": 2009, 
    "LONGITUDE": -87.723085414, 
    "LATTITUDE": 41.785126424
  }, 
  {
    "BUSINESS_TYPE": "Body Piercing", 
    "LEGAL_NAME": "CLAIRE'S BOUTIQUES, INC.", 
    "STATE": "IL", 
    "DOING_BUSINESS_AS_NAME": "CLAIRE'S BOUTIQUE #6696", 
    "POP_AT_RISK": 63203, 
    "ZIP": 60661, 
    "ADDRESS": "500 W MADISON ST # 6696", 
    "YEAR": 2009, 
    "LONGITUDE": -87.639758685, 
    "LATTITUDE": 41.881994338
  }, 
  {
    "BUSINESS_TYPE": "Body Piercing", 
    "LEGAL_NAME": "JOSE F. RODRIGUEZ", 
    "STATE": "IL", 
    "DOING_BUSINESS_AS_NAME": "DIAMOND TATTOOS", 
    "POP_AT_RISK": 89488, 
    "ZIP": 60647, 
    "ADDRESS": "3816 W ARMITAGE AVE 1", 
    "YEAR": 2009, 
    "LONGITUDE": -87.722359077, 
    "LATTITUDE": 41.917323476
  }, 
  {
    "BUSINESS_TYPE": "Body Piercing", 
    "LEGAL_NAME": "BEE TATTOO, INC.", 
    "STATE": "IL", 
    "DOING_BUSINESS_AS_NAME": "BEE TATTOO, INC.", 
    "POP_AT_RISK": 70849, 
    "ZIP": 60625, 
    "ADDRESS": "2737 W LAWRENCE AVE 1ST", 
    "YEAR": 2009, 
    "LONGITUDE": -87.697720595, 
    "LATTITUDE": 41.968429525
  }, 
  {
    "BUSINESS_TYPE": "Body Piercing", 
    "LEGAL_NAME": "THE CHICAGO TATTOOING CO INC", 
    "STATE": "IL", 
    "DOING_BUSINESS_AS_NAME": "THE CHICAGO TATTOOING CO INC", 
    "POP_AT_RISK": 88868, 
    "ZIP": 60657, 
    "ADDRESS": "1017 W BELMONT AVE", 
    "YEAR": 2009, 
    "LONGITUDE": -87.654746687, 
    "LATTITUDE": 41.939791106
  }, 
  {
    "BUSINESS_TYPE": "Body Piercing", 
    "LEGAL_NAME": "PAUL COLLURAFICI", 
    "STATE": "IL", 
    "DOING_BUSINESS_AS_NAME": "TATTOO FACTORY", 
    "POP_AT_RISK": 65546, 
    "ZIP": 60640, 
    "ADDRESS": "4439-4443 N BROADWAY", 
    "YEAR": 2009, 
    "LONGITUDE": -87.655674569, 
    "LATTITUDE": 41.96284263
  }, 
  {
    "BUSINESS_TYPE": "Body Piercing", 
    "LEGAL_NAME": "THOMAS J. DAVIS", 
    "STATE": "IL", 
    "DOING_BUSINESS_AS_NAME": "MARS' HILL", 
    "POP_AT_RISK": 70548, 
    "ZIP": 60626, 
    "ADDRESS": "6656 N CLARK ST 1ST 1", 
    "YEAR": 2009, 
    "LONGITUDE": -87.672567897, 
    "LATTITUDE": 42.003325574
  }, 
  {
    "BUSINESS_TYPE": "Body Piercing", 
    "LEGAL_NAME": "MICHELLE L RYBKA", 
    "STATE": "IL", 
    "DOING_BUSINESS_AS_NAME": "ETCHED IN SKIN", 
    "POP_AT_RISK": 27493, 
    "ZIP": 60652, 
    "ADDRESS": "8356 S PULASKI RD  STORE", 
    "YEAR": 2009, 
    "LONGITUDE": -87.721769284, 
    "LATTITUDE": 41.740450235
  }, 
  {
    "BUSINESS_TYPE": "Body Piercing", 
    "LEGAL_NAME": "WINDY CITY INK, LLC", 
    "STATE": "IL", 
    "DOING_BUSINESS_AS_NAME": "WINDY CITY INK, LLC", 
    "POP_AT_RISK": 83768, 
    "ZIP": 60610, 
    "ADDRESS": "166 W DIVISION ST 1", 
    "YEAR": 2009, 
    "LONGITUDE": -87.634074209, 
    "LATTITUDE": 41.903968431
  }, 
  {
    "BUSINESS_TYPE": "Body Piercing", 
    "LEGAL_NAME": "TOMATO TATTOO INC", 
    "STATE": "IL", 
    "DOING_BUSINESS_AS_NAME": "TOMATO TATTOO INC", 
    "POP_AT_RISK": 55013, 
    "ZIP": 60622, 
    "ADDRESS": "1855 W CHICAGO AVE  1", 
    "YEAR": 2009, 
    "LONGITUDE": -87.674334575, 
    "LATTITUDE": 41.89584564
  }, 
  {
    "BUSINESS_TYPE": "Body Piercing", 
    "LEGAL_NAME": "MARIA CARMEN MANDUJANO", 
    "STATE": "IL", 
    "DOING_BUSINESS_AS_NAME": "AZTEC TATTOOS", 
    "POP_AT_RISK": 27828, 
    "ZIP": 60629, 
    "ADDRESS": "7013 S PULASKI RD 1ST", 
    "YEAR": 2009, 
    "LONGITUDE": -87.722287555, 
    "LATTITUDE": 41.765467688
  }, 
  {
    "BUSINESS_TYPE": "Body Piercing", 
    "LEGAL_NAME": "MYSTIC TATTOO ART & BODY PIERCING CORP.", 
    "STATE": "IL", 
    "DOING_BUSINESS_AS_NAME": "MYSTIC TATTOO ART & BODY PIERCING", 
    "POP_AT_RISK": 65610, 
    "ZIP": 60641, 
    "ADDRESS": "3120 N CICERO AVE  B", 
    "YEAR": 2009, 
    "LONGITUDE": -87.746988032, 
    "LATTITUDE": 41.937631374
  }, 
  {
    "BUSINESS_TYPE": "Body Piercing", 
    "LEGAL_NAME": "EXOTIC BODY CREATIONS INC.", 
    "STATE": "IL", 
    "DOING_BUSINESS_AS_NAME": "AGELESS ARTS", 
    "POP_AT_RISK": 69289, 
    "ZIP": 60623, 
    "ADDRESS": "2410 S KEDZIE AVE", 
    "YEAR": 2009, 
    "LONGITUDE": -87.705284574, 
    "LATTITUDE": 41.847766682
  }, 
  {
    "BUSINESS_TYPE": "Body Piercing", 
    "LEGAL_NAME": "CLAIRE'S BOUTIQUES, INC.", 
    "STATE": "IL", 
    "DOING_BUSINESS_AS_NAME": "CLAIRE'S", 
    "POP_AT_RISK": 57621, 
    "ZIP": 60614, 
    "ADDRESS": "1730 W FULLERTON AVE  21", 
    "YEAR": 2009, 
    "LONGITUDE": -87.671925425, 
    "LATTITUDE": 41.925212328
  }, 
  {
    "BUSINESS_TYPE": "Body Piercing", 
    "LEGAL_NAME": "DAVID RODRIGUEZ JR.", 
    "STATE": "IL", 
    "DOING_BUSINESS_AS_NAME": "GUILLERMO MONROYS FLESH CANVAS STUDIO", 
    "POP_AT_RISK": 39017, 
    "ZIP": 60608, 
    "ADDRESS": "2225 S WESTERN AVE 1ST", 
    "YEAR": 2009, 
    "LONGITUDE": -87.685469571, 
    "LATTITUDE": 41.85116639
  }, 
  {
    "BUSINESS_TYPE": "Body Piercing", 
    "LEGAL_NAME": "CLAIRE'S BOUTIQUES, INC.", 
    "STATE": "IL", 
    "DOING_BUSINESS_AS_NAME": "CLAIRE'S", 
    "POP_AT_RISK": 69642, 
    "ZIP": 60602, 
    "ADDRESS": "5 N STATE ST", 
    "YEAR": 2009, 
    "LONGITUDE": -87.627686883, 
    "LATTITUDE": 41.882191773
  }, 
  {
    "BUSINESS_TYPE": "Body Piercing", 
    "LEGAL_NAME": "MASTERMIND INK, LLC", 
    "STATE": "IL", 
    "DOING_BUSINESS_AS_NAME": "MASTERMIND INK", 
    "POP_AT_RISK": 81136, 
    "ZIP": 60640, 
    "ADDRESS": "4407 N CLARK ST 1ST FLOOR 1", 
    "YEAR": 2009, 
    "LONGITUDE": -87.665872039, 
    "LATTITUDE": 41.961910294
  }, 
  {
    "BUSINESS_TYPE": "Body Piercing", 
    "LEGAL_NAME": "RAJI ROSS", 
    "STATE": "IL", 
    "DOING_BUSINESS_AS_NAME": "SKIN PASSION TATTOOS", 
    "POP_AT_RISK": 47861, 
    "ZIP": 60629, 
    "ADDRESS": "2523 W 63RD ST 1ST", 
    "YEAR": 2009, 
    "LONGITUDE": -87.687150945, 
    "LATTITUDE": 41.779098424
  }, 
  {
    "BUSINESS_TYPE": "Body Piercing", 
    "LEGAL_NAME": "TATTED UP TATTOOS & PIERCINGS, INC.", 
    "STATE": "IL", 
    "DOING_BUSINESS_AS_NAME": "TATTED UP TATTOOS & PIERCINGS INC.", 
    "POP_AT_RISK": 40493, 
    "ZIP": 60637, 
    "ADDRESS": "6544 S COTTAGE GROVE AVE 1ST", 
    "YEAR": 2009, 
    "LONGITUDE": -87.605966442, 
    "LATTITUDE": 41.775444269
  }, 
  {
    "BUSINESS_TYPE": "Body Piercing", 
    "LEGAL_NAME": "AEROSTUDIOS INCORPORATED", 
    "STATE": "IL", 
    "DOING_BUSINESS_AS_NAME": "AEROSTUDIOS", 
    "POP_AT_RISK": 63819, 
    "ZIP": 60660, 
    "ADDRESS": "6317 N RIDGE AVE 1", 
    "YEAR": 2009, 
    "LONGITUDE": -87.675806532, 
    "LATTITUDE": 41.996093876
  }, 
  {
    "BUSINESS_TYPE": "Body Piercing", 
    "LEGAL_NAME": "RAGS 2 RICHES FASHIONS, LTD.", 
    "STATE": "IL", 
    "DOING_BUSINESS_AS_NAME": "THE ALLEY", 
    "POP_AT_RISK": 93207, 
    "ZIP": 60657, 
    "ADDRESS": "3228 N CLARK ST GROUND", 
    "YEAR": 2009, 
    "LONGITUDE": -87.651409508, 
    "LATTITUDE": 41.940646213
  }, 
  {
    "BUSINESS_TYPE": "Body Piercing", 
    "LEGAL_NAME": "FIFTH SUN GRAPHIX, INC", 
    "STATE": "IL", 
    "DOING_BUSINESS_AS_NAME": "FIFTH SUN GRAPHIX, INC.", 
    "POP_AT_RISK": 54617, 
    "ZIP": 60639, 
    "ADDRESS": "5718 W GRAND AVE 1", 
    "YEAR": 2009, 
    "LONGITUDE": -87.769035848, 
    "LATTITUDE": 41.919463875
  }, 
  {
    "BUSINESS_TYPE": "Body Piercing", 
    "LEGAL_NAME": "EAGLE LEATHERS INCORPORATED", 
    "STATE": "IL", 
    "DOING_BUSINESS_AS_NAME": "EAGLE LEATHERS INC", 
    "POP_AT_RISK": 50151, 
    "ZIP": 60640, 
    "ADDRESS": "5005 N CLARK ST", 
    "YEAR": 2009, 
    "LONGITUDE": -87.667797034, 
    "LATTITUDE": 41.972721039
  }, 
  {
    "BUSINESS_TYPE": "Body Piercing", 
    "LEGAL_NAME": "CLAIRE'S BOUTIQUES, INC.", 
    "STATE": "IL", 
    "DOING_BUSINESS_AS_NAME": "CLAIRE'S #5601", 
    "POP_AT_RISK": 46788, 
    "ZIP": 60639, 
    "ADDRESS": "2700 N NARRAGANSETT AVE  S6", 
    "YEAR": 2009, 
    "LONGITUDE": -87.785795165, 
    "LATTITUDE": 41.929256688
  }, 
  {
    "BUSINESS_TYPE": "Body Piercing", 
    "LEGAL_NAME": "BRYANT L JONES", 
    "STATE": "IL", 
    "DOING_BUSINESS_AS_NAME": "INFINITE DRAGON DEZINE", 
    "POP_AT_RISK": 26033, 
    "ZIP": 60638, 
    "ADDRESS": "5518 S ARCHER AVE", 
    "YEAR": 2009, 
    "LONGITUDE": -87.747416514, 
    "LATTITUDE": 41.798126625
  }, 
  {
    "BUSINESS_TYPE": "Body Piercing", 
    "LEGAL_NAME": "SOUTHSIDE TATTOOS & BODY PIERCING LLC", 
    "STATE": "IL", 
    "DOING_BUSINESS_AS_NAME": "SOUTHSIDE TATTOOS & BODY PIERCING LLC", 
    "POP_AT_RISK": 32623, 
    "ZIP": 60617, 
    "ADDRESS": "8548 S STONY ISLAND AVE", 
    "YEAR": 2009, 
    "LONGITUDE": -87.585842055, 
    "LATTITUDE": 41.739090425
  }, 
  {
    "BUSINESS_TYPE": "Body Piercing", 
    "LEGAL_NAME": "EPIDERMAL ENGRAVING EMPORIUM INC.", 
    "STATE": "IL", 
    "DOING_BUSINESS_AS_NAME": "GEORGE PAPAS TATTOO", 
    "POP_AT_RISK": 75515, 
    "ZIP": 60660, 
    "ADDRESS": "6305 N CLARK ST 1", 
    "YEAR": 2009, 
    "LONGITUDE": -87.670092117, 
    "LATTITUDE": 41.996566735
  }, 
  {
    "BUSINESS_TYPE": "Body Piercing", 
    "LEGAL_NAME": "MARIA D. GRIMALDO", 
    "STATE": "IL", 
    "DOING_BUSINESS_AS_NAME": "THE SHOP TATTOO STUDIO", 
    "POP_AT_RISK": 33383, 
    "ZIP": 60608, 
    "ADDRESS": "3265 S ARCHER AVE 1", 
    "YEAR": 2009, 
    "LONGITUDE": -87.670314677, 
    "LATTITUDE": 41.834745402
  }
]