[
  {
    "BUSINESS_TYPE": "Retail Food Establishment", 
    "LEGAL_NAME": "HARRISON WAREHOUSE MARKET INC.", 
    "STATE": "IL", 
    "DOING_BUSINESS_AS_NAME": "HARRISON WAREHOUSE MARKET INC", 
    "POP_AT_RISK": 29784, 
    "ZIP": 60644, 
    "ADDRESS": "5450 W HARRISON ST 1ST", 
    "YEAR": 2020, 
    "LONGITUDE": -87.761449984, 
    "LATTITUDE": 41.872975854
  }, 
  {
    "BUSINESS_TYPE": "Retail Food Establishment", 
    "LEGAL_NAME": "DMP PIZZA, INC.", 
    "STATE": "IL", 
    "DOING_BUSINESS_AS_NAME": "DOMINO'S", 
    "POP_AT_RISK": 50298, 
    "ZIP": 60641, 
    "ADDRESS": "3918-3920 N CICERO AVE", 
    "YEAR": 2020, 
    "LONGITUDE": -87.747428873, 
    "LATTITUDE": 41.95213643
  }, 
  {
    "BUSINESS_TYPE": "Retail Food Establishment", 
    "LEGAL_NAME": "ALDI INC.", 
    "STATE": "IL", 
    "DOING_BUSINESS_AS_NAME": "ALDI", 
    "POP_AT_RISK": 65024, 
    "ZIP": 60660, 
    "ADDRESS": "6221 N BROADWAY  1", 
    "YEAR": 2020, 
    "LONGITUDE": -87.660277993, 
    "LATTITUDE": 41.99521146
  }, 
  {
    "BUSINESS_TYPE": "Retail Food Establishment", 
    "LEGAL_NAME": "HERICA BUSTOS HERRERA", 
    "STATE": "IL", 
    "DOING_BUSINESS_AS_NAME": "CLUB SONRISAS", 
    "POP_AT_RISK": 49523, 
    "ZIP": 60639, 
    "ADDRESS": "6315 1/2 W GRAND AVE 1ST", 
    "YEAR": 2020, 
    "LONGITUDE": -87.783631934, 
    "LATTITUDE": 41.921965969
  }, 
  {
    "BUSINESS_TYPE": "Retail Food Establishment", 
    "LEGAL_NAME": "ALDI INC.", 
    "STATE": "IL", 
    "DOING_BUSINESS_AS_NAME": "ALDI 16", 
    "POP_AT_RISK": 54575, 
    "ZIP": 60651, 
    "ADDRESS": "1440 N KOSTNER AVE 1", 
    "YEAR": 2020, 
    "LONGITUDE": -87.736419121, 
    "LATTITUDE": 41.90737693
  }, 
  {
    "BUSINESS_TYPE": "Retail Food Establishment", 
    "LEGAL_NAME": "ALDI INC.", 
    "STATE": "IL", 
    "DOING_BUSINESS_AS_NAME": "ALDI INC #58", 
    "POP_AT_RISK": 66735, 
    "ZIP": 60618, 
    "ADDRESS": "2431 W MONTROSE AVE", 
    "YEAR": 2020, 
    "LONGITUDE": -87.68996697, 
    "LATTITUDE": 41.961194099
  }, 
  {
    "BUSINESS_TYPE": "Retail Food Establishment", 
    "LEGAL_NAME": "DEEN FOOD MART, INC.", 
    "STATE": "IL", 
    "DOING_BUSINESS_AS_NAME": "DEEN FOOD MART", 
    "POP_AT_RISK": 48698, 
    "ZIP": 60651, 
    "ADDRESS": "5360 W DIVISION ST 1ST B", 
    "YEAR": 2020, 
    "LONGITUDE": -87.760658263, 
    "LATTITUDE": 41.902304747
  }, 
  {
    "BUSINESS_TYPE": "Retail Food Establishment", 
    "LEGAL_NAME": "ADRIAN ORTIZ", 
    "STATE": "IL", 
    "DOING_BUSINESS_AS_NAME": "A & J KRAZY KITCHEN", 
    "POP_AT_RISK": 15551, 
    "ZIP": 60634, 
    "ADDRESS": "7547 W IRVING PARK RD 1ST", 
    "YEAR": 2020, 
    "LONGITUDE": -87.816495527, 
    "LATTITUDE": 41.952437397
  }, 
  {
    "BUSINESS_TYPE": "Retail Food Establishment", 
    "LEGAL_NAME": "CHEVAL WELLS LLC", 
    "STATE": "IL", 
    "DOING_BUSINESS_AS_NAME": "SMALL CHEVAL", 
    "POP_AT_RISK": 70463, 
    "ZIP": 60610, 
    "ADDRESS": "1345 N WELLS ST 1", 
    "YEAR": 2020, 
    "LONGITUDE": -87.634440451, 
    "LATTITUDE": 41.907072252
  }, 
  {
    "BUSINESS_TYPE": "Retail Food Establishment", 
    "LEGAL_NAME": "SOUP & SCOOPS, LLC", 
    "STATE": "IL", 
    "DOING_BUSINESS_AS_NAME": "SOUP & SCOOPS, LLC", 
    "POP_AT_RISK": 18918, 
    "ZIP": 60631, 
    "ADDRESS": "6709 N OLMSTED AVE", 
    "YEAR": 2020, 
    "LONGITUDE": -87.817076224, 
    "LATTITUDE": 42.002389738
  }, 
  {
    "BUSINESS_TYPE": "Retail Food Establishment", 
    "LEGAL_NAME": "LIS ENTERPRISES INC.", 
    "STATE": "IL", 
    "DOING_BUSINESS_AS_NAME": "LIS STORE", 
    "POP_AT_RISK": 41622, 
    "ZIP": 60630, 
    "ADDRESS": "5316 W LAWRENCE AVE 1ST", 
    "YEAR": 2020, 
    "LONGITUDE": -87.760180445, 
    "LATTITUDE": 41.967984304
  }, 
  {
    "BUSINESS_TYPE": "Retail Food Establishment", 
    "LEGAL_NAME": "CAMARON VAQUERO INC.", 
    "STATE": "IL", 
    "DOING_BUSINESS_AS_NAME": "CAMARON VAQUERO INC.", 
    "POP_AT_RISK": 48209, 
    "ZIP": 60629, 
    "ADDRESS": "6242 S PULASKI RD 1ST", 
    "YEAR": 2020, 
    "LONGITUDE": -87.722922392, 
    "LATTITUDE": 41.779192121
  }, 
  {
    "BUSINESS_TYPE": "Retail Food Establishment", 
    "LEGAL_NAME": "FAMILY FRESH MEAT MART, INC.", 
    "STATE": "IL", 
    "DOING_BUSINESS_AS_NAME": "FAMILY FRESH MEAT MART", 
    "POP_AT_RISK": 37537, 
    "ZIP": 60619, 
    "ADDRESS": "457 E 79TH ST 1ST", 
    "YEAR": 2020, 
    "LONGITUDE": -87.612643311, 
    "LATTITUDE": 41.751046825
  }, 
  {
    "BUSINESS_TYPE": "Retail Food Establishment", 
    "LEGAL_NAME": "ALDI INC.", 
    "STATE": "IL", 
    "DOING_BUSINESS_AS_NAME": "ALDI #30", 
    "POP_AT_RISK": 57462, 
    "ZIP": 60623, 
    "ADDRESS": "3030 S KEDZIE AVE", 
    "YEAR": 2020, 
    "LONGITUDE": -87.704994465, 
    "LATTITUDE": 41.838114152
  }, 
  {
    "BUSINESS_TYPE": "Retail Food Establishment", 
    "LEGAL_NAME": "INDEPENDENCE FUEL & MINI MART, INC.", 
    "STATE": "IL", 
    "DOING_BUSINESS_AS_NAME": "BP", 
    "POP_AT_RISK": 46989, 
    "ZIP": 60624, 
    "ADDRESS": "3801-3815 W ROOSEVELT RD 1ST", 
    "YEAR": 2020, 
    "LONGITUDE": -87.720190279, 
    "LATTITUDE": 41.866129089
  }, 
  {
    "BUSINESS_TYPE": "Retail Food Establishment", 
    "LEGAL_NAME": "NUSRATH & SONS, INC.", 
    "STATE": "IL", 
    "DOING_BUSINESS_AS_NAME": "MEZBAN", 
    "POP_AT_RISK": 72841, 
    "ZIP": 60645, 
    "ADDRESS": "6426 N WESTERN AVE", 
    "YEAR": 2020, 
    "LONGITUDE": -87.690053962, 
    "LATTITUDE": 41.998550917
  }, 
  {
    "BUSINESS_TYPE": "Retail Food Establishment", 
    "LEGAL_NAME": "AMARJHEEL CORP.", 
    "STATE": "IL", 
    "DOING_BUSINESS_AS_NAME": "THE MARKET", 
    "POP_AT_RISK": 24933, 
    "ZIP": 60631, 
    "ADDRESS": "5615 N CUMBERLAND AVE 1ST", 
    "YEAR": 2020, 
    "LONGITUDE": -87.836434302, 
    "LATTITUDE": 41.981428164
  }, 
  {
    "BUSINESS_TYPE": "Retail Food Establishment", 
    "LEGAL_NAME": "AAHA MANAGEMENT, INC.", 
    "STATE": "IL", 
    "DOING_BUSINESS_AS_NAME": "FORD CITY NEWS STAND", 
    "POP_AT_RISK": 16758, 
    "ZIP": 60652, 
    "ADDRESS": "7601 S CICERO AVE 1 1340", 
    "YEAR": 2020, 
    "LONGITUDE": -87.741384759, 
    "LATTITUDE": 41.754660124
  }, 
  {
    "BUSINESS_TYPE": "Retail Food Establishment", 
    "LEGAL_NAME": "RED HOT RANCH 2, INC.", 
    "STATE": "IL", 
    "DOING_BUSINESS_AS_NAME": "REDHOT RANCH", 
    "POP_AT_RISK": 79471, 
    "ZIP": 60657, 
    "ADDRESS": "3057 N ASHLAND AVE 1ST", 
    "YEAR": 2020, 
    "LONGITUDE": -87.668445273, 
    "LATTITUDE": 41.937758882
  }, 
  {
    "BUSINESS_TYPE": "Retail Food Establishment", 
    "LEGAL_NAME": "NEW CHINA RESTAURANT INC.", 
    "STATE": "IL", 
    "DOING_BUSINESS_AS_NAME": "NEW CHINA RESTAURANT INC.", 
    "POP_AT_RISK": 63189, 
    "ZIP": 60622, 
    "ADDRESS": "2438 W DIVISION ST", 
    "YEAR": 2020, 
    "LONGITUDE": -87.688491603, 
    "LATTITUDE": 41.903111486
  }, 
  {
    "BUSINESS_TYPE": "Retail Food Establishment", 
    "LEGAL_NAME": "A.S.M. GAS, INC.", 
    "STATE": "IL", 
    "DOING_BUSINESS_AS_NAME": "CLARK", 
    "POP_AT_RISK": 52862, 
    "ZIP": 60609, 
    "ADDRESS": "1952 W 55TH BLVD", 
    "YEAR": 2020, 
    "LONGITUDE": -87.674041766, 
    "LATTITUDE": 41.79402873
  }, 
  {
    "BUSINESS_TYPE": "Retail Food Establishment", 
    "LEGAL_NAME": "Neil & Viral Inc", 
    "STATE": "IL", 
    "DOING_BUSINESS_AS_NAME": "Dunkin Donuts", 
    "POP_AT_RISK": 26178, 
    "ZIP": 60655, 
    "ADDRESS": "3206 W 111TH ST FIRST (GROUND) A", 
    "YEAR": 2020, 
    "LONGITUDE": -87.701151357, 
    "LATTITUDE": 41.691674162
  }, 
  {
    "BUSINESS_TYPE": "Retail Food Establishment", 
    "LEGAL_NAME": "HUTCH AMERICAN KITCHEN LLC", 
    "STATE": "IL", 
    "DOING_BUSINESS_AS_NAME": "HUTCH AMERICAN KITCHEN AND BAR", 
    "POP_AT_RISK": 63881, 
    "ZIP": 60640, 
    "ADDRESS": "1477 W WINNEMAC AVE 1", 
    "YEAR": 2020, 
    "LONGITUDE": -87.667622857, 
    "LATTITUDE": 41.973261367
  }, 
  {
    "BUSINESS_TYPE": "Retail Food Establishment", 
    "LEGAL_NAME": "ALDI INC.", 
    "STATE": "IL", 
    "DOING_BUSINESS_AS_NAME": "ALDI #79", 
    "POP_AT_RISK": 37982, 
    "ZIP": 60619, 
    "ADDRESS": "7800 S SOUTH CHICAGO AVE", 
    "YEAR": 2020, 
    "LONGITUDE": -87.587523485, 
    "LATTITUDE": 41.75274564
  }, 
  {
    "BUSINESS_TYPE": "Retail Food Establishment", 
    "LEGAL_NAME": "K4M, INC.", 
    "STATE": "IL", 
    "DOING_BUSINESS_AS_NAME": "MARATHON GAS", 
    "POP_AT_RISK": 29130, 
    "ZIP": 60612, 
    "ADDRESS": "332-340 S SACRAMENTO BLVD 1ST", 
    "YEAR": 2020, 
    "LONGITUDE": -87.70122482, 
    "LATTITUDE": 41.876353229
  }, 
  {
    "BUSINESS_TYPE": "Retail Food Establishment", 
    "LEGAL_NAME": "ALDI INC.", 
    "STATE": "IL", 
    "DOING_BUSINESS_AS_NAME": "ALDI #70", 
    "POP_AT_RISK": 39999, 
    "ZIP": 60620, 
    "ADDRESS": "7627 S ASHLAND AVE 1", 
    "YEAR": 2020, 
    "LONGITUDE": -87.663404156, 
    "LATTITUDE": 41.754990917
  }, 
  {
    "BUSINESS_TYPE": "Retail Food Establishment", 
    "LEGAL_NAME": "ALDI INC.", 
    "STATE": "IL", 
    "DOING_BUSINESS_AS_NAME": "ALDI #88", 
    "POP_AT_RISK": 26582, 
    "ZIP": 60620, 
    "ADDRESS": "8500 S HOLLAND RD 1", 
    "YEAR": 2020, 
    "LONGITUDE": -87.632089065, 
    "LATTITUDE": 41.739896706
  }, 
  {
    "BUSINESS_TYPE": "Retail Food Establishment", 
    "LEGAL_NAME": "ALDI INC.", 
    "STATE": "IL", 
    "DOING_BUSINESS_AS_NAME": "ALDI INC #92", 
    "POP_AT_RISK": 34841, 
    "ZIP": 60621, 
    "ADDRESS": "620 W 63RD ST", 
    "YEAR": 2020, 
    "LONGITUDE": -87.640925511, 
    "LATTITUDE": 41.779920047
  }, 
  {
    "BUSINESS_TYPE": "Retail Food Establishment", 
    "LEGAL_NAME": "ALDI INC.", 
    "STATE": "IL", 
    "DOING_BUSINESS_AS_NAME": "ALDI", 
    "POP_AT_RISK": 40493, 
    "ZIP": 60637, 
    "ADDRESS": "6621 S COTTAGE GROVE AVE 1", 
    "YEAR": 2020, 
    "LONGITUDE": -87.605648025, 
    "LATTITUDE": 41.774305881
  }, 
  {
    "BUSINESS_TYPE": "Retail Food Establishment", 
    "LEGAL_NAME": "ALDI INC.", 
    "STATE": "IL", 
    "DOING_BUSINESS_AS_NAME": "ALDI'S # 26", 
    "POP_AT_RISK": 18423, 
    "ZIP": 60617, 
    "ADDRESS": "10532 S INDIANAPOLIS AVE 1ST FLOOR 1ST", 
    "YEAR": 2020, 
    "LONGITUDE": -87.525712427, 
    "LATTITUDE": 41.703662361
  }, 
  {
    "BUSINESS_TYPE": "Retail Food Establishment", 
    "LEGAL_NAME": "SHEIKA FOOD MARKET, INC.", 
    "STATE": "IL", 
    "DOING_BUSINESS_AS_NAME": "SHEIKA FOOD MARKET", 
    "POP_AT_RISK": 33712, 
    "ZIP": 60612, 
    "ADDRESS": "2902 W MADISON ST 1ST", 
    "YEAR": 2020, 
    "LONGITUDE": -87.698930429, 
    "LATTITUDE": 41.881160006
  }, 
  {
    "BUSINESS_TYPE": "Retail Food Establishment", 
    "LEGAL_NAME": "ALDI INC.", 
    "STATE": "IL", 
    "DOING_BUSINESS_AS_NAME": "ALDI INC STORE #95", 
    "POP_AT_RISK": 20644, 
    "ZIP": 60617, 
    "ADDRESS": "2333 E 95TH ST", 
    "YEAR": 2020, 
    "LONGITUDE": -87.566673052, 
    "LATTITUDE": 41.722466242
  }, 
  {
    "BUSINESS_TYPE": "Retail Food Establishment", 
    "LEGAL_NAME": "MARISCOS ZERIMAR, INC.", 
    "STATE": "IL", 
    "DOING_BUSINESS_AS_NAME": "MARISCOS LA GRULLA", 
    "POP_AT_RISK": 68866, 
    "ZIP": 60623, 
    "ADDRESS": "3325 W CERMAK RD 1ST", 
    "YEAR": 2020, 
    "LONGITUDE": -87.708757389, 
    "LATTITUDE": 41.851614725
  }, 
  {
    "BUSINESS_TYPE": "Retail Food Establishment", 
    "LEGAL_NAME": "VANILLE, INC.", 
    "STATE": "IL", 
    "DOING_BUSINESS_AS_NAME": "VANILLE PATTISSERIE", 
    "POP_AT_RISK": 38939, 
    "ZIP": 60615, 
    "ADDRESS": "5229 S HARPER CT 1", 
    "YEAR": 2020, 
    "LONGITUDE": -87.588093177, 
    "LATTITUDE": 41.800106792
  }, 
  {
    "BUSINESS_TYPE": "Retail Food Establishment", 
    "LEGAL_NAME": "ALDI INC.", 
    "STATE": "IL", 
    "DOING_BUSINESS_AS_NAME": "ALDI STORE #32", 
    "POP_AT_RISK": 48204, 
    "ZIP": 60614, 
    "ADDRESS": "1836 N CLYBOURN AVE", 
    "YEAR": 2020, 
    "LONGITUDE": -87.65452411, 
    "LATTITUDE": 41.914349676
  }, 
  {
    "BUSINESS_TYPE": "Retail Food Establishment", 
    "LEGAL_NAME": "D ARCO'S PIZZA INC.", 
    "STATE": "IL", 
    "DOING_BUSINESS_AS_NAME": "D ARCO'S PIZZA INC.", 
    "POP_AT_RISK": 57928, 
    "ZIP": 60629, 
    "ADDRESS": "2819 W 63RD ST 1ST", 
    "YEAR": 2020, 
    "LONGITUDE": -87.694210362, 
    "LATTITUDE": 41.778994736
  }, 
  {
    "BUSINESS_TYPE": "Retail Food Establishment", 
    "LEGAL_NAME": "ALDI INC.", 
    "STATE": "IL", 
    "DOING_BUSINESS_AS_NAME": "ALDI INC # 62", 
    "POP_AT_RISK": 55784, 
    "ZIP": 60659, 
    "ADDRESS": "6220 N CALIFORNIA AVE  1", 
    "YEAR": 2020, 
    "LONGITUDE": -87.699686862, 
    "LATTITUDE": 41.994620959
  }, 
  {
    "BUSINESS_TYPE": "Retail Food Establishment", 
    "LEGAL_NAME": "PIZZA NOVA EXPRESS INC", 
    "STATE": "IL", 
    "DOING_BUSINESS_AS_NAME": "PIZZA NOVA EXPRESS", 
    "POP_AT_RISK": 27493, 
    "ZIP": 60652, 
    "ADDRESS": "3836 W 79TH ST 1ST", 
    "YEAR": 2020, 
    "LONGITUDE": -87.719763325, 
    "LATTITUDE": 41.749712856
  }, 
  {
    "BUSINESS_TYPE": "Retail Food Establishment", 
    "LEGAL_NAME": "ALDI INC.", 
    "STATE": "IL", 
    "DOING_BUSINESS_AS_NAME": "ALDI INC. #96", 
    "POP_AT_RISK": 30208, 
    "ZIP": 60643, 
    "ADDRESS": "821 W 115TH ST 1", 
    "YEAR": 2020, 
    "LONGITUDE": -87.64302231, 
    "LATTITUDE": 41.68496064
  }, 
  {
    "BUSINESS_TYPE": "Retail Food Establishment", 
    "LEGAL_NAME": "ALDI INC.", 
    "STATE": "IL", 
    "DOING_BUSINESS_AS_NAME": "ALDI'S FOODS BELMONT", 
    "POP_AT_RISK": 65684, 
    "ZIP": 60618, 
    "ADDRESS": "3320 W BELMONT AVE 1 3320B", 
    "YEAR": 2020, 
    "LONGITUDE": -87.710900592, 
    "LATTITUDE": 41.939405188
  }, 
  {
    "BUSINESS_TYPE": "Retail Food Establishment", 
    "LEGAL_NAME": "SUGARS PLUS, INC.", 
    "STATE": "IL", 
    "DOING_BUSINESS_AS_NAME": "SUGARS PLUS", 
    "POP_AT_RISK": 37764, 
    "ZIP": 60609, 
    "ADDRESS": "525 E 47TH ST", 
    "YEAR": 2020, 
    "LONGITUDE": -87.612879141, 
    "LATTITUDE": 41.809328945
  }, 
  {
    "BUSINESS_TYPE": "Retail Food Establishment", 
    "LEGAL_NAME": "RALPHS GROCERY COMPANY", 
    "STATE": "IL", 
    "DOING_BUSINESS_AS_NAME": "Food 4 Less Midwest #570", 
    "POP_AT_RISK": 29261, 
    "ZIP": 60620, 
    "ADDRESS": "112 W 87TH ST 1ST", 
    "YEAR": 2020, 
    "LONGITUDE": -87.627509219, 
    "LATTITUDE": 41.736380046
  }, 
  {
    "BUSINESS_TYPE": "Retail Food Establishment", 
    "LEGAL_NAME": "BAR 22, LLC", 
    "STATE": "IL", 
    "DOING_BUSINESS_AS_NAME": "BAR 22", 
    "POP_AT_RISK": 35264, 
    "ZIP": 60616, 
    "ADDRESS": "2244 S MICHIGAN AVE 1ST AND 2ND", 
    "YEAR": 2020, 
    "LONGITUDE": -87.623916951, 
    "LATTITUDE": 41.851579626
  }, 
  {
    "BUSINESS_TYPE": "Retail Food Establishment", 
    "LEGAL_NAME": "EL MEZQUITE INC.", 
    "STATE": "IL", 
    "DOING_BUSINESS_AS_NAME": "EL MEZQUITE INC.", 
    "POP_AT_RISK": 44243, 
    "ZIP": 60608, 
    "ADDRESS": "1756 W 18TH ST 1ST", 
    "YEAR": 2020, 
    "LONGITUDE": -87.670931811, 
    "LATTITUDE": 41.857837698
  }, 
  {
    "BUSINESS_TYPE": "Retail Food Establishment", 
    "LEGAL_NAME": "ARMITAGE PULASKI INCORPORATED", 
    "STATE": "IL", 
    "DOING_BUSINESS_AS_NAME": "SHELL/SMOKE & VAPE", 
    "POP_AT_RISK": 75499, 
    "ZIP": 60639, 
    "ADDRESS": "2001-2011 N PULASKI RD 1ST", 
    "YEAR": 2020, 
    "LONGITUDE": -87.72641457, 
    "LATTITUDE": 41.917216201
  }, 
  {
    "BUSINESS_TYPE": "Retail Food Establishment", 
    "LEGAL_NAME": "PANDA CHINA, INC", 
    "STATE": "IL", 
    "DOING_BUSINESS_AS_NAME": "PANDA CHINA", 
    "POP_AT_RISK": 38072, 
    "ZIP": 60634, 
    "ADDRESS": "4042 N NARRAGANSETT AVE", 
    "YEAR": 2020, 
    "LONGITUDE": -87.786747244, 
    "LATTITUDE": 41.954217584
  }, 
  {
    "BUSINESS_TYPE": "Retail Food Establishment", 
    "LEGAL_NAME": "ALDI INC.", 
    "STATE": "IL", 
    "DOING_BUSINESS_AS_NAME": "ALDI FOODS -STORE #04", 
    "POP_AT_RISK": 45315, 
    "ZIP": 60651, 
    "ADDRESS": "800 N KEDZIE AVE", 
    "YEAR": 2020, 
    "LONGITUDE": -87.706705325, 
    "LATTITUDE": 41.895615314
  }, 
  {
    "BUSINESS_TYPE": "Retail Food Establishment", 
    "LEGAL_NAME": "ALDI INC.", 
    "STATE": "IL", 
    "DOING_BUSINESS_AS_NAME": "ALDI INC #64", 
    "POP_AT_RISK": 58128, 
    "ZIP": 60647, 
    "ADDRESS": "1753 N MILWAUKEE AVE", 
    "YEAR": 2020, 
    "LONGITUDE": -87.681822481, 
    "LATTITUDE": 41.913342468
  }, 
  {
    "BUSINESS_TYPE": "Retail Food Establishment", 
    "LEGAL_NAME": "ALDI INC.", 
    "STATE": "IL", 
    "DOING_BUSINESS_AS_NAME": "ALDI FOODS #91", 
    "POP_AT_RISK": 39139, 
    "ZIP": 60624, 
    "ADDRESS": "3835 W MADISON ST", 
    "YEAR": 2020, 
    "LONGITUDE": -87.722193669, 
    "LATTITUDE": 41.880659411
  }, 
  {
    "BUSINESS_TYPE": "Retail Food Establishment", 
    "LEGAL_NAME": "LAWRENCE GROCERY & DOLLAR INC.", 
    "STATE": "IL", 
    "DOING_BUSINESS_AS_NAME": "LAWRENCE GROCERY & DOLLAR INC.", 
    "POP_AT_RISK": 67391, 
    "ZIP": 60625, 
    "ADDRESS": "3959 W LAWRENCE AVE", 
    "YEAR": 2020, 
    "LONGITUDE": -87.727964428, 
    "LATTITUDE": 41.968133311
  }, 
  {
    "BUSINESS_TYPE": "Retail Food Establishment", 
    "LEGAL_NAME": "RALPHS GROCERY COMPANY", 
    "STATE": "IL", 
    "DOING_BUSINESS_AS_NAME": "Food 4 Less Midwest #552", 
    "POP_AT_RISK": 40672, 
    "ZIP": 60636, 
    "ADDRESS": "7030 S ASHLAND AVE", 
    "YEAR": 2020, 
    "LONGITUDE": -87.663966886, 
    "LATTITUDE": 41.76579077
  }, 
  {
    "BUSINESS_TYPE": "Retail Food Establishment", 
    "LEGAL_NAME": "ALDI INC.", 
    "STATE": "IL", 
    "DOING_BUSINESS_AS_NAME": "ALDI'S", 
    "POP_AT_RISK": 49792, 
    "ZIP": 60707, 
    "ADDRESS": "6520 W FULLERTON AVE 1ST FLOOR 1", 
    "YEAR": 2020, 
    "LONGITUDE": -87.788747763, 
    "LATTITUDE": 41.923760402
  }, 
  {
    "BUSINESS_TYPE": "Retail Food Establishment", 
    "LEGAL_NAME": "ALDI INC.", 
    "STATE": "IL", 
    "DOING_BUSINESS_AS_NAME": "ALDI FOODS STORE #90B", 
    "POP_AT_RISK": 66927, 
    "ZIP": 60634, 
    "ADDRESS": "2828 N CENTRAL AVE", 
    "YEAR": 2020, 
    "LONGITUDE": -87.766424599, 
    "LATTITUDE": 41.932157679
  }
]