[
  {
    "BUSINESS_TYPE": "Electronic Equipment Repair", 
    "LEGAL_NAME": "ROSELAND ELECTRONICS & JEWELRY LLC", 
    "STATE": "IL", 
    "DOING_BUSINESS_AS_NAME": "ROSELAND ELECTRONICS & JEWELRY LLC", 
    "POP_AT_RISK": 31674, 
    "ZIP": 60628, 
    "ADDRESS": "123 E 111TH ST 1ST", 
    "YEAR": 2012, 
    "LONGITUDE": -87.620041594, 
    "LATTITUDE": 41.69251264
  }, 
  {
    "BUSINESS_TYPE": "Electronic Equipment Repair", 
    "LEGAL_NAME": "Ramon Valles", 
    "STATE": "IL", 
    "DOING_BUSINESS_AS_NAME": "Commercial Printshop", 
    "POP_AT_RISK": 16548, 
    "ZIP": 60617, 
    "ADDRESS": "10315 S COMMERCIAL AVE 1ST", 
    "YEAR": 2012, 
    "LONGITUDE": -87.553258424, 
    "LATTITUDE": 41.707703435
  }, 
  {
    "BUSINESS_TYPE": "Electronic Equipment Repair", 
    "LEGAL_NAME": "MIDWAY COMPUTER SERVICE", 
    "STATE": "IL", 
    "DOING_BUSINESS_AS_NAME": "MIDWAY COMPUTER SERVICE", 
    "POP_AT_RISK": 27624, 
    "ZIP": 60638, 
    "ADDRESS": "6415 W 63RD ST", 
    "YEAR": 2012, 
    "LONGITUDE": -87.781873636, 
    "LATTITUDE": 41.777557705
  }, 
  {
    "BUSINESS_TYPE": "Electronic Equipment Repair", 
    "LEGAL_NAME": "79TH ABC WIRELESS INC", 
    "STATE": "IL", 
    "DOING_BUSINESS_AS_NAME": "ABC CHOICE", 
    "POP_AT_RISK": 33992, 
    "ZIP": 60620, 
    "ADDRESS": "1934 W 79TH ST 1 1", 
    "YEAR": 2012, 
    "LONGITUDE": -87.672202458, 
    "LATTITUDE": 41.750352746
  }, 
  {
    "BUSINESS_TYPE": "Electronic Equipment Repair", 
    "LEGAL_NAME": "TELESERVICES CORP", 
    "STATE": "IL", 
    "DOING_BUSINESS_AS_NAME": "TELESERVICE CORP", 
    "POP_AT_RISK": 31645, 
    "ZIP": 60612, 
    "ADDRESS": "2532 W WARREN BLVD", 
    "YEAR": 2012, 
    "LONGITUDE": -87.689800001, 
    "LATTITUDE": 41.882165578
  }, 
  {
    "BUSINESS_TYPE": "Electronic Equipment Repair", 
    "LEGAL_NAME": "CHICAGO COMPUTER CLUB, CORP.", 
    "STATE": "IL", 
    "DOING_BUSINESS_AS_NAME": "CHICAGO COMPUTER CLUB", 
    "POP_AT_RISK": 31326, 
    "ZIP": 60616, 
    "ADDRESS": "329 E 35TH ST 1", 
    "YEAR": 2012, 
    "LONGITUDE": -87.618075932, 
    "LATTITUDE": 41.830986703
  }, 
  {
    "BUSINESS_TYPE": "Electronic Equipment Repair", 
    "LEGAL_NAME": "THOMAS JUE", 
    "STATE": "IL", 
    "DOING_BUSINESS_AS_NAME": "ACE RESTAURANT EQUIPMENT", 
    "POP_AT_RISK": 43937, 
    "ZIP": 60616, 
    "ADDRESS": "53 E 25TH ST  1", 
    "YEAR": 2012, 
    "LONGITUDE": -87.624863001, 
    "LATTITUDE": 41.847215135
  }, 
  {
    "BUSINESS_TYPE": "Electronic Equipment Repair", 
    "LEGAL_NAME": "BEST BUY STORES, L.P.", 
    "STATE": "IL", 
    "DOING_BUSINESS_AS_NAME": "BEST BUY", 
    "POP_AT_RISK": 83837, 
    "ZIP": 60614, 
    "ADDRESS": "2650 N CLARK ST", 
    "YEAR": 2012, 
    "LONGITUDE": -87.644135436, 
    "LATTITUDE": 41.930833014
  }, 
  {
    "BUSINESS_TYPE": "Electronic Equipment Repair", 
    "LEGAL_NAME": "CHICAGO COMPUTER CLUB, CORP.", 
    "STATE": "IL", 
    "DOING_BUSINESS_AS_NAME": "CHICAGO COMPUTER CLUB", 
    "POP_AT_RISK": 40389, 
    "ZIP": 60615, 
    "ADDRESS": "1521 E 55TH ST 1", 
    "YEAR": 2012, 
    "LONGITUDE": -87.588268123, 
    "LATTITUDE": 41.795082097
  }, 
  {
    "BUSINESS_TYPE": "Electronic Equipment Repair", 
    "LEGAL_NAME": "Paula M Zurawski", 
    "STATE": "IL", 
    "DOING_BUSINESS_AS_NAME": "Zs Computer Services", 
    "POP_AT_RISK": 24262, 
    "ZIP": 60638, 
    "ADDRESS": "6646 W ARCHER AVE 1", 
    "YEAR": 2012, 
    "LONGITUDE": -87.788568742, 
    "LATTITUDE": 41.792324196
  }, 
  {
    "BUSINESS_TYPE": "Electronic Equipment Repair", 
    "LEGAL_NAME": "EASTSIDE WIRELESS, INC.", 
    "STATE": "IL", 
    "DOING_BUSINESS_AS_NAME": "EASTSIDE WIRELESS", 
    "POP_AT_RISK": 26882, 
    "ZIP": 60621, 
    "ADDRESS": "7461 S VINCENNES AVE 1", 
    "YEAR": 2012, 
    "LONGITUDE": -87.63114641, 
    "LATTITUDE": 41.758286536
  }, 
  {
    "BUSINESS_TYPE": "Electronic Equipment Repair", 
    "LEGAL_NAME": "E-Z COMPUTER INC.", 
    "STATE": "IL", 
    "DOING_BUSINESS_AS_NAME": "E-Z COMPUTER INC.", 
    "POP_AT_RISK": 21672, 
    "ZIP": 60643, 
    "ADDRESS": "2355 W 111TH ST 1 1", 
    "YEAR": 2012, 
    "LONGITUDE": -87.680904083, 
    "LATTITUDE": 41.691667231
  }, 
  {
    "BUSINESS_TYPE": "Electronic Equipment Repair", 
    "LEGAL_NAME": "CYBERK COMPUTEK INC.", 
    "STATE": "IL", 
    "DOING_BUSINESS_AS_NAME": "CYBERK COMPUTEK INC.", 
    "POP_AT_RISK": 53653, 
    "ZIP": 60632, 
    "ADDRESS": "3982 S ARCHER AVE 1", 
    "YEAR": 2012, 
    "LONGITUDE": -87.692649685, 
    "LATTITUDE": 41.821344318
  }, 
  {
    "BUSINESS_TYPE": "Electronic Equipment Repair", 
    "LEGAL_NAME": "Clyde Payne Junior", 
    "STATE": "IL", 
    "DOING_BUSINESS_AS_NAME": "BEST PRICES COMPUTERS", 
    "POP_AT_RISK": 42721, 
    "ZIP": 60644, 
    "ADDRESS": "17 N CICERO AVE 1", 
    "YEAR": 2012, 
    "LONGITUDE": -87.745152748, 
    "LATTITUDE": 41.881094493
  }, 
  {
    "BUSINESS_TYPE": "Electronic Equipment Repair", 
    "LEGAL_NAME": "CELLULAR ETC INC", 
    "STATE": "IL", 
    "DOING_BUSINESS_AS_NAME": "CELLULAR ZONE", 
    "POP_AT_RISK": 56522, 
    "ZIP": 60623, 
    "ADDRESS": "3206 W 16TH ST", 
    "YEAR": 2012, 
    "LONGITUDE": -87.70579397, 
    "LATTITUDE": 41.859189221
  }, 
  {
    "BUSINESS_TYPE": "Electronic Equipment Repair", 
    "LEGAL_NAME": "ROCHELLE SMITH", 
    "STATE": "IL", 
    "DOING_BUSINESS_AS_NAME": "R & R COMPUTER SERVICES", 
    "POP_AT_RISK": 14637, 
    "ZIP": 60628, 
    "ADDRESS": "12723 S HALSTED ST 1ST", 
    "YEAR": 2012, 
    "LONGITUDE": -87.641249111, 
    "LATTITUDE": 41.662485889
  }, 
  {
    "BUSINESS_TYPE": "Electronic Equipment Repair", 
    "LEGAL_NAME": "RADIOSHACK CORPORATION", 
    "STATE": "IL", 
    "DOING_BUSINESS_AS_NAME": "RADIO SHACK #6582", 
    "POP_AT_RISK": 22813, 
    "ZIP": 60638, 
    "ADDRESS": "5897 S ARCHER AVE", 
    "YEAR": 2012, 
    "LONGITUDE": -87.762760284, 
    "LATTITUDE": 41.795540523
  }, 
  {
    "BUSINESS_TYPE": "Electronic Equipment Repair", 
    "LEGAL_NAME": "RADIOSHACK CORPORATION", 
    "STATE": "IL", 
    "DOING_BUSINESS_AS_NAME": "RADIO SHACK #", 
    "POP_AT_RISK": 35836, 
    "ZIP": 60636, 
    "ADDRESS": "6930 S ASHLAND AVE 1ST A", 
    "YEAR": 2012, 
    "LONGITUDE": -87.664010698, 
    "LATTITUDE": 41.767610759
  }, 
  {
    "BUSINESS_TYPE": "Electronic Equipment Repair", 
    "LEGAL_NAME": "LUGANO ONE INC.", 
    "STATE": "IL", 
    "DOING_BUSINESS_AS_NAME": "CAGO WIRELESS", 
    "POP_AT_RISK": 43394, 
    "ZIP": 60651, 
    "ADDRESS": "3942 W CHICAGO AVE 1ST", 
    "YEAR": 2012, 
    "LONGITUDE": -87.72529074, 
    "LATTITUDE": 41.895483731
  }, 
  {
    "BUSINESS_TYPE": "Electronic Equipment Repair", 
    "LEGAL_NAME": "WILLIAM HUNTER", 
    "STATE": "IL", 
    "DOING_BUSINESS_AS_NAME": "BILLS RADIO & TV REPAIR", 
    "POP_AT_RISK": 44111, 
    "ZIP": 60624, 
    "ADDRESS": "346 S PULASKI RD  1", 
    "YEAR": 2012, 
    "LONGITUDE": -87.725645861, 
    "LATTITUDE": 41.875688749
  }, 
  {
    "BUSINESS_TYPE": "Electronic Equipment Repair", 
    "LEGAL_NAME": "ELIZABETH & LARRY LIEGGI", 
    "STATE": "IL", 
    "DOING_BUSINESS_AS_NAME": "PC REPAIR & SALES", 
    "POP_AT_RISK": 13900, 
    "ZIP": 60631, 
    "ADDRESS": "7534 N MILWAUKEE AVE 1ST", 
    "YEAR": 2012, 
    "LONGITUDE": -87.806937739, 
    "LATTITUDE": 42.018032622
  }, 
  {
    "BUSINESS_TYPE": "Electronic Equipment Repair", 
    "LEGAL_NAME": "XTREME MOBILE INC.", 
    "STATE": "IL", 
    "DOING_BUSINESS_AS_NAME": "XTREME MOBILE INC.", 
    "POP_AT_RISK": 28777, 
    "ZIP": 60629, 
    "ADDRESS": "4702 W 63RD ST 1ST", 
    "YEAR": 2012, 
    "LONGITUDE": -87.739982839, 
    "LATTITUDE": 41.778566567
  }, 
  {
    "BUSINESS_TYPE": "Electronic Equipment Repair", 
    "LEGAL_NAME": "CBI COMPUTERS, INC.", 
    "STATE": "IL", 
    "DOING_BUSINESS_AS_NAME": "CBI COMPUTERS, INC.", 
    "POP_AT_RISK": 20967, 
    "ZIP": 60617, 
    "ADDRESS": "3656 E 106TH ST 1ST", 
    "YEAR": 2012, 
    "LONGITUDE": -87.534223127, 
    "LATTITUDE": 41.702838254
  }, 
  {
    "BUSINESS_TYPE": "Electronic Equipment Repair", 
    "LEGAL_NAME": "NU LUUK COMPUTERS SERVICES, INC.", 
    "STATE": "IL", 
    "DOING_BUSINESS_AS_NAME": "NU LUUK COMPUTER SERVICES", 
    "POP_AT_RISK": 49690, 
    "ZIP": 60639, 
    "ADDRESS": "5725 W NORTH AVE 1ST", 
    "YEAR": 2012, 
    "LONGITUDE": -87.769421435, 
    "LATTITUDE": 41.909219665
  }, 
  {
    "BUSINESS_TYPE": "Electronic Equipment Repair", 
    "LEGAL_NAME": "MGM COMMUNICATIONS, LLC, SERIES F", 
    "STATE": "IL", 
    "DOING_BUSINESS_AS_NAME": "CRICKET", 
    "POP_AT_RISK": 33341, 
    "ZIP": 60621, 
    "ADDRESS": "5901 S MORGAN ST 1ST UNIT B", 
    "YEAR": 2012, 
    "LONGITUDE": -87.649678865, 
    "LATTITUDE": 41.786867109
  }, 
  {
    "BUSINESS_TYPE": "Electronic Equipment Repair", 
    "LEGAL_NAME": "TECHMARK MULTI-SERVICES, INC.", 
    "STATE": "IL", 
    "DOING_BUSINESS_AS_NAME": "TECHMARK MULTI-SERVICES, INC.", 
    "POP_AT_RISK": 39069, 
    "ZIP": 60637, 
    "ADDRESS": "6459 S COTTAGE GROVE AVE 1ST", 
    "YEAR": 2012, 
    "LONGITUDE": -87.605705018, 
    "LATTITUDE": 41.776870543
  }, 
  {
    "BUSINESS_TYPE": "Electronic Equipment Repair", 
    "LEGAL_NAME": "Demolab Inc", 
    "STATE": "IL", 
    "DOING_BUSINESS_AS_NAME": "Demolab Inc", 
    "POP_AT_RISK": 24680, 
    "ZIP": 60656, 
    "ADDRESS": "7110 W HIGGINS AVE 1ST", 
    "YEAR": 2012, 
    "LONGITUDE": -87.80510988, 
    "LATTITUDE": 41.980823631
  }, 
  {
    "BUSINESS_TYPE": "Electronic Equipment Repair", 
    "LEGAL_NAME": "Eddie L Fisher Senior", 
    "STATE": "IL", 
    "DOING_BUSINESS_AS_NAME": "Ed Fisher & Associates", 
    "POP_AT_RISK": 23616, 
    "ZIP": 60628, 
    "ADDRESS": "11908 S MICHIGAN AVE 1ST", 
    "YEAR": 2012, 
    "LONGITUDE": -87.620648044, 
    "LATTITUDE": 41.677737342
  }, 
  {
    "BUSINESS_TYPE": "Electronic Equipment Repair", 
    "LEGAL_NAME": "SPIRIT PCS LLC", 
    "STATE": "IL", 
    "DOING_BUSINESS_AS_NAME": "SPRINT", 
    "POP_AT_RISK": 20929, 
    "ZIP": 60617, 
    "ADDRESS": "2002 E 95TH ST 1ST", 
    "YEAR": 2012, 
    "LONGITUDE": -87.575209011, 
    "LATTITUDE": 41.722580334
  }, 
  {
    "BUSINESS_TYPE": "Electronic Equipment Repair", 
    "LEGAL_NAME": "RADIOSHACK CORPORATION", 
    "STATE": "IL", 
    "DOING_BUSINESS_AS_NAME": "RADIO SHACK #6585", 
    "POP_AT_RISK": 30208, 
    "ZIP": 60628, 
    "ADDRESS": "11613 S HALSTED ST", 
    "YEAR": 2012, 
    "LONGITUDE": -87.64195549, 
    "LATTITUDE": 41.683542177
  }
]