[
  {
    "BUSINESS_TYPE": "Massage Establishment", 
    "LEGAL_NAME": "RENOVACIONES VALLEJO", 
    "STATE": "IL", 
    "DOING_BUSINESS_AS_NAME": "RENOVACIONES VALLEJO", 
    "POP_AT_RISK": 57388, 
    "ZIP": 60629, 
    "ADDRESS": "3809 W 63RD ST", 
    "YEAR": 2007, 
    "LONGITUDE": -87.718278639, 
    "LATTITUDE": 41.778618371
  }, 
  {
    "BUSINESS_TYPE": "Massage Establishment", 
    "LEGAL_NAME": "BARBARA A GODINA", 
    "STATE": "IL", 
    "DOING_BUSINESS_AS_NAME": "CREATIONS TOUCH", 
    "POP_AT_RISK": 17702, 
    "ZIP": 60617, 
    "ADDRESS": "9204 S COMMERCIAL AVE  306", 
    "YEAR": 2007, 
    "LONGITUDE": -87.551357852, 
    "LATTITUDE": 41.728035914
  }, 
  {
    "BUSINESS_TYPE": "Massage Establishment", 
    "LEGAL_NAME": "ALOE PLUS CORP", 
    "STATE": "IL", 
    "DOING_BUSINESS_AS_NAME": "ALOE PLUS CORP", 
    "POP_AT_RISK": 48974, 
    "ZIP": 60632, 
    "ADDRESS": "5215 S KEDZIE AVE 1ST", 
    "YEAR": 2007, 
    "LONGITUDE": -87.703552193, 
    "LATTITUDE": 41.798507679
  }, 
  {
    "BUSINESS_TYPE": "Massage Establishment", 
    "LEGAL_NAME": "ALICE K. SZETO", 
    "STATE": "IL", 
    "DOING_BUSINESS_AS_NAME": "ALICE BEAUTY SALON", 
    "POP_AT_RISK": 36167, 
    "ZIP": 60616, 
    "ADDRESS": "2810 S WENTWORTH AVE 1", 
    "YEAR": 2007, 
    "LONGITUDE": -87.631932227, 
    "LATTITUDE": 41.842256797
  }, 
  {
    "BUSINESS_TYPE": "Massage Establishment", 
    "LEGAL_NAME": "CARMEN Y WONG", 
    "STATE": "IL", 
    "DOING_BUSINESS_AS_NAME": "ARIES MASSAGE", 
    "POP_AT_RISK": 68230, 
    "ZIP": 60641, 
    "ADDRESS": "3022 N PULASKI RD", 
    "YEAR": 2007, 
    "LONGITUDE": -87.727244524, 
    "LATTITUDE": 41.936082098
  }, 
  {
    "BUSINESS_TYPE": "Massage Establishment", 
    "LEGAL_NAME": "AUM-V, INCORPORATED", 
    "STATE": "IL", 
    "DOING_BUSINESS_AS_NAME": "AUM-V, INCORPORATED", 
    "POP_AT_RISK": 70921, 
    "ZIP": 60634, 
    "ADDRESS": "3062 N CENTRAL AVE", 
    "YEAR": 2007, 
    "LONGITUDE": -87.766578767, 
    "LATTITUDE": 41.936658548
  }, 
  {
    "BUSINESS_TYPE": "Massage Establishment", 
    "LEGAL_NAME": "JESUS AGUIRRE", 
    "STATE": "IL", 
    "DOING_BUSINESS_AS_NAME": "A J", 
    "POP_AT_RISK": 32659, 
    "ZIP": 60608, 
    "ADDRESS": "3113 S ARCHER AVE", 
    "YEAR": 2007, 
    "LONGITUDE": -87.666074019, 
    "LATTITUDE": 41.837342204
  }, 
  {
    "BUSINESS_TYPE": "Massage Establishment", 
    "LEGAL_NAME": "ROSA IDA MIRANDA", 
    "STATE": "IL", 
    "DOING_BUSINESS_AS_NAME": "SKY BLUE SPA", 
    "POP_AT_RISK": 80584, 
    "ZIP": 60647, 
    "ADDRESS": "3523 W FULLERTON AVE 1ST", 
    "YEAR": 2007, 
    "LONGITUDE": -87.714757285, 
    "LATTITUDE": 41.924520882
  }, 
  {
    "BUSINESS_TYPE": "Massage Establishment", 
    "LEGAL_NAME": "GGM'S CREATIONS, LLC", 
    "STATE": "IL", 
    "DOING_BUSINESS_AS_NAME": "GG'S CREATIONS", 
    "POP_AT_RISK": 29068, 
    "ZIP": 60652, 
    "ADDRESS": "2565 W 79TH ST 1", 
    "YEAR": 2007, 
    "LONGITUDE": -87.68777784, 
    "LATTITUDE": 41.74985592
  }, 
  {
    "BUSINESS_TYPE": "Massage Establishment", 
    "LEGAL_NAME": "HAIKU SPA, INC.", 
    "STATE": "IL", 
    "DOING_BUSINESS_AS_NAME": "HAIKU SPA INC.", 
    "POP_AT_RISK": 24413, 
    "ZIP": 60643, 
    "ADDRESS": "1701 W MONTEREY AVE", 
    "YEAR": 2007, 
    "LONGITUDE": -87.664781143, 
    "LATTITUDE": 41.689999605
  }, 
  {
    "BUSINESS_TYPE": "Massage Establishment", 
    "LEGAL_NAME": "ALICE ZHANG", 
    "STATE": "IL", 
    "DOING_BUSINESS_AS_NAME": "NAIL ACADEMY", 
    "POP_AT_RISK": 17199, 
    "ZIP": 60632, 
    "ADDRESS": "4324 S PULASKI RD", 
    "YEAR": 2007, 
    "LONGITUDE": -87.723978686, 
    "LATTITUDE": 41.81441946
  }, 
  {
    "BUSINESS_TYPE": "Massage Establishment", 
    "LEGAL_NAME": "DOLORES REYES-MERCADO", 
    "STATE": "IL", 
    "DOING_BUSINESS_AS_NAME": "YIN MASSAGE SPA", 
    "POP_AT_RISK": 29085, 
    "ZIP": 60612, 
    "ADDRESS": "737 S WESTERN AVE 1", 
    "YEAR": 2007, 
    "LONGITUDE": -87.686039448, 
    "LATTITUDE": 41.871974478
  }, 
  {
    "BUSINESS_TYPE": "Massage Establishment", 
    "LEGAL_NAME": "ROSA IDA MIRANDA", 
    "STATE": "IL", 
    "DOING_BUSINESS_AS_NAME": "DIVINE SPA", 
    "POP_AT_RISK": 46860, 
    "ZIP": 60639, 
    "ADDRESS": "6011 W GRAND AVE 1", 
    "YEAR": 2007, 
    "LONGITUDE": -87.776124632, 
    "LATTITUDE": 41.920541202
  }, 
  {
    "BUSINESS_TYPE": "Massage Establishment", 
    "LEGAL_NAME": "PATRICIA A. TONEY", 
    "STATE": "IL", 
    "DOING_BUSINESS_AS_NAME": "KM DAY SPA", 
    "POP_AT_RISK": 67040, 
    "ZIP": 60622, 
    "ADDRESS": "2556 W DIVISION ST", 
    "YEAR": 2007, 
    "LONGITUDE": -87.691722445, 
    "LATTITUDE": 41.903080519
  }, 
  {
    "BUSINESS_TYPE": "Massage Establishment", 
    "LEGAL_NAME": "DIONDA SHANTE JOHNSON - PUMPHREY", 
    "STATE": "IL", 
    "DOING_BUSINESS_AS_NAME": "A NATURAL TOUCH SPALON", 
    "POP_AT_RISK": 28497, 
    "ZIP": 60649, 
    "ADDRESS": "2522 E 73RD ST", 
    "YEAR": 2007, 
    "LONGITUDE": -87.56331584, 
    "LATTITUDE": 41.762823991
  }, 
  {
    "BUSINESS_TYPE": "Massage Establishment", 
    "LEGAL_NAME": "EPIPHANY SALON AND SPA, P.C.", 
    "STATE": "IL", 
    "DOING_BUSINESS_AS_NAME": "EPIPHANY SALON & SPA", 
    "POP_AT_RISK": 33664, 
    "ZIP": 60649, 
    "ADDRESS": "7040 S STONY ISLAND AVE", 
    "YEAR": 2007, 
    "LONGITUDE": -87.586492429, 
    "LATTITUDE": 41.766717593
  }, 
  {
    "BUSINESS_TYPE": "Massage Establishment", 
    "LEGAL_NAME": "ESCAPE TO BEAUTY, INC.", 
    "STATE": "IL", 
    "DOING_BUSINESS_AS_NAME": "PAVILION SALON & SPA", 
    "POP_AT_RISK": 13804, 
    "ZIP": 60656, 
    "ADDRESS": "5441 N EAST RIVER RD", 
    "YEAR": 2007, 
    "LONGITUDE": -87.846315578, 
    "LATTITUDE": 41.978307146
  }, 
  {
    "BUSINESS_TYPE": "Massage Establishment", 
    "LEGAL_NAME": "RELAX CENTER, INC.", 
    "STATE": "IL", 
    "DOING_BUSINESS_AS_NAME": "RELAX CENTER", 
    "POP_AT_RISK": 16758, 
    "ZIP": 60652, 
    "ADDRESS": "7601 S CICERO AVE  5581", 
    "YEAR": 2007, 
    "LONGITUDE": -87.741384759, 
    "LATTITUDE": 41.754660124
  }, 
  {
    "BUSINESS_TYPE": "Massage Establishment", 
    "LEGAL_NAME": "LILLIE ANN'S, INCORPORATED", 
    "STATE": "IL", 
    "DOING_BUSINESS_AS_NAME": "LILLIE ANN'S", 
    "POP_AT_RISK": 35264, 
    "ZIP": 60616, 
    "ADDRESS": "2251 S MICHIGAN AVE # 220", 
    "YEAR": 2007, 
    "LONGITUDE": -87.62361901, 
    "LATTITUDE": 41.851420906
  }, 
  {
    "BUSINESS_TYPE": "Massage Establishment", 
    "LEGAL_NAME": "HERBAL CONNECTION, INC.", 
    "STATE": "IL", 
    "DOING_BUSINESS_AS_NAME": "HERBAL CONNECTION INC", 
    "POP_AT_RISK": 36969, 
    "ZIP": 60653, 
    "ADDRESS": "4655 S DR MARTIN LUTHER KING JR DR 1 105", 
    "YEAR": 2007, 
    "LONGITUDE": -87.616446776, 
    "LATTITUDE": 41.809567038
  }, 
  {
    "BUSINESS_TYPE": "Massage Establishment", 
    "LEGAL_NAME": "TERESA SOJDA", 
    "STATE": "IL", 
    "DOING_BUSINESS_AS_NAME": "SOYDA HOUSE OF BEAUTY", 
    "POP_AT_RISK": 20372, 
    "ZIP": 60631, 
    "ADDRESS": "7622 W HIGGINS AVE 1ST", 
    "YEAR": 2007, 
    "LONGITUDE": -87.817779724, 
    "LATTITUDE": 41.983846922
  }, 
  {
    "BUSINESS_TYPE": "Massage Establishment", 
    "LEGAL_NAME": "ONLY BY FAITH, INC.", 
    "STATE": "IL", 
    "DOING_BUSINESS_AS_NAME": "ONLY BY FAITH", 
    "POP_AT_RISK": 47805, 
    "ZIP": 60651, 
    "ADDRESS": "5700 W CHICAGO AVE 2", 
    "YEAR": 2007, 
    "LONGITUDE": -87.768008331, 
    "LATTITUDE": 41.89492663
  }, 
  {
    "BUSINESS_TYPE": "Massage Establishment", 
    "LEGAL_NAME": "THERESA WOJCIAK", 
    "STATE": "IL", 
    "DOING_BUSINESS_AS_NAME": "THE HAIR CHANGERS", 
    "POP_AT_RISK": 20765, 
    "ZIP": 60638, 
    "ADDRESS": "5995 S ARCHER AVE", 
    "YEAR": 2007, 
    "LONGITUDE": -87.766275323, 
    "LATTITUDE": 41.795003786
  }, 
  {
    "BUSINESS_TYPE": "Massage Establishment", 
    "LEGAL_NAME": "SEAN PATRICK'S CHICAGO, LLC", 
    "STATE": "IL", 
    "DOING_BUSINESS_AS_NAME": "SEAN PATRICK'S SALON AND SPA", 
    "POP_AT_RISK": 45304, 
    "ZIP": 60607, 
    "ADDRESS": "1304 S HALSTED ST", 
    "YEAR": 2007, 
    "LONGITUDE": -87.64700825, 
    "LATTITUDE": 41.865257039
  }, 
  {
    "BUSINESS_TYPE": "Massage Establishment", 
    "LEGAL_NAME": "THE BLOOMING LOTUS, CORP.", 
    "STATE": "IL", 
    "DOING_BUSINESS_AS_NAME": "THE BLOOMING LOTUS, CORP", 
    "POP_AT_RISK": 13444, 
    "ZIP": 60638, 
    "ADDRESS": "6842 W ARCHER AVE", 
    "YEAR": 2007, 
    "LONGITUDE": -87.793283804, 
    "LATTITUDE": 41.792233217
  }, 
  {
    "BUSINESS_TYPE": "Massage Establishment", 
    "LEGAL_NAME": "LILIAN SALON & SPA, INC.", 
    "STATE": "IL", 
    "DOING_BUSINESS_AS_NAME": "LILIAN SALON & SPA, INC.", 
    "POP_AT_RISK": 48917, 
    "ZIP": 60622, 
    "ADDRESS": "2623 W CHICAGO AVE  1", 
    "YEAR": 2007, 
    "LONGITUDE": -87.692735161, 
    "LATTITUDE": 41.895574135
  }, 
  {
    "BUSINESS_TYPE": "Massage Establishment", 
    "LEGAL_NAME": "SOUTH CENTRAL COMMUNITY SERVICES, INC.", 
    "STATE": "IL", 
    "DOING_BUSINESS_AS_NAME": "SOUTH CENTRAL COMMUNITY SERVICES", 
    "POP_AT_RISK": 38439, 
    "ZIP": 60619, 
    "ADDRESS": "8545 S COTTAGE GROVE AVE", 
    "YEAR": 2007, 
    "LONGITUDE": -87.604740541, 
    "LATTITUDE": 41.738947757
  }, 
  {
    "BUSINESS_TYPE": "Massage Establishment", 
    "LEGAL_NAME": "DIMARE FASHION & SPA INC.", 
    "STATE": "IL", 
    "DOING_BUSINESS_AS_NAME": "DIMARE FASHION & SPA, INC.", 
    "POP_AT_RISK": 20680, 
    "ZIP": 60634, 
    "ADDRESS": "7441 W IRVING PARK RD  SE", 
    "YEAR": 2007, 
    "LONGITUDE": -87.813819958, 
    "LATTITUDE": 41.952503586
  }, 
  {
    "BUSINESS_TYPE": "Massage Establishment", 
    "LEGAL_NAME": "EURO MASSAGE CENTER, INC.", 
    "STATE": "IL", 
    "DOING_BUSINESS_AS_NAME": "EUROSPA", 
    "POP_AT_RISK": 15272, 
    "ZIP": 60631, 
    "ADDRESS": "7257 W TOUHY AVE 103", 
    "YEAR": 2007, 
    "LONGITUDE": -87.808882939, 
    "LATTITUDE": 42.011549519
  }, 
  {
    "BUSINESS_TYPE": "Massage Establishment", 
    "LEGAL_NAME": "SUZEN COOK  MASSAGE THERAPY, INC.", 
    "STATE": "IL", 
    "DOING_BUSINESS_AS_NAME": "LUMBAR LOUNGE", 
    "POP_AT_RISK": 43751, 
    "ZIP": 60626, 
    "ADDRESS": "1445 W JARVIS AVE", 
    "YEAR": 2007, 
    "LONGITUDE": -87.667895811, 
    "LATTITUDE": 42.01594471
  }, 
  {
    "BUSINESS_TYPE": "Massage Establishment", 
    "LEGAL_NAME": "YAN LIU", 
    "STATE": "IL", 
    "DOING_BUSINESS_AS_NAME": "YELLOW ROSE", 
    "POP_AT_RISK": 36128, 
    "ZIP": 60616, 
    "ADDRESS": "702 W 35TH ST", 
    "YEAR": 2007, 
    "LONGITUDE": -87.643822579, 
    "LATTITUDE": 41.830887992
  }, 
  {
    "BUSINESS_TYPE": "Massage Establishment", 
    "LEGAL_NAME": "EURO MASSAGE CENTER, INC.", 
    "STATE": "IL", 
    "DOING_BUSINESS_AS_NAME": "EUROSPA", 
    "POP_AT_RISK": 52156, 
    "ZIP": 60659, 
    "ADDRESS": "3110 W DEVON AVE", 
    "YEAR": 2007, 
    "LONGITUDE": -87.707428525, 
    "LATTITUDE": 41.997531905
  }
]