[
{"STATE":"IL","ZIP":60618,"LATTITUDE":41.957673948828486,"ADDRESS":"4164 N LINCOLN AVE  1ST","YEAR":1997,"DOING_BUSINESS_AS_NAME":"FOUR WHEELS AUTOMOTIVE SERVICE","POP_AT_RISK":403432,"BUSINESS_TYPE":"Motor Vehicle Repair : Engine Only (Class II)","LEGAL_NAME":"ESMAR A HERRADOR","LONGITUDE":-87.68138944682875},
{"STATE":"IL","ZIP":60613,"LATTITUDE":41.951469720953824,"ADDRESS":"3827 N ASHLAND AVE  1","YEAR":1997,"DOING_BUSINESS_AS_NAME":"CHICAGO GARAGE","POP_AT_RISK":1098528,"BUSINESS_TYPE":"Motor Vehicle Repair : Engine Only (Class II)","LEGAL_NAME":"PHOLAPRUT WONGHANSA","LONGITUDE":-87.66883213533032},
{"STATE":"IL","ZIP":60608,"LATTITUDE":41.838151744949,"ADDRESS":"810 W 31ST ST  ","YEAR":1997,"DOING_BUSINESS_AS_NAME":"Q-LUBE","POP_AT_RISK":526344,"BUSINESS_TYPE":"Motor Vehicle Repair : Engine Only (Class II)","LEGAL_NAME":"AUTOSERV\/LUBECO LCC.","LONGITUDE":-87.64667920500456},
{"STATE":"IL","ZIP":60634,"LATTITUDE":41.953239852039225,"ADDRESS":"5738 W IRVING PARK RD  ","YEAR":1997,"DOING_BUSINESS_AS_NAME":"Q LUBE #1854","POP_AT_RISK":548295,"BUSINESS_TYPE":"Motor Vehicle Repair : Engine Only (Class II)","LEGAL_NAME":"AUTOSERV\/LUBECO LCC.","LONGITUDE":-87.77104619563873},
{"STATE":"IL","ZIP":60617,"LATTITUDE":41.73696312727231,"ADDRESS":"8700 S JEFFERY BLVD  1ST","YEAR":1997,"DOING_BUSINESS_AS_NAME":"ROB'S SERVICE","POP_AT_RISK":199184,"BUSINESS_TYPE":"Motor Vehicle Repair : Engine Only (Class II)","LEGAL_NAME":"ROBERT E. DARENSBOURG","LONGITUDE":-87.57586270845121},
{}]