[
  {
    "BUSINESS_TYPE": "Home Repair", 
    "LEGAL_NAME": "CHICAGO HEATING & AIR CONDITIONING, INC.", 
    "STATE": "IL", 
    "DOING_BUSINESS_AS_NAME": "CHICAGO HEATING & AIR CONDITIONING, INC.", 
    "POP_AT_RISK": 59017, 
    "ZIP": 60634, 
    "ADDRESS": "5645 W IRVING PARK RD 1ST", 
    "YEAR": 2015, 
    "LONGITUDE": -87.768835996, 
    "LATTITUDE": 41.953054322
  }, 
  {
    "BUSINESS_TYPE": "Home Repair", 
    "LEGAL_NAME": "BIG CITY CONSTRUCTION, INC.", 
    "STATE": "IL", 
    "DOING_BUSINESS_AS_NAME": "BIG CITY CONSTRUCTION, INC.", 
    "POP_AT_RISK": 67156, 
    "ZIP": 60647, 
    "ADDRESS": "2407 N MILWAUKEE AVE 1ST", 
    "YEAR": 2015, 
    "LONGITUDE": -87.700551966, 
    "LATTITUDE": 41.925010628
  }, 
  {
    "BUSINESS_TYPE": "Home Repair", 
    "LEGAL_NAME": "E & E CONTRACTORS INC.", 
    "STATE": "IL", 
    "DOING_BUSINESS_AS_NAME": "E & E CONTRACTORS INC", 
    "POP_AT_RISK": 28423, 
    "ZIP": 60643, 
    "ADDRESS": "9756 S PROSPECT AVE 1 1", 
    "YEAR": 2015, 
    "LONGITUDE": -87.664260242, 
    "LATTITUDE": 41.716495782
  }, 
  {
    "BUSINESS_TYPE": "Home Repair", 
    "LEGAL_NAME": "ARKEN & CO", 
    "STATE": "IL", 
    "DOING_BUSINESS_AS_NAME": "ARKEN & CO", 
    "POP_AT_RISK": 61321, 
    "ZIP": 60639, 
    "ADDRESS": "2449-2451 N CICERO AVE", 
    "YEAR": 2015, 
    "LONGITUDE": -87.746208061, 
    "LATTITUDE": 41.92569998
  }, 
  {
    "BUSINESS_TYPE": "Home Repair", 
    "LEGAL_NAME": "DOUGLAS ELECTRIC CONTRACTING INC.", 
    "STATE": "IL", 
    "DOING_BUSINESS_AS_NAME": "DOUGLAS ELECTRIC CONTRACTING INC.", 
    "POP_AT_RISK": 37704, 
    "ZIP": 60641, 
    "ADDRESS": "4255 N MILWAUKEE AVE 1ST A", 
    "YEAR": 2015, 
    "LONGITUDE": -87.752446865, 
    "LATTITUDE": 41.958488692
  }, 
  {
    "BUSINESS_TYPE": "Home Repair", 
    "LEGAL_NAME": "RESURRECTION PROPERTY SERVICE HEATING AND AIR CO.", 
    "STATE": "IL", 
    "DOING_BUSINESS_AS_NAME": "RESURRECTION PROPERTY SERVICE HEATING AND AIR CO.", 
    "POP_AT_RISK": 8945, 
    "ZIP": 60655, 
    "ADDRESS": "11841 S ARTESIAN AVE", 
    "YEAR": 2015, 
    "LONGITUDE": -87.681800577, 
    "LATTITUDE": 41.677889843
  }, 
  {
    "BUSINESS_TYPE": "Home Repair", 
    "LEGAL_NAME": "JOE STEWART", 
    "STATE": "IL", 
    "DOING_BUSINESS_AS_NAME": "J STEWART SEWERAGE & DRAINAGE", 
    "POP_AT_RISK": 38568, 
    "ZIP": 60639, 
    "ADDRESS": "2215 N MOODY AVE", 
    "YEAR": 2015, 
    "LONGITUDE": -87.779114263, 
    "LATTITUDE": 41.920653151
  }, 
  {
    "BUSINESS_TYPE": "Home Repair", 
    "LEGAL_NAME": "WARSHAW KING & MAURICE DEMUS", 
    "STATE": "IL", 
    "DOING_BUSINESS_AS_NAME": "AIRZONE HEATING & COOLING", 
    "POP_AT_RISK": 35966, 
    "ZIP": 60652, 
    "ADDRESS": "3755 W 76TH PL", 
    "YEAR": 2015, 
    "LONGITUDE": -87.71656227, 
    "LATTITUDE": 41.75420264
  }, 
  {
    "BUSINESS_TYPE": "Home Repair", 
    "LEGAL_NAME": "JEFFREY WILLIAMS", 
    "STATE": "IL", 
    "DOING_BUSINESS_AS_NAME": "METROPOLITAN REMODELING", 
    "POP_AT_RISK": 35829, 
    "ZIP": 60619, 
    "ADDRESS": "7149 S WABASH AVE", 
    "YEAR": 2015, 
    "LONGITUDE": -87.623122987, 
    "LATTITUDE": 41.764101162
  }, 
  {
    "BUSINESS_TYPE": "Home Repair", 
    "LEGAL_NAME": "CARLOS G. LOPEZ", 
    "STATE": "IL", 
    "DOING_BUSINESS_AS_NAME": "NEW GENERATION HVAC", 
    "POP_AT_RISK": 34985, 
    "ZIP": 60707, 
    "ADDRESS": "2429 N OAK PARK AVE 2ND 2", 
    "YEAR": 2015, 
    "LONGITUDE": -87.795124055, 
    "LATTITUDE": 41.92448289
  }, 
  {
    "BUSINESS_TYPE": "Home Repair", 
    "LEGAL_NAME": "R & R GLASS AND WINDOWS INC.", 
    "STATE": "IL", 
    "DOING_BUSINESS_AS_NAME": "R & R GLASS AND WINDOWS INC.", 
    "POP_AT_RISK": 48314, 
    "ZIP": 60641, 
    "ADDRESS": "3541 N KENTON AVE 1", 
    "YEAR": 2015, 
    "LONGITUDE": -87.741956182, 
    "LATTITUDE": 41.945595507
  }, 
  {
    "BUSINESS_TYPE": "Home Repair", 
    "LEGAL_NAME": "BUILDING AMERICA, LTD.", 
    "STATE": "IL", 
    "DOING_BUSINESS_AS_NAME": "BUILDING AMERICA, LTD.", 
    "POP_AT_RISK": 49814, 
    "ZIP": 60651, 
    "ADDRESS": "1238 N KOSTNER AVE", 
    "YEAR": 2015, 
    "LONGITUDE": -87.736320984, 
    "LATTITUDE": 41.903680329
  }, 
  {
    "BUSINESS_TYPE": "Home Repair", 
    "LEGAL_NAME": "JOE'S HANDYMAN SERVICES", 
    "STATE": "IL", 
    "DOING_BUSINESS_AS_NAME": "JOE'S PLUMBING SERVICE", 
    "POP_AT_RISK": 71082, 
    "ZIP": 60614, 
    "ADDRESS": "2506 N CLARK ST 1ST", 
    "YEAR": 2015, 
    "LONGITUDE": -87.64205846, 
    "LATTITUDE": 41.927967034
  }
]